     2.10           OBSERVATION DATA    G (GPS)             RINEX VERSION / TYPE
JPS2RIN 1.07        RUN BY              04-SEP-01 13:20     PGM / RUN BY / DATE
build October 30, 2000 (c) Topcon Positioning Systems       COMMENT
RUN BY;COMMENT;MARKER NAME;MARKER NUMBER;OBSERVER;AGENCY;   COMMENT
ANT #;ANT TYPE - You can set in profile.                    COMMENT
kai10001.jps                                                COMMENT
Site                                                        MARKER NAME
                                                            MARKER NUMBER
OBSERVER            AGENCY                                  OBSERVER / AGENCY
MT301513219         JPS EUROCARD        2.2 Apr,25,2001 r   REC # / TYPE / VERS
kai10001            -Unknown-                               ANT # / TYPE
  3427819.3209   603664.0433  5326880.6438                  APPROX POSITION XYZ
        0.0000        0.0000        0.0000                  ANTENNA: DELTA H/E/N
     1     1                                                WAVELENGTH FACT L1/2
  2001     9     4     9    40    0.0000000     GPS         TIME OF FIRST OBS
  2001     9     4     9    40   22.0000000     GPS         TIME OF LAST OBS
     1.000                                                  INTERVAL
    13                                                      LEAP SECONDS
     7                                                      # OF SATELLITES
     7    C1    P1    P2    L1    L2    D1    D2            # / TYPES OF OBSERV
   G 1    23    23    23    23    23    23    23            PRN / # OF OBS
   G 4    23    23    23    23    23    23    23            PRN / # OF OBS
   G 7    23    23    23    23    23    23    23            PRN / # OF OBS
   G13    23    23    23    23    23    23    23            PRN / # OF OBS
   G20    23    23    23    23    23    23    23            PRN / # OF OBS
   G24    23    23    23    23    23    23    23            PRN / # OF OBS
   G25    23    23    23    23    23    23    23            PRN / # OF OBS
                                                            END OF HEADER
 01  9  4  9 40  0.0000000  0  7G 1G 4G 7G13G20G24G25               
  20532012.14648  20532011.55846  20532016.22546 107896448.4014   84075170.1284 
      -702.033        -547.047  
  21255524.69947  21255524.94445  21255529.02045 111698540.8774   87037834.1244 
       799.589         623.056  
  24648794.02245  24648792.88941  24648801.63741 129530300.6484  100932694.9344 
     -3425.352       -2669.144  
  21267718.45748  21267718.52445  21267722.00945 111762613.2534   87087766.9504 
      1911.882        1489.773  
  21900010.88847  21900009.74444  21900015.95344 115085325.1934   89676892.5064 
     -3011.439       -2346.579  
  23828505.41246  23828504.07842  23828511.81542 125219643.5474   97573763.5014 
      2743.177        2137.544  
  24104647.59546  24104646.97742  24104654.81342 126670763.8784   98704504.1444 
     -2800.638       -2182.275  
 01  9  4  9 40  1.0000000  0  7G 1G 4G 7G13G20G24G25               
  20532145.71148  20532145.21946  20532149.91946 107897150.6724   84075717.3514 
      -702.345        -547.270  
  21255372.73948  21255372.85245  21255376.88845 111697741.6174   87037211.3244 
       799.181         622.760  
  24649445.71545  24649446.38141  24649453.37041 129533726.0764  100935364.0674 
     -3424.999       -2668.747  
  21267354.65548  21267354.79145  21267358.17645 111760701.4824   87086277.2614 
      1911.786        1489.708  
  21900584.01247  21900582.81044  21900589.00644 115088336.6904   89679239.1234 
     -3011.424       -2346.571  
  23827983.22346  23827981.97242  23827989.91942 125216900.3294   97571625.9354 
      2743.271        2137.612  
  24105180.19146  24105179.83942  24105187.46842 126673564.5354   98706686.4834 
     -2800.685       -2182.370  
 01  9  4  9 40  2.0000000  0  7G 1G 4G 7G13G20G24G25               
  20532279.54748  20532278.89046  20532283.65946 107897853.3954   84076264.9274 
      -702.915        -547.744  
  21255220.82848  21255220.84845  21255224.98145 111696942.8854   87036588.9374 
       798.569         622.247  
  24650097.30245  24650098.63141  24650105.91041 129537151.6154  100938033.3214 
     -3425.458       -2669.115  
  21266991.04748  21266991.04245  21266994.42145 111758790.0844   87084787.8594 
      1911.335        1489.346  
  21901156.69447  21901155.87544  21901162.02744 115091348.4254   89681585.9274 
     -3011.727       -2346.811  
  23827461.17446  23827460.42042  23827467.93542 125214157.3084   97569488.5094 
      2742.852        2137.267  
  24105713.71246  24105712.45542  24105720.29942 126676365.5364   98708869.0704 
     -2801.122       -2182.674  
 01  9  4  9 40  3.0000000  0  7G 1G 4G 7G13G20G24G25               
  20532413.26948  20532412.64946  20532417.33746 107898556.3054   84076812.6494 
      -703.137        -547.891  
  21255069.18347  21255068.65245  21255073.20545 111696144.3914   87035966.7334 
       798.166         621.960  
  24650748.16845  24650749.76341  24650756.60141 129540576.9004  100940702.3714 
     -3425.132       -2668.826  
  21266627.24948  21266627.39645  21266630.69845 111756878.7924   87083298.5444 
      1911.120        1489.198  
  21901730.09047  21901729.05444  21901734.78944 115094360.1444   89683932.7214 
     -3011.799       -2346.828  
  23826939.12246  23826938.33442  23826946.03442 125211414.2164   97567351.0404 
      2743.017        2137.461  
  24106246.92846  24106245.52042  24106252.98042 126679166.5624   98711051.6944 
     -2801.066       -2182.605  
 01  9  4  9 40  4.0000000  0  7G 1G 4G 7G13G20G24G25               
  20532547.08048  20532546.39146  20532551.14546 107899259.5634   84077360.6424 
      -703.835        -548.442  
  21254916.88547  21254916.67645  21254921.36345 111695346.2944   87035344.8424 
       797.533         621.462  
  24651399.32545  24651401.37741  24651407.45441 129544002.1954  100943371.4484 
     -3426.010       -2669.631  
  21266263.80948  21266263.66945  21266266.94245 111754967.7654   87081809.4314 
      1910.515        1488.716  
  21902303.40147  21902302.09644  21902307.75044 115097372.0034   89686279.6184 
     -3012.205       -2347.182  
  23826416.85646  23826416.56442  23826424.31542 125208671.1944   97565213.6154 
      2742.549        2137.065  
  24106779.61446  24106778.51242  24106785.46242 126681967.8384   98713234.4864 
     -2801.785       -2183.191  
 01  9  4  9 40  5.0000000  0  7G 1G 4G 7G13G20G24G25               
  20532681.12148  20532680.33846  20532685.09346 107899963.3354   84077909.0334 
      -703.359        -548.062  
  21254765.11547  21254764.84445  21254769.57345 111694548.7654   87034723.3914 
       797.982         621.810  
  24652051.91445  24652051.46041  24652060.43341 129547427.5874  100946040.5764 
     -3424.549       -2668.509  
  21265900.32848  21265900.11745  21265903.42945 111753057.1684   87080320.6514 
      1911.120        1489.200  
  21902876.41347  21902875.32044  21902880.89744 115100384.1464   89688626.7434 
     -3011.602       -2346.701  
  23825894.93046  23825894.76542  23825902.97542 125205928.4254   97563076.3874 
      2743.330        2137.678  
  24107312.13146  24107311.33942  24107318.89742 126684769.5024   98715417.6074 
     -2801.203       -2182.777  
 01  9  4  9 40  6.0000000  0  7G 1G 4G 7G13G20G24G25               
  20532815.18048  20532814.26146  20532818.92246 107900666.8394   84078457.2184 
      -703.591        -548.251  
  21254613.33747  21254613.15445  21254617.66345 111693751.0214   87034101.7714 
       797.585         621.495  
  24652703.35945  24652703.38441  24652712.93541 129550852.3044  100948709.1614 
     -3424.671       -2668.552  
  21265536.49648  21265536.40445  21265539.76545 111751146.2194   87078831.6034 
      1910.944        1489.054  
  21903449.63247  21903448.43644  21903454.22244 115103395.8204   89690973.4974 
     -3011.653       -2346.741  
  23825373.04646  23825372.68642  23825380.50142 125203185.1224   97560938.7494 
      2743.257        2137.579  
  24107845.39746  24107844.54842  24107852.56642 126687570.7594   98717600.4114 
     -2801.246       -2182.828  
 01  9  4  9 40  7.0000000  0  7G 1G 4G 7G13G20G24G25               
  20532949.12248  20532948.17246  20532952.88846 107901370.8144   84079005.7694 
      -703.983        -548.553  
  21254461.69147  21254461.48445  21254465.95645 111692953.8044   87033480.5664 
       797.290         621.276  
  24653354.83345  24653355.92141  24653365.23941 129554277.1274  100951377.8664 
     -3424.646       -2668.612  
  21265172.74248  21265172.87145  21265176.27445 111749235.6524   87077342.8494 
      1910.625        1488.809  
  21904022.42147  21904021.59244  21904027.50444 115106407.7464   89693320.4474 
     -3011.760       -2346.819  
  23824850.98946  23824850.57342  23824858.41842 125200441.9974   97558801.2594 
      2743.370        2137.695  
  24108378.32646  24108377.60942  24108386.22742 126690372.3454   98719783.4744 
     -2801.310       -2182.861  
 01  9  4  9 40  8.0000000  0  7G 1G 4G 7G13G20G24G25               
  20533082.88348  20533082.19246  20533086.83846 107902074.6314   84079554.1964 
      -704.021        -548.566  
  21254310.07048  21254309.67945  21254314.12445 111692156.4734   87032859.2664 
       797.018         621.074  
  24654005.25845  24654006.40041  24654015.91241 129557701.4034  100954046.1454 
     -3424.277       -2668.362  
  21264809.24948  21264809.26545  21264812.81345 111747324.8394   87075853.9034 
      1910.647        1488.827  
  21904595.22347  21904594.70544  21904600.82444 115109419.3024   89695667.1074 
     -3011.747       -2346.794  
  23824329.11346  23824328.77042  23824336.68942 125197698.4864   97556663.4604 
      2743.341        2137.667  
  24108911.78346  24108910.70642  24108918.96342 126693173.6814   98721966.3274 
     -2801.662       -2183.054  
 01  9  4  9 40  9.0000000  0  7G 1G 4G 7G13G20G24G25               
  20533216.88048  20533216.17346  20533220.88246 107902778.9134   84080102.9884 
      -704.213        -548.744  
  21254158.50148  21254158.18045  21254162.53745 111691359.6584   87032238.3724 
       796.882         620.937  
  24654656.78945  24654657.49241  24654667.79241 129561125.7354  100956714.4654 
     -3424.044       -2668.075  
  21264445.85947  21264445.60045  21264449.21945 111745414.4144   87074365.2654 
      1910.634        1488.785  
  21905168.62747  21905167.96944  21905174.08644 115112431.0954   89698013.9614 
     -3011.500       -2346.638  
  23823806.91646  23823806.46442  23823814.16342 125194955.1414   97554525.7894 
      2743.677        2137.905  
  24109444.85546  24109444.20542  24109452.75542 126695975.2934   98724149.4074 
     -2801.378       -2182.913  
 01  9  4  9 40 10.0000000  0  7G 1G 4G 7G13G20G24G25               
  20533350.94148  20533350.20846  20533354.83446 107903483.2494   84080651.8204 
      -704.444        -548.912  
  21254006.72648  21254006.52945  21254010.94545 111690562.9654   87031617.5714 
       796.514         620.666  
  24655308.70245  24655308.95241  24655320.02541 129564549.7534  100959382.5344 
     -3423.905       -2667.938  
  21264082.25048  21264082.09845  21264085.78145 111743503.9644   87072876.6014 
      1910.386        1488.634  
  21905741.69747  21905740.99144  21905746.97644 115115442.7464   89700360.6984 
     -3011.706       -2346.781  
  23823284.70346  23823284.51442  23823292.67942 125192211.6064   97552387.9674 
      2743.505        2137.837  
  24109977.91246  24109977.57042  24109985.95942 126698776.8804   98726332.4534 
     -2801.704       -2183.092  
 01  9  4  9 40 11.0000000  0  7G 1G 4G 7G13G20G24G25               
  20533484.86748  20533484.41746  20533489.05646 107904188.0314   84081201.0024 
      -704.500        -548.972  
  21253855.40147  21253855.01645  21253859.37545 111689766.7724   87030997.1634 
       796.512         620.656  
  24655960.63745  24655959.93241  24655971.69541 129567973.8524  100962050.6604 
     -3423.753       -2667.910  
  21263718.87048  21263718.64545  21263722.20145 111741593.8804   87071388.2254 
      1910.460        1488.663  
  21906314.92547  21906314.10544  21906320.23744 115118454.6314   89702707.6174 
     -3011.567       -2346.676  
  23822762.39346  23822762.72642  23822769.89542 125189468.2244   97550250.2644 
      2743.656        2137.907  
  24110511.54946  24110510.70842  24110518.58942 126701578.7704   98728515.7344 
     -2801.656       -2183.104  
 01  9  4  9 40 12.0000000  0  7G 1G 4G 7G13G20G24G25               
  20533619.24948  20533618.53946  20533623.35746 107904893.0594   84081750.3754 
      -704.987        -549.332  
  21253703.51947  21253703.49945  21253708.05045 111688970.8774   87030376.9814 
       795.891         620.180  
  24656612.78145  24656610.97641  24656621.94241 129571397.7664  100964718.6334 
     -3423.706       -2667.932  
  21263355.30748  21263355.28445  21263358.70045 111739683.9614   87069899.9794 
      1909.973        1488.307  
  21906887.75847  21906887.18344  21906893.22944 115121466.5294   89705054.5514 
     -3011.744       -2346.824  
  23822240.66146  23822240.57042  23822247.92342 125186724.8474   97548112.5744 
      2743.376        2137.696  
  24111044.89146  24111044.53142  24111050.64242 126704380.7514   98730699.0944 
     -2801.914       -2183.228  
 01  9  4  9 40 13.0000000  0  7G 1G 4G 7G13G20G24G25               
  20533753.62248  20533752.77646  20533757.56746 107905598.4744   84082300.0464 
      -705.313        -549.602  
  21253552.35547  21253552.00745  21253556.74845 111688175.4134   87029757.1374 
       795.528         619.875  
  24657264.11745  24657263.06741  24657273.08941 129574821.7394  100967386.6644 
     -3424.120       -2668.156  
  21262992.06748  21262991.83745  21262995.25845 111737774.3344   87068411.9584 
      1909.667        1488.040  
  21907460.89047  21907460.40044  21907466.14644 115124478.6124   89707401.6294 
     -3012.000       -2347.022  
  23821718.84146  23821718.74942  23821725.76242 125183981.5784   97545974.9624 
      2743.410        2137.742  
  24111577.41446  24111577.28542  24111583.62142 126707183.0024   98732882.6464 
     -2801.938       -2183.344  
 01  9  4  9 40 14.0000000  0  7G 1G 4G 7G13G20G24G25               
  20533887.59048  20533887.11346  20533891.79346 107906304.1654   84082849.9364 
      -705.718        -549.922  
  21253401.16547  21253400.72845  21253405.24945 111687380.2934   87029137.5664 
       795.216         619.640  
  24657914.83045  24657915.02341  24657924.51341 129578245.5584  100970054.5904 
     -3423.566       -2667.776  
  21262628.74748  21262628.51245  21262631.83345 111735864.8954   87066924.0834 
      1909.560        1487.973  
  21908034.02247  21908033.50644  21908039.18144 115127490.7614   89709748.7524 
     -3012.144       -2347.130  
  23821196.82146  23821196.98642  23821203.53842 125181238.2954   97543837.3384 
      2743.402        2137.754  
  24112110.58646  24112110.64042  24112117.18942 126709985.4094   98735066.3384 
     -2802.091       -2183.478  
 01  9  4  9 40 15.0000000  0  7G 1G 4G 7G13G20G24G25               
  20534021.64948  20534021.33546  20534026.05646 107907010.0754   84083399.9964 
      -705.935        -550.058  
  21253249.77948  21253249.59445  21253253.93145 111686585.4354   87028518.1964 
       794.886         619.421  
  24658565.25245  24658567.59041  24658574.21341 129581669.2024  100972722.3594 
     -3423.579       -2667.672  
  21262265.37048  21262265.04345  21262268.39445 111733955.6084   87065436.3274 
      1909.297        1487.781  
  21908607.56647  21908606.84844  21908612.32144 115130502.8964   89712095.8654 
     -3012.080       -2347.053  
  23820674.69446  23820674.71342  23820681.49642 125178494.9874   97541699.6974 
      2743.408        2137.733  
  24112644.09546  24112644.19242  24112650.78942 126712787.9174   98737250.1254 
     -2802.584       -2183.812  
 01  9  4  9 40 16.0000000  0  7G 1G 4G 7G13G20G24G25               
  20534156.19448  20534155.61746  20534160.38446 107907716.1114   84083950.1514 
      -706.007        -550.139  
  21253098.68748  21253098.45845  21253102.87645 111685790.7694   87027898.9724 
       794.706         619.254  
  24659217.97944  24659219.32641  24659226.88641 129585092.4814  100975389.8594 
     -3423.439       -2667.591  
  21261902.14248  21261901.72245  21261905.06445 111732046.3414   87063948.5864 
      1909.307        1487.770  
  21909180.80047  21909179.99544  21909185.80144 115133514.9514   89714442.9204 
     -3011.974       -2347.006  
  23820152.78346  23820152.84642  23820159.82243 125175751.5394   97539561.9414 
      2743.445        2137.740  
  24113177.38346  24113177.07242  24113183.57442 126715590.3834   98739433.8644 
     -2802.282       -2183.595  
 01  9  4  9 40 17.0000000  0  7G 1G 4G 7G13G20G24G25               
  20534290.68148  20534290.05446  20534294.91046 107908422.3844   84084500.4924 
      -706.496        -550.522  
  21252947.79647  21252947.30145  21252951.70345 111684996.4304   87027280.0074 
       794.073         618.735  
  24659870.10744  24659869.57441  24659878.34141 129588515.7154  100978057.3034 
     -3423.096       -2667.288  
  21261538.83348  21261538.56445  21261541.97645 111730137.2484   87062460.9864 
      1908.882        1487.419  
  21909753.75847  21909752.94344  21909759.17444 115136527.0354   89716789.9954 
     -3012.243       -2347.206  
  23819630.60046  23819630.70742  23819637.69943 125173008.0684   97537424.1754 
      2743.363        2137.667  
  24113710.76446  24113709.78142  24113716.81942 126718392.9804   98741617.7084 
     -2802.680       -2183.906  
 01  9  4  9 40 18.0000000  0  7G 1G 4G 7G13G20G24G25               
  20534425.47547  20534424.56346  20534429.31646 107909129.0394   84085051.1324 
      -706.840        -550.779  
  21252796.55848  21252796.22245  21252800.53845 111684202.5104   87026661.3724 
       793.798         618.528  
  24660522.83344  24660519.62641  24660529.17541 129591938.8934  100980724.7294 
     -3422.996       -2667.245  
  21261175.68948  21261175.27545  21261178.88445 111728228.4384   87060973.6034 
      1908.726        1487.325  
  21910326.93247  21910326.13244  21910332.19544 115139539.2774   89719137.1924 
     -3012.272       -2347.217  
  23819109.05346  23819108.25642  23819115.76543 125170264.6704   97535286.4634 
      2743.481        2137.786  
  24114244.47646  24114243.07442  24114250.73042 126721195.8094   98743801.7234 
     -2802.772       -2183.991  
 01  9  4  9 40 19.0000000  0  7G 1G 4G 7G13G20G24G25               
  20534559.95848  20534559.19146  20534563.98246 107909836.3884   84085602.3114 
      -707.116        -550.993  
  21252645.35948  21252645.42645  21252649.58845 111683409.3574   87026043.3284 
       793.341         618.197  
  24661174.54744  24661170.44241  24661180.86141 129595362.3954  100983392.3904 
     -3423.450       -2667.635  
  21260812.45148  21260812.03045  21260815.86245 111726320.2544   87059486.7044 
      1908.458        1487.112  
  21910899.86147  21910899.44344  21910905.79044 115142552.0084   89721484.7664 
     -3012.369       -2347.281  
  23818586.37146  23818586.99242  23818593.75643 125167521.7604   97533149.1194 
      2743.336        2137.625  
  24114777.36846  24114776.57442  24114785.07542 126723999.2164   98745986.1814 
     -2802.985       -2184.091  
 01  9  4  9 40 20.0000000  0  7G 1G 4G 7G13G20G24G25               
  20534694.58748  20534693.79846  20534698.58046 107910543.7674   84086153.5184 
      -707.493        -551.290  
  21252494.25147  21252494.54945  21252498.72145 111682616.2594   87025425.3334 
       793.009         617.929  
  24661826.33544  24661822.49441  24661832.46041 129598785.5424  100986059.7804 
     -3422.908       -2667.276  
  21260449.06048  21260448.92045  21260452.69545 111724412.0054   87057999.7594 
      1908.192        1486.903  
  21911473.44748  21911472.78744  21911479.25944 115145564.5454   89723832.1984 
     -3012.486       -2347.398  
  23818064.90946  23818065.17542  23818071.70743 125164778.5794   97531011.5854 
      2743.219        2137.573  
  24115311.31546  24115310.59842  24115318.43842 126726802.5304   98748170.5784 
     -2803.491       -2184.533  
 01  9  4  9 40 21.0000000  0  7G 1G 4G 7G13G20G24G25               
  20534829.14648  20534828.44146  20534833.24346 107911251.2274   84086704.7824 
      -707.828        -551.552  
  21252343.46848  21252343.51945  21252347.53245 111681823.3154   87024807.4534 
       792.632         617.625  
  24662477.35644  24662473.46541  24662484.45741 129602208.3764  100988726.9184 
     -3422.649       -2666.892  
  21260086.10048  21260085.92445  21260089.32645 111722503.7614   87056512.8144 
      1908.064        1486.800  
  21912046.59448  21912046.18344  21912052.63344 115148576.9604   89726179.5324 
     -3012.622       -2347.496  
  23817542.39746  23817542.77842  23817549.86643 125162035.2254   97528873.9104 
      2743.069        2137.446  
  24115845.11146  24115843.72442  24115851.37642 126729605.7934   98750354.9304 
     -2803.520       -2184.569  
 01  9  4  9 40 22.0000000  0  7G 1G 4G 7G13G20G24G25               
  20534963.84448  20534963.09346  20534967.93046 107911958.8664   84087256.1924 
      -707.774        -551.505  
  21252192.96447  21252192.74145  21252196.71845 111681030.6074   87024189.7564 
       792.579         617.595  
  24663127.94445  24663124.89341  24663136.84941 129605630.9384  100991393.8834 
     -3422.057       -2666.604  
  21259722.98548  21259722.85945  21259726.27045 111720595.6034   87055025.9394 
      1908.163        1486.866  
  21912619.81147  21912619.52344  21912625.62644 115151589.3334   89728526.8344 
     -3012.364       -2347.299  
  23817020.31946  23817020.37642  23817028.05143 125159291.7604   97526736.1614 
      2743.482        2137.764  
  24116377.85846  24116377.70942  24116385.34942 126732409.0754   98752539.3074 
     -2803.063       -2184.209  
