     2              OBSERVATION DATA                        RINEX VERSION / TYPE
ASHTORIN                                16 - DEC - 95 16:36 PGM / RUN BY / DATE 
                                                            COMMENT             
0005                                                        MARKER NAME         
                                                            MARKER NUMBER       
Kai Borre                                                   OBSERVER / AGENCY   
                    Z-XII3              1C001C0             REC # / TYPE / VERS 
                                                            ANT # / TYPE        
  3435444.7300   607783.4900  5321595.9200                  APPROX POSITION XYZ 
        1.3452        0.0000        0.0000                  ANTENNA: DELTA H/E/N
     1     1                                                WAVELENGTH FACT L1/2
     7    L1    L2    C1    P1    P2    D1    D2            # / TYPES OF OBSERV 
    20                                                      INTERVAL            
  1994     3    17     9    44    0.000000                  TIME OF FIRST OBS   
  1994     3    17    10    12    0.001000                  TIME OF LAST OBS    
                                                            END OF HEADER       
 94  3 17  9 44  0.0000000  0  8 27  2 31 23  9 17 16 26             0.000735072
    472232.639 9    352904.15147  22301641.602    22301642.2414   22301648.6554
     -3357.242       -2616.033
    -77024.001 9    -56333.81048  21441634.853    21441635.3444   21441642.1974
       512.305         399.199
    238983.445 9    177233.64146  24446499.993    24446501.1354   24446507.2494
     -1701.272       -1325.666
   -345503.543 9   -258076.79146  24348137.417    24348138.4264   24348145.3294
      2476.399        1929.662
   -404741.887 9   -301387.91746  24447114.557    24447116.0544   24447123.6524
      3038.402        2367.586
    386005.046 9    286161.94445  24566377.580    24566375.8544   24566381.1844
     -2730.103       -2127.353
    527063.137 9    390798.32547  23043751.479    23043749.9654   23043757.1474
     -3720.880       -2899.387
    -91877.258 9    -65876.94049  21009734.096    21009736.0814   21009741.5774
       661.990         515.836
 94  3 17  9 44 20.0000000  0  8 27  2 31 23  9 17 16 26             0.000740435
    539396.777 9    405239.80247  22314422.165    22314422.9724   22314429.4984
     -3358.753       -2617.210
    -87190.180 9    -64255.50648  21439700.197    21439700.7734   21439707.6054
       504.574         393.175
    273091.757 9    203811.56546  24452990.827    24452991.8534   24452997.9544
     -1709.204       -1331.847
   -394992.204 9   -296639.37446  24338720.111    24338721.1654   24338728.0314
      2472.627        1926.722
   -465522.981 9   -348749.77345  24435548.353    24435549.8964   24435557.4894
      3040.023        2368.849
    440657.470 9    328748.23546  24576777.011    24576775.8404   24576781.3974
     -2734.930       -2131.114
    601504.681 9    448804.65447  23057916.406    23057915.6884   23057922.9104
     -3723.098       -2901.115
   -105059.492 9    -76148.82349  21007225.882    21007227.6154   21007233.0844
       656.525         511.578
 94  3 17  9 44 40.0000000  0  8 27  2 31 23  9 17 16 26             0.000745733
    606582.558 9    457592.33147  22327207.006    22327207.8964   22327214.4324
     -3359.906       -2618.109
    -97207.601 9    -72061.27948  21437793.932    21437794.5494   21437801.3204
       497.071         387.328
    307351.986 9    230507.81546  24459510.060    24459511.1854   24459517.5864
     -1716.792       -1337.760
   -444412.341 9   -335148.55246  24329315.516    24329316.9354   24329323.7364
      2469.225        1924.071
   -526346.625 9   -396144.77346  24423974.952    24423975.6254   24423983.1374
      3042.353        2370.665
    495404.354 9    371408.12646  24587194.342    24587193.6504   24587199.5874
     -2739.920       -2135.003
    675982.147 9    506838.98647  23072088.317    23072088.1864   23072095.5204
     -3724.750       -2902.403
   -118138.197 9    -86340.01749  21004737.277    21004738.7914   21004744.2694
       651.190         507.421
 94  3 17  9 45  0.0000000  0  8 27  2 31 23  9 17 16 26             0.000750972
    673801.302 9    509970.53147  22339998.111    22339999.1474   22340005.7664
     -3362.243       -2619.930
   -107063.641 9    -79741.30048  21435918.425    21435919.0094   21435925.7584
       488.361         380.541
    341775.297 9    257331.17946  24466060.405    24466061.7424   24466067.9314
     -1725.644       -1344.658
   -493755.354 9   -373597.65346  24319926.510    24319927.3884   24319934.1794
      2464.912        1920.711
   -587211.879 9   -443572.22746  24412392.879    24412393.5034   24412400.8364
      3043.970        2371.925
    550267.909 9    414158.93945  24597634.359    24597633.8254   24597639.8524
     -2746.609       -2140.215
    750500.273 9    564904.98547  23086268.584    23086268.4804   23086275.8984
     -3727.282       -2904.376
   -131095.685 9    -96436.76849  21002271.645    21002273.0664   21002278.5204
       644.409         502.137
 94  3 17  9 45 20.0000000  0  8 27  2 31 23  9 17 16 26             0.000756165
    741078.841 9    562394.55247  22352800.698    22352801.5474   22352808.2284
     -3365.622       -2622.562
   -116736.084 9    -87278.26448  21434077.715    21434078.3594   21434085.1374
       478.761         373.060
    376389.718 9    284303.46446  24472647.399    24472648.7224   24472654.8004
     -1735.904       -1352.652
   -542999.015 9   -411969.33346  24310555.919    24310556.6994   24310563.4864
      2459.282        1916.324
   -648095.013 9   -491013.59046  24400807.706    24400807.8784   24400815.1994
      3044.267        2372.156
    605279.654 9    457025.21345  24608101.901    24608102.1734   24608108.2784
     -2754.463       -2146.335
    825078.098 9    623017.51347  23100460.212    23100460.1724   23100467.6194
     -3730.653       -2907.002
   -143906.242 9   -106419.02449  20999834.115    20999835.2974   20999840.7574
       636.507         495.979
 94  3 17  9 45 40.0000000  0  8 27  2 31 23  9 17 16 26             0.000761323
    808435.480 9    614880.20847  22365618.264    22365619.0334   22365625.7894
     -3370.188       -2626.120
   -126209.823 9    -94660.39448  21432274.833    21432275.5094   21432282.3684
       468.485         365.053
    411216.857 9    311441.46146  24479274.807    24479276.0284   24479282.3104
     -1746.951       -1361.261
   -592122.681 9   -450247.49946  24301208.159    24301208.8334   24301215.6554
      2452.966        1911.402
   -708977.550 9   -538454.48346  24389222.153    24389222.2594   24389229.6464
      3044.039        2371.978
    660450.148 9    500015.20745  24618599.643    24618600.6924   24618606.7934
     -2762.506       -2152.602
    899734.400 9    681191.18647  23114666.372    23114666.7354   23114674.2364
     -3735.116       -2910.480
   -156551.547 9   -116272.50849  20997427.666    20997428.9644   20997434.4394
       627.899         489.272
 94  3 17  9 46  0.0000000  0  8 27  2 31 23  9 17 16 26             0.000766456
    875883.406 9    667436.99547  22378453.258    22378453.9254   22378460.6914
     -3374.519       -2629.495
   -135478.139 9   -101882.45848  21430511.134    21430511.8354   21430518.6964
       458.515         357.284
    446263.241 9    338750.38846  24485943.996    24485945.0804   24485951.3404
     -1757.694       -1369.632
   -641122.449 9   -488429.11846  24291884.321    24291884.5474   24291891.2994
      2447.147        1906.868
   -769857.383 9   -585893.28746  24377636.457    24377637.2414   24377644.6254
      3044.038        2371.978
    715773.827 9    543124.53845  24629128.048    24629128.4714   24629134.6474
     -2769.682       -2158.194
    974482.188 9    739436.14747  23128890.045    23128890.7964   23128898.2784
     -3739.504       -2913.899
   -169029.168 9   -125995.33249  20995053.154    20995054.5404   20995060.0464
       620.134         483.221
 94  3 17  9 46 20.0000000  0  8 27  2 31 23  9 17 16 26             0.000771562
    943414.743 9    720058.77447  22391303.910    22391304.6964   22391311.5034
     -3378.697       -2632.751
   -144551.549 9   -108952.64848  21428784.577    21428785.2594   21428792.0904
       448.678         349.619
    481517.318 9    366221.06446  24492652.419    24492653.5204   24492660.1364
     -1768.017       -1377.676
   -690007.206 9   -526521.12746  24282582.089    24282582.1394   24282588.8114
      2441.200        1902.234
   -830738.848 9   -633333.37146  24366050.646    24366051.9304   24366059.2614
      3043.916        2371.883
    771236.360 8    586342.07845  24639682.181    24639682.6074   24639689.0344
     -2776.768       -2163.715
   1049309.170 9    797742.81847  23143129.120    23143129.9604   23143137.4334
     -3743.399       -2916.934
   -181362.063 9   -135605.38449  20992706.386    20992707.6864   20992713.2134
       612.970         477.639
 94  3 17  9 46 40.0000000  0  8 27  2 31 23  9 17 16 26             0.000776652
   1011041.409 9    772754.82947  22404172.910    22404173.6124   22404180.4624
     -3384.188       -2637.030
   -153417.083 9   -115860.86048  21427097.554    21427098.2184   21427105.0064
       437.823         341.161
    516988.81819    393861.18546  24499402.350    24499403.5904   24499410.1444
     -1779.428       -1386.567
   -738763.054 9   -564512.70346  24273304.305    24273304.2054   24273310.9674
      2434.305        1896.861
   -891604.434 9   -680761.05746  24354468.032    24354469.5224   24354476.9334
      3042.564        2370.829
    826853.440 9    629680.03645  24650265.379    24650266.1724   24650272.6844
     -2785.126       -2170.228
   1124226.582 9    856119.95647  23157385.703    23157386.3194   23157393.7934
     -3748.482       -2920.895
   -193539.652 9   -145094.41649  20990389.095    20990390.3884   20990395.9454
       604.596         471.114
 94  3 17  9 47  0.0000000  0  8 27  2 31 23  9 17 16 26             0.000781697
   1078783.831 9    825541.10347  22417064.193    22417064.6304   22417071.4694
     -3390.103       -2641.639
   -162058.530 9   -122594.45048  21425453.159    21425453.7864   21425460.5714
       426.382         332.246
     31452.99319     11513.59552  24506199.730           0.0005          0.0005
     -1791.490       -1395.966
   -787378.091 9   -602394.54446  24264052.665    24264053.1154   24264059.8604
      2427.111        1891.255
   -952436.982 9   -728163.01346  24342892.049    24342893.5024   24342900.9024
      3040.654        2369.341
    882638.914 9    673149.23045  24660880.974    24660881.7374   24660888.3724
     -2793.379       -2176.659
   1199252.374 9    914581.54647  23171662.483    23171663.2394   23171670.8204
     -3754.129       -2925.295
   -205541.072 9   -154446.17349  20988105.152    20988106.5974   20988112.1654
       595.610         464.112
 94  3 17  9 47 20.0000000  0  8 27  2 31 23  9 17 16 26             0.000786793
   1146641.642 9    878417.28047  22429977.264    22429977.5274   22429984.4204
     -3395.594       -2645.917
   -170474.771 9   -129152.55648  21423851.465    21423852.2004   21423858.9944
       415.358         323.656
     67403.988 9     39527.20456  24513045.253           0.0005   24513047.4925
     -1803.577       -1405.385
   -835848.682 9   -640163.83146  24254829.170    24254829.5524   24254836.2034
      2419.928        1885.658
  -1013230.507 9   -775534.57346  24331322.908    24331325.0264   24331332.3344
      3038.585        2367.729
    938585.544 9    716743.98145  24671527.512    24671528.1324   24671534.6344
     -2801.052       -2182.638
   1274393.281 9    973132.82647  23185961.121    23185962.0764   23185969.7194
     -3759.994       -2929.865
   -217365.161 9   -163659.75349  20985855.129    20985856.5584   20985862.1254
       586.808         457.253
 94  3 17  9 47 40.0000000  0  8 27  2 31 23  9 17 16 26             0.000791879
   1214608.192 9    931378.19847  22442910.646    22442911.1344   22442918.0664
     -3401.178       -2650.269
   -178669.342 9   -135537.92548  21422292.070    21422292.8184   21422299.6154
       404.057         314.850
    103592.474 9     67726.01346  24519929.832    24519926.1055   24519932.6024
     -1815.297       -1414.517
   -884169.421 9   -677816.34646  24245634.090    24245634.3994   24245641.1174
      2412.010        1879.488
  -1073980.323 9   -822872.01746  24319761.967    24319764.6304   24319772.0234
      3036.296        2365.945
    994682.647 9    760456.00245  24682201.864    24682202.9884   24682209.6544
     -2808.714       -2188.608
   1349655.349 9   1031778.52847  23200283.263    23200284.0514   23200291.6744
     -3766.289       -2934.771
   -229009.698 9   -172733.41749  20983639.352    20983640.6784   20983646.2254
       577.503         450.002
 94  3 17  9 48  0.0000000  0  8 27  2 31 23  9 17 16 26             0.000796958
   1282684.745 9    984424.82447  22455864.872    22455865.6944   22455872.6474
     -3406.381       -2654.323
   -186642.802 9   -141751.00348  21420774.729    21420775.5324   21420782.3164
       393.303         306.470
    140012.508 9     96105.28046  24526859.553    24526857.3644   24526863.3654
     -1826.727       -1423.424
   -932336.396 9   -715349.06146  24236468.243    24236468.5244   24236475.2954
      2404.666        1873.766
  -1134685.564 9   -870174.77146  24308211.582    24308212.8404   24308220.2524
      3034.250        2364.351
   1050932.146 9    804286.74045  24692905.544    24692906.9154   24692913.7434
     -2816.285       -2194.508
   1425038.757 9   1090518.78247  23214628.548    23214629.0974   23214636.6514
     -3771.890       -2939.135
   -240467.905 9   -181661.89349  20981458.924    20981460.2494   20981465.7784
       568.412         442.918
 94  3 17  9 48 20.0000000  0  8 27  2 31 23  9 17 16 26             0.000802000
   1350828.852 9   1037524.08547  22468831.787    22468833.0614   22468840.0594
     -3407.594       -2655.268
   -194435.469 9   -147823.20448  21419291.881    21419292.6614   21419299.4104
       386.315         301.025
    176627.524 9    124636.42046  24533826.410    24533824.6804   24533831.0914
     -1834.353       -1429.366
   -980387.931 9   -752791.81546  24227324.000    24227324.6144   24227331.3884
      2400.884        1870.819
  -1195381.363 9   -917470.15946  24296661.742    24296662.8524   24296670.2814
      3035.714        2365.491
   1107301.521 9    848210.91145  24703632.369    24703633.6524   24703640.5954
     -2820.330       -2197.660
   1500492.995 9   1149314.21547  23228986.849    23228987.6314   23228995.2364
     -3773.170       -2940.132
   -251777.235 9   -190474.36249  20979306.863    20979308.1774   20979313.6704
       562.808         438.552
 94  3 17  9 48 40.0000000  0  8 27  2 31 23  9 17 16 26             0.000806982
   1419004.318 9   1090647.78347  22481805.297    22481806.4564   22481813.5034
     -3410.583       -2657.597
   -202079.226 9   -153779.37348  21417837.265    21417838.0714   21417844.8544
       377.490         294.148
    213404.761 9    153294.05246  24540824.733    24540823.3094   24540829.3614
     -1844.025       -1436.903
  -1028359.311 9   -790172.10246  24218194.772    24218195.9014   24218202.7594
      2395.735        1866.806
  -1256100.081 9   -964783.40946  24285107.145    24285108.4504   24285115.9044
      3035.587        2365.392
   1163762.488 9    892206.45346  24714377.072    24714377.9324   24714384.9304
     -2826.259       -2202.280
   1575983.303 9   1208137.76347  23243351.911    23243353.0344   23243360.7164
     -3776.387       -2942.639
   -262962.506 9   -199190.16049  20977178.284    20977179.7224   20977185.2024
       555.178         432.606
 94  3 17  9 49  0.0000000  0  8 27  2 31 23  9 17 16 26             0.000811940
   1487271.826 9   1143843.20847  22494796.274    22494797.3654   22494804.4424
     -3416.514       -2662.219
   -209510.305 9   -159569.82148  21416423.035    21416423.9184   21416430.7304
       365.242         284.604
    250410.109 9    182129.35046  24547865.869    24547864.9504   24547871.4734
     -1857.013       -1447.023
  -1076197.354 9   -827448.49146  24209091.387    24209092.6304   24209099.5204
      2387.626        1860.488
  -1316782.225 9  -1012068.16946  24273559.572    24273561.0874   24273568.4364
      3032.161        2362.723
   1220371.823 9    936317.60746  24725150.338    24725150.3534   24725157.4414
     -2834.995       -2209.087
   1651566.775 9   1267033.90647  23257734.434    23257736.1104   23257743.8294
     -3782.313       -2947.257
   -273962.422 9   -207761.52949  20975085.108    20975086.5034   20975091.9734
       544.440         424.239
 94  3 17  9 49 20.0000000  0  8 27  2 31 23  9 17 16 26             0.000816903
   1555666.230 9   1197137.50647  22507810.988    22507812.3934   22507819.4474
     -3423.001       -2667.274
   -216687.552 9   -165162.48348  21415057.162    21415058.1214   21415064.9194
       352.436         274.625
    287683.145 9    211173.26746  24554958.530    24554957.8084   24554964.4284
     -1870.375       -1457.435
  -1123859.698 9   -864587.98246  24200021.499    24200022.8024   24200029.7014
      2378.484        1853.364
  -1377385.619 9  -1059291.53146  24262026.926    24262028.6184   24262035.9004
      3028.000        2359.481
   1277167.896 9    980574.26346  24735958.548    24735958.3034   24735965.5694
     -2844.783       -2216.714
   1727277.025 9   1326028.83047  23272141.855    23272143.2874   23272151.0094
     -3788.758       -2952.279
   -284740.209 9   -216159.81149  20973034.056    20973035.5554   20973041.0304
       533.272         415.537
 94  3 17  9 49 40.0000000  0  8 27  2 31 23  9 17 16 26             0.000821879
   1624195.367 9   1250536.79347  22520851.637    22520853.0614   22520860.1144
     -3429.886       -2672.638
   -223604.160 9   -170552.04648  21413741.011    21413741.9224   21413748.7154
       339.173         264.291
    325226.116 9    240427.46246  24562102.368    24562101.9594   24562108.5494
     -1883.961       -1468.022
  -1171333.035 9   -901580.19646  24190987.305    24190988.9044   24190995.8504
      2368.890        1845.888
  -1437897.995 9  -1106444.00146  24250512.234    24250513.4694   24250520.6644
      3023.379        2355.880
   1334169.427 9   1024991.01045  24746805.398    24746805.5064   24746812.6514
     -2855.386       -2224.976
   1803118.984 9   1385126.37647  23286574.344    23286575.5634   23286583.3814
     -3795.398       -2957.453
   -295294.119 9   -224383.64549  20971025.563    20971027.2064   20971032.7174
       522.179         406.893
 94  3 17  9 50  0.0000000  0  8 27  2 31 23  9 17 16 26             0.000826870
   1692862.904 9   1304043.91847  22533918.521    22533920.0864   22533927.1554
     -3436.796       -2678.023
   -230254.283 9   -175733.95348  21412475.627    21412476.4614   21412483.2644
       325.876         253.929
    363040.291 9    269893.00146  24569298.116    24569297.8714   24569304.5124
     -1897.509       -1478.578
  -1218618.442 9   -938425.95946  24181989.060    24181990.8154   24181997.7324
      2359.853        1838.846
  -1498322.152 9  -1153527.70346  24239013.642    24239015.1584   24239022.3874
      3019.181        2352.609
   1391384.234 9   1069573.97545  24757692.337    24757693.1744   24757700.1634
     -2866.015       -2233.258
   1879087.910 9   1444322.86647  23301030.645    23301032.0574   23301039.8714
     -3801.459       -2962.176
   -305628.670 9   -232436.54349  20969058.871    20969060.6014   20969066.1564
       511.387         398.483
 94  3 17  9 50 20.0000000  0  8 27  2 31 23  9 17 16 26             0.000831874
   1761666.989 9   1357657.45447  22547011.899    22547013.1514   22547020.2154
     -3443.374       -2683.149
   -236637.060 9   -180707.54448  21411261.018    21411261.8744   21411268.6924
       312.558         243.552
    401126.954 9    299570.92846  24576545.414    24576545.3954   24576552.1674
     -1910.948       -1489.050
  -1265725.096 9   -975132.45146  24173024.992    24173026.8144   24173033.6524
      2350.997        1831.946
  -1558667.265 9  -1200549.81246  24227529.764    24227531.7954   24227539.0064
      3015.588        2349.809
   1448809.909 8   1114321.23945  24768619.747    24768620.8364   24768627.8854
     -2876.352       -2241.313
   1955177.994 9   1503613.77347  23315509.912    23315511.6124   23315519.4564
     -3807.493       -2966.878
   -315751.257 9   -240324.27849  20967132.769    20967134.3474   20967139.9484
       501.060         390.436
 94  3 17  9 50 40.0000000  0  8 27  2 31 23  9 17 16 26             0.000836893
   1830599.249 9   1411370.86547  22560129.683    22560130.5394   22560137.6064
     -3449.910       -2688.242
   -242754.516 9   -185474.38948  21410097.003    21410097.7884   21410104.5654
       299.135         233.092
    439477.235 9    329454.28146  24583843.373    24583843.4324   24583850.2094
     -1924.195       -1499.373
  -1312654.320 9  -1011700.66246  24164094.538    24164096.4464   24164103.3554
      2341.926        1824.877
  -1618941.381 9  -1247516.62946  24216060.102    24216061.9504   24216069.2144
      3011.780        2346.841
   1506440.417 8   1159228.10245  24779586.249    24779587.4784   24779594.7144
     -2886.696       -2249.374
   2031394.114 9   1563002.88047  23330013.527    23330015.1194   23330023.0194
     -3814.219       -2972.119
   -325668.510 9   -248052.01449  20965245.684    20965247.1614   20965252.7894
       490.675         382.344
 94  3 17  9 51  0.0000000  0  8 27  2 31 23  9 17 16 26             0.000841928
   1899662.288 9   1465186.18147  22573271.569    22573272.8514   22573279.8534
     -3456.389       -2693.290
   -248600.484 9   -190029.68648  21408984.566    21408985.3584   21408992.1014
       285.505         222.471
    478094.560 9    359545.70046  24591191.894    24591192.0234   24591198.8284
     -1937.527       -1509.761
  -1359397.918 9  -1048124.22346  24155199.917    24155201.3394   24155208.3184
      2332.392        1817.448
  -1679138.511 9  -1294423.43046  24204604.362    24204606.7724   24204614.0664
      3007.964        2343.868
   1564279.817 8   1204297.72745  24790591.977    24790594.0394   24790601.2434
     -2897.110       -2257.488
   2107746.193 9   1622497.92247  23344543.076    23344544.5064   23344552.4314
     -3821.074       -2977.460
   -335376.569 9   -255616.74049  20963398.308    20963399.7994   20963405.4074
       480.077         374.086
 94  3 17  9 51 20.0000000  0  8 27  2 31 23  9 17 16 26             0.000846983
   1968853.263 9   1519101.21047  22586438.385    22586439.6034   22586446.4534
     -3462.895       -2698.360
   -254177.777 9   -194375.62548  21407923.166    21407924.0324   21407930.7924
       272.211         212.112
    516976.680 9    389843.47046  24598590.899    24598591.2044   24598597.8144
     -1950.677       -1520.008
  -1405948.499 9  -1084397.40746  24146341.854    24146343.1394   24146350.0664
      2322.559        1809.786
  -1739262.444 9  -1341273.18146  24193163.852    24193165.5224   24193172.8714
      3004.473        2341.148
   1622328.320 8   1249530.29245  24801638.728    24801640.4494   24801647.5664
     -2907.845       -2265.853
   2184240.348 9   1682103.68447  23359099.326    23359100.8864   23359108.8194
     -3828.433       -2983.195
   -344869.983 9   -263014.20849  20961591.751    20961593.2874   20961598.8694
       469.279         365.672
 94  3 17  9 51 40.0000000  0  8 27  2 31 23  9 17 16 26             0.000852055
   2038178.333 9   1573120.70447  22599630.388    22599631.7284   22599638.6394
     -3469.695       -2703.658
   -259488.629 9   -198513.94348  21406912.542    21406913.4394   21406920.1814
       258.759         201.630
    556118.348 9    420343.41946  24606039.057    24606039.5234   24606046.4104
     -1963.652       -1530.118
  -1452303.576 9  -1120518.22846  24137520.629    24137522.0384   24137528.9714
      2312.906        1802.264
  -1799315.596 9  -1388067.79546  24181735.970    24181737.7764   24181745.1824
      3000.709        2338.215
   1680590.258 8   1294929.18445  24812726.116    24812727.3234   24812734.4614
     -2918.359       -2274.046
   2260882.265 9   1741824.58647  23373683.772    23373685.4794   23373693.3774
     -3835.869       -2988.989
   -354145.560 9   -270241.93349  20959826.661    20959828.2084   20959833.7814
       458.130         356.984
 94  3 17  9 52  0.0000000  0  8 27  2 31 23  9 17 16 26             0.000857141
   2107637.666 9   1627244.81247  22612847.889    22612849.3814   22612856.4384
     -3476.245       -2708.762
   -264529.036 9   -202441.52748  21405953.343    21405954.2994   21405961.0544
       245.350         191.182
    595523.393 9    451048.67246  24613537.306    24613538.0664   24613544.8754
     -1976.892       -1540.435
  -1498469.060 9  -1156491.33046  24128735.855    24128737.0444   24128743.9394
      2303.724        1795.110
  -1859296.787 9  -1434806.33746  24170321.648    24170323.7564   24170331.1274
      2997.369        2335.612
   1739055.529 8   1340486.49945  24823851.545    24823852.9174   24823859.8964
     -2928.017       -2281.572
   2337672.413 9   1801660.98147  23388296.702    23388298.1854   23388306.1314
     -3843.122       -2994.640
   -363193.389 9   -277292.19549  20958105.013    20958106.4604   20958112.0474
       446.587         347.990
 94  3 17  9 52 20.0000000  0  7 27  2 31 23  9 16 26                0.000862243
   2177225.491 9   1681469.05247  22626089.899    22626091.5734   22626098.6254
     -3482.540       -2713.668
   -269304.624 9   -206162.76148  21405044.648    21405045.5454   21405052.2964
       232.280         180.997
    635192.389 9    481959.55046  24621085.899    24621086.7554   24621093.7514
     -1989.907       -1550.577
  -1544451.427 9  -1192321.72646  24119985.889    24119986.8914   24119993.7194
      2294.399        1787.843
  -1919208.813 9  -1481490.98946  24158920.328    24158922.8694   24158930.2504
      2993.812        2332.841
   2414608.595 9   1861611.16747  23402937.603    23402938.6894   23402946.6944
     -3850.543       -3000.423
   -372008.367 9   -284161.01049  20956427.640    20956429.0264   20956434.6404
       434.941         338.915
 94  3 17  9 52 40.0000000  0  7 27  2 31 23  9 16 26                0.000867342
   2246939.269 9   1735791.43847  22639355.980    22639357.6524   22639364.6854
     -3488.810       -2718.553
   -273815.446 9   -209677.68448  21404186.332    21404187.1824   21404193.9354
       218.893         170.566
    675122.182 9    513073.68346  24628684.525    24628685.2584   24628692.1224
     -2002.977       -1560.761
  -1590240.353 9  -1228001.39746  24111272.561    24111273.5294   24111280.3104
      2284.515        1780.142
  -1979041.942 9  -1528114.16146  24147534.983    24147536.9744   24147544.3604
      2989.460        2329.449
   2491695.922 9   1921679.14747  23417606.481    23417607.9224   23417615.9814
     -3858.153       -3006.353
   -380586.267 9   -290845.09049  20954795.109    20954796.6844   20954802.3434
       422.869         329.508
 94  3 17  9 53  0.0000000  0  7 27  2 31 23  9 16 26                0.000872452
   2316778.164 9   1790211.32947  22652646.109    22652647.6114   22652654.5894
     -3495.047       -2723.413
   -278060.032 9   -212985.15548  21403378.661    21403379.4844   21403386.2144
       205.721         160.302
    715313.898 9    544391.88246  24636332.846    24636333.4024   24636340.3114
     -2015.980       -1570.894
  -1635834.169 9  -1263529.03646  24102596.161    24102597.3674   24102604.1594
      2274.918        1772.663
  -2038788.192 9  -1574669.64846  24136166.038    24136167.6914   24136175.0484
      2985.259        2326.176
   2568931.584 9   1981862.70147  23432304.165    23432305.4814   23432313.5294
     -3865.324       -3011.941
   -388921.800 9   -297340.31249  20953208.966    20953210.4964   20953216.1654
       410.838         320.134
 94  3 17  9 53 20.0000000  0  7 27  2 31 23  9 16 26                0.000877568
   2386739.624 9   1844726.72347  22665959.420    22665960.8934   22665967.8384
     -3501.012       -2728.061
   -282049.068 9   -216093.49448  21402619.557    21402620.4174   21402627.1614
       193.340         150.655
    755759.054 9    575907.57346  24644029.290    24644029.9024   24644036.8314
     -2028.447       -1580.608
  -1681243.059 9  -1298912.57546  24093955.132    24093956.3764   24093963.1634
      2266.069        1765.768
  -2098457.001 9  -1621164.77546  24124811.628    24124813.0424   24124820.3444
      2981.670        2323.379
   2646305.458 9   2042153.96347  23447028.015    23447029.3884   23447037.4324
     -3871.909       -3017.072
   -397022.772 9   -303652.75749  20951667.476    20951668.9344   20951674.6104
       399.443         311.254
 94  3 17  9 53 40.0000000  0  7 27  2 31 23  9 16 26                0.000882689
   2456822.792 9   1899336.94747  22679295.573    22679297.2214   22679304.2644
     -3507.152       -2732.846
   -285788.934 9   -219007.66648  21401907.929    21401908.7214   21401915.5134
       180.629         140.750
    796449.500 9    607614.39946  24651772.277    24651773.0494   24651779.8644
     -2040.693       -1590.150
  -1726473.748 9  -1334157.26646  24085348.299    24085349.3094   24085356.0214
      2257.024        1758.720
  -2158047.203 9  -1667598.64146  24113471.892    24113473.3014   24113480.6384
      2977.360        2320.021
   2723806.899 9   2102544.63047  23461776.114    23461777.5084   23461785.5154
     -3878.255       -3022.017
   -404902.362 9   -309792.69349  20950168.170    20950169.5184   20950175.1914
       388.521         302.744
 94  3 17  9 54  0.0000000  0  7 27  2 31 23  9 16 26                0.000887819
   2527021.286 9   1954037.02247  22692653.773    22692655.5414   22692662.6284
     -3512.766       -2737.220
   -289276.003 9   -221724.86248  21401244.215    21401245.1234   21401251.9564
       168.053         130.950
    837388.245 9    639514.70446  24659562.699    24659563.4804   24659570.2244
     -2053.087       -1599.808
  -1771526.184 9  -1369263.05246  24076775.253    24076776.1264   24076782.8144
      2248.119        1751.781
  -2217551.471 9  -1713965.54946  24102148.747    24102150.0564   24102157.2964
      2973.205        2316.783
   2801432.524 9   2163032.04947  23476547.930    23476549.2204   23476557.2574
     -3884.253       -3026.691
   -412567.566 9   -315765.58049  20948709.530    20948710.8834   20948716.5434
       378.055         294.588
 94  3 17  9 54 20.0000000  0  7 27  2 31 23  9 16 26                0.000892959
   2597333.035 9   2008825.34747  22706033.807    22706035.4684   22706042.5574
     -3518.411       -2741.619
   -292510.624 9   -224245.34348  21400628.715    21400629.5874   21400636.3994
       155.520         121.184
    878570.369 9    671604.64046  24667399.384    24667400.2234   24667406.9824
     -2064.970       -1609.068
  -1816395.588 9  -1404226.21746  24068236.832    24068237.7834   24068244.4584
      2238.804        1744.523
  -2276974.757 9  -1760269.36446  24090840.332    24090842.1314   24090849.4804
      2969.153        2313.626
   2879178.859 9   2223613.53347  23491342.615    23491343.9384   23491351.9744
     -3890.297       -3031.400
   -420028.494 9   -321579.29049  20947289.731    20947291.1174   20947296.7674
       368.182         286.895
 94  3 17  9 54 40.0000000  0  7 27  2 31 23  9 16 26                0.000898110
   2667756.063 9   2063700.38847  22719435.257    22719436.5484   22719443.6794
     -3523.798       -2745.817
   -295497.298 9   -226572.61648  21400060.486    21400061.2654   21400068.0464
       143.215         111.596
    919987.049 9    703877.39046  24675280.985    24675281.5664   24675288.3824
     -2076.561       -1618.099
  -1861078.949 9  -1439044.41446  24059734.192    24059734.8244   24059741.4934
      2229.676        1737.410
  -2336321.283 9  -1806513.35546  24079546.630    24079548.7444   24079556.1704
      2965.571        2310.834
   2957039.513 9   2284284.11047  23506159.511    23506160.4084   23506168.4304
     -3895.694       -3035.606
   -427295.606 9   -327241.97649  20945906.852    20945908.2424   20945913.8884
       358.634         279.455
 94  3 17  9 55  0.0000000  0  7 27  2 31 23  9 16 26                0.000903270
   2738290.000 9   2118661.85447  22732857.491    22732858.7624   22732865.9204
     -3529.763       -2750.465
   -298238.041 9   -228708.25748  21399538.925    21399539.7184   21399546.5034
       130.730         101.868
    961638.157 9    736332.81846  24683206.742    24683207.5074   24683214.4854
     -2088.583       -1627.467
  -1905581.770 9  -1473721.94446  24051265.729    24051266.2384   24051272.8994
      2220.493        1730.254
  -2395595.153 9  -1852700.74946  24068267.889    24068269.2534   24068276.5954
      2961.722        2307.835
   3035009.355 9   2345039.76947  23520996.791    23520997.6684   23521005.6424
     -3901.305       -3039.978
   -434370.929 9   -332755.20949  20944560.508    20944561.8714   20944567.5484
       348.831         271.816
 94  3 17  9 55 20.0000000  0  7 27  2 31 23  9 16 26                0.000908442
   2808946.885 9   2173719.13547  22746303.120    22746304.3904   22746311.4844
     -3536.006       -2755.329
   -300730.862 9   -230650.71048  21399064.487    21399065.3214   21399072.1314
       118.435          92.287
   1003529.309 9    768975.24546  24691178.336    24691179.0654   24691185.9294
     -2100.671       -1636.886
  -1949902.154 9  -1508257.30146  24042831.459    24042832.3564   24042838.9554
      2211.373        1723.148
  -2454795.743 9  -1898831.04646  24057002.292    24057003.7664   24057011.1054
      2958.159        2305.059
   3113090.220 9   2405881.92047  23535855.080    23535856.0584   23535864.0444
     -3906.812       -3044.269
   -441253.911 9   -338118.57349  20943250.609    20943252.0824   20943257.7864
       339.236         264.340
 94  3 17  9 55 40.0000000  0  7 27  2 31 23  9 16 26                0.000913626
   2879728.000 9   2228873.21447  22759772.507    22759773.5764   22759780.7034
     -3542.016       -2760.012
   -302972.260 9   -232397.25648  21398637.860    21398638.7814   21398645.6024
       105.753          82.405
   1045667.813 9    801810.37846  24699196.949    24699197.8284   24699204.7454
     -2113.247       -1646.686
  -1994033.212 9  -1542645.13746  24034433.222    24034434.4914   24034441.0734
      2201.784        1715.676
  -2513921.482 9  -1944903.00246  24045750.802    24045752.4444   24045759.8434
      2954.425        2302.149
   3191279.164 9   2466808.28347  23550733.857    23550734.9134   23550742.9014
     -3912.048       -3048.349
   -447937.825 9   -343326.81749  20941978.823    20941980.2014   20941985.9194
       329.218         256.534
 94  3 17  9 56  0.0000000  0  7 27  2 31 23  9 16 26                0.000918819
   2950626.843 9   2284119.02447  22773263.895    22773265.2234   22773272.3744
     -3547.901       -2764.598
   -304959.825 9   -233946.00348  21398259.712    21398260.5884   21398267.3724
        93.075          72.526
   1088057.708 9    834841.45846  24707263.135    24707264.2244   24707271.1564
     -2125.931       -1656.570
  -2037972.100 9  -1576883.23546  24026071.796    24026073.2054   24026079.7544
      2192.073        1708.109
  -2572976.635 9  -1990919.96146  24034513.034    24034514.5854   24034521.9774
      2951.079        2299.542
   3269572.386 9   2527815.92247  23565632.922    23565633.6894   23565641.6724
     -3917.174       -3052.343
   -454416.780 9   -348375.35249  20940745.846    20940747.3364   20940753.0214
       318.617         248.273
 94  3 17  9 56 20.0000000  0  7 27  2 31 23  9 16 26                0.000924018
   3021647.350 9   2339459.64347  22786778.720    22786780.0744   22786787.2144
     -3554.093       -2769.423
   -306696.168 9   -235298.99448  21397929.308    21397930.1764   21397936.9714
        80.618          62.819
   1130701.896 9    868070.69446  24715378.363    24715379.2914   24715386.1124
     -2138.731       -1666.544
  -2081713.833 9  -1610967.69246  24017748.003    24017749.4554   24017755.9414
      2182.181        1700.401
  -2631965.541 9  -2036885.31246  24023287.829    24023289.3554   24023296.6934
      2947.711        2296.918
   3347967.157 9   2588902.67847  23580551.379    23580551.7844   23580559.8494
     -3922.307       -3056.343
   -460678.150 9   -353254.34549  20939554.329    20939555.8344   20939561.5244
       307.363         239.504
 94  3 17  9 56 40.0000000  0  7 27  2 31 23  9 16 26                0.000929218
   3092786.721 9   2394892.87047  22800316.302    22800317.4624   22800324.6854
     -3559.915       -2773.960
   -308186.865 9   -236460.57348  21397645.640    21397646.4754   21397653.3204
        68.375          53.279
   1173603.373 9    901500.39946  24723542.227    24723543.0774   24723549.9754
     -2151.623       -1676.589
  -2125261.363 9  -1644900.85946  24009461.115    24009462.6414   24009469.1104
      2172.506        1692.862
  -2690887.569 9  -2082798.52246  24012075.565    24012076.7984   24012084.1794
      2944.366        2294.311
   3426465.372 9   2650070.04447  23595488.908    23595489.6084   23595497.6074
     -3927.520       -3060.405
   -466712.997 9   -357956.82449  20938405.851    20938407.4544   20938413.1184
       295.993         230.644
 94  3 17  9 57  0.0000000  0  7 27  2 31 23  9 16 26                0.000934420
   3164042.504 9   2450416.81647  22813875.760    22813876.9884   22813884.2744
     -3565.678       -2778.450
   -309432.088 9   -237430.87148  21397408.597    21397409.4934   21397416.3834
        56.130          43.738
   1216761.590 9    935130.20646  24731754.984    24731755.9564   24731762.6174
     -2164.139       -1686.342
  -2168617.899 9  -1678685.16046  24001210.511    24001212.1814   24001218.6334
      2163.134        1685.559
  -2749740.661 9  -2128658.03346  24000876.227    24000877.3114   24000884.8204
      2940.963        2291.659
   3505068.638 9   2711319.26947  23610446.354    23610447.4084   23610455.3094
     -3932.770       -3064.496
   -472521.241 9   -362482.73149  20937300.458    20937302.1574   20937307.8634
       284.866         221.974
 94  3 17  9 57 20.0000000  0  7 27  2 31 23  9 16 26                0.000939625
   3235416.118 9   2506032.57947  22827457.312    22827458.9764   22827466.2644
     -3571.529       -2783.010
   -310428.181 9   -238207.04448  21397219.018    21397219.9354   21397226.8044
        43.539          33.926
   1260173.688 9    968957.75746  24740015.647    24740016.8204   24740023.7764
     -2177.030       -1696.387
  -2211782.053 9  -1712319.56246  23992996.199    23992998.2754   23993004.7854
      2153.300        1677.896
  -2808522.780 9  -2174462.24646  23989689.956    23989691.3674   23989698.9144
      2937.217        2288.740
   3583777.902 9   2772651.08547  23625424.468    23625425.2744   23625433.2844
     -3938.077       -3068.631
   -478105.394 9   -366834.02549  20936237.769    20936239.5184   20936245.2434
       273.587         213.185
 94  3 17  9 57 40.0000000  0  7 27  2 31 23  9 16 26                0.000944835
   3306899.876 9   2561734.16947  22841060.326    22841061.9434   22841069.2214
     -3576.832       -2787.142
   -311176.333 9   -238790.01948  21397076.713    21397077.5904   21397084.4304
        31.179          24.295
   1303839.242 9   1002982.91046  24748325.129    24748326.1524   24748332.9254
     -2189.527       -1706.125
  -2254752.527 9  -1745803.06246  23984819.669    23984821.2404   23984827.7804
      2143.791        1670.486
  -2867231.879 9  -2220209.54646  23978518.268    23978519.3054   23978526.8854
      2933.598        2285.921
   3662591.372 9   2834064.08947  23640422.548    23640422.9974   23640431.1104
     -3943.252       -3072.664
   -483465.114 9   -371010.43449  20935217.795    20935219.6054   20935225.3234
       262.403         204.470
 94  3 17  9 58  0.0000000  0  7 27  2 31 23  9 16 26                0.000950047
   3378489.249 9   2617518.07247  22854683.432    22854684.9904   22854692.2224
     -3582.249       -2791.363
   -311676.844 9   -239180.02548  21396981.476    21396982.3664   21396989.1764
        18.802          14.651
   1347753.099 9   1037201.46646  24756681.668    24756682.7644   24756689.6604
     -2201.888       -1715.757
  -2297533.920 9  -1779139.19546  23976678.618    23976680.2674   23976686.6024
      2134.370        1663.145
  -2925865.727 9  -2265898.22746  23967360.601    23967361.7084   23967369.1894
      2929.655        2282.848
   3741512.427 9   2895560.94747  23655440.791    23655441.2824   23655449.4414
     -3948.887       -3077.055
   -488604.736 9   -375015.34049  20934239.692    20934241.6034   20934247.2894
       251.497         195.972
 94  3 17  9 58 20.0000000  0  7 27  2 31 23  9 16 26                0.000955267
   3450186.989 9   2673386.41047  22868327.147    22868328.6544   22868335.8104
     -3587.524       -2795.473
   -311931.062 9   -239378.11448  21396933.076    21396934.0134   21396940.8354
         6.649           5.181
   1391912.206 9   1071611.17146  24765084.984    24765086.0324   24765092.8294
     -2213.758       -1725.006
  -2340129.266 9  -1812330.37446  23968572.687    23968574.6664   23968580.9784
      2125.208        1656.006
  -2984418.211 9  -2311523.51046  23956218.633    23956219.5884   23956226.9784
      2925.492        2279.604
   3820545.721 9   2957145.25947  23670480.597    23670480.9144   23670489.0024
     -3954.470       -3081.405
   -493528.036 9   -378851.68649  20933302.831    20933304.7564   20933310.4144
       241.004         187.795
 94  3 17  9 58 40.0000000  0  7 27  2 31 23  9 16 26                0.000960496
   3521991.095 9   2729337.63747  22881991.435    22881992.5754   22881999.7724
     -3592.857       -2799.629
   -311938.382 9   -239383.81248  21396931.661    21396932.6234   21396939.4774
        -5.933          -4.623
   1436306.790 9   1106204.33146  24773532.653    24773534.0974   24773540.8374
     -2225.471       -1734.133
  -2382542.612 9  -1845379.73946  23960501.733    23960503.7054   23960510.0364
      2116.102        1648.911
  -3042887.833 9  -2357084.21446  23945091.747    23945093.1384   23945100.5284
      2921.429        2276.438
   3899693.280 9   3018818.60447  23685541.796    23685542.2294   23685550.3514
     -3960.199       -3085.869
   -498244.290 9   -382526.69149  20932405.382    20932407.2664   20932412.9324
       230.747         179.803
 94  3 17  9 59  0.0000000  0  7 27  2 31 23  9 16 26                0.000965736
   3593902.595 9   2785372.53647  22895676.127    22895676.8624   22895684.2044
     -3598.288       -2803.861
   -311693.789 9   -239193.21548  21396978.149    21396979.1514   21396986.0434
       -18.553         -14.457
   1480930.489 9   1140976.02746  24782024.069    24782025.6544   24782032.3514
     -2236.960       -1743.086
  -2424775.154 9  -1878288.21146  23952465.129    23952467.1074   23952473.4354
      2107.012        1641.828
  -3101277.922 9  -2402582.94846  23933981.027    23933981.8294   23933989.1084
      2917.507        2273.382
   3978950.671 9   3080577.54147  23700623.833    23700624.4404   23700632.5754
     -3965.500       -3090.000
   -502763.328 9   -386048.02549  20931545.403    20931547.2934   20931552.9534
       221.069         172.262
 94  3 17  9 59 20.0000000  0  7 27  2 31 23  9 16 26                0.000970984
   3665921.220 9   2841490.89947  22909380.723    22909381.5794   22909389.0074
     -3603.652       -2808.041
   -311195.024 9   -238804.56448  21397073.144    21397074.0644   21397080.9434
       -31.395         -24.464
   1525782.665 9   1175925.78146  24790559.497    24790560.9044   24790567.3134
     -2248.441       -1752.032
  -2466826.056 9  -1911055.14046  23944463.196    23944465.0604   23944471.4014
      2097.900        1634.727
  -3159589.786 9  -2448020.73246  23922885.310    23922885.4054   23922892.5944
      2913.574        2270.317
   4058310.831 9   3142416.53046  23715725.676    23715726.1694   23715734.4684
     -3970.605       -3093.978
   -507085.887 9   -389416.26149  20930722.985    20930724.7394   20930730.4014
       211.059         164.462
 94  3 17  9 59 40.0000000  0  7 27  2 31 23  9 16 26                0.000976239
   3738048.186 9   2897693.70647  22923106.173    22923106.9454   22923114.3974
     -3609.027       -2812.229
   -310441.205 9   -238217.16648  21397216.622    21397217.5244   21397224.3664
       -44.039         -34.316
   1570870.917 9   1211059.43146  24799139.422    24799140.9064   24799147.4224
     -2260.433       -1761.376
  -2508688.993 9  -1943675.61046  23936497.554    23936498.8054   23936505.1704
      2088.421        1627.341
  -3217819.243 9  -2493394.29546  23911804.539    23911804.6544   23911811.8314
      2909.401        2267.066
   4137774.791 9   3204336.43246  23730847.039    23730847.7624   23730855.9934
     -3975.793       -3098.021
   -511201.503 9   -392623.24049  20929940.034    20929941.5934   20929947.2524
       200.400         156.156
 94  3 17 10  0  0.0000000  0  7 27  2 31 23  9 16 26                0.000981499
   3810278.532 9   2953977.07747  22936851.183    22936851.9604   22936859.3804
     -3614.096       -2816.179
   -309436.743 9   -237434.46648  21397407.749    21397408.6484   21397415.4764
       -56.425         -43.968
   1616188.971 9   1246372.28046  24807763.204    24807764.6384   24807770.9814
     -2271.341       -1769.876
  -2550365.558 9  -1976150.84946  23928567.066    23928567.9934   23928574.4174
      2079.097        1620.076
  -3275969.628 9  -2538706.24846  23900738.700    23900738.9544   23900746.1274
      2905.591        2264.097
   4217336.791 9   3266332.73946  23745987.172    23745988.0394   23745996.1554
     -3980.461       -3101.658
   -515107.899 9   -395667.18849  20929196.691    20929198.2534   20929203.9224
       190.215         148.219
 94  3 17 10  0 20.0000000  0  7 27  2 31 23  9 16 26                0.000986761
   3882613.013 9   3010341.59147  22950615.903    22950616.8394   22950624.1994
     -3619.382       -2820.298
   -308180.279 9   -236455.39748  21397646.784    21397647.7574   21397654.5744
       -69.241         -53.954
   1661733.040 9   1281861.16346  24816429.922    24816431.1844   24816437.8274
     -2282.853       -1778.846
  -2591848.088 9  -2008474.91346  23920673.540    23920674.0914   23920680.5224
      2069.106        1612.290
  -3334040.728 9  -2583956.42246  23889687.749    23889688.3374   23889695.4764
      2901.555        2260.952
   4296992.128 9   3328401.76346  23761144.866    23761146.0394   23761154.0884
     -3985.087       -3105.263
   -518806.105 9   -398548.91149  20928492.928    20928494.5234   20928500.1974
       179.538         139.900
 94  3 17 10  0 40.0000000  0  7 27  2 31 23  9 16 26                0.000992026
   3955051.239 9   3066786.94447  22964400.407    22964401.4174   22964408.7774
     -3624.577       -2824.346
   -306670.165 9   -235278.68248  21397934.062    21397935.0964   21397941.9554
       -81.921         -63.835
   1707505.558 9   1317528.09646  24825140.120    24825141.4704   24825148.0364
     -2294.483       -1787.909
  -2633130.504 9  -2040643.00846  23912817.195    23912818.2994   23912824.7294
      2058.964        1604.388
  -3392034.234 9  -2629146.14346  23878652.100    23878652.5414   23878659.6154
      2897.612        2257.879
   4376736.901 9   3390540.46147  23776319.866    23776320.9494   23776329.1404
     -3989.558       -3108.746
   -522291.492 9   -401264.80749  20927829.723    20927831.2784   20927836.9434
       168.816         131.545
 94  3 17 10  1  0.0000000  0  7 27  2 31 23  9 16 26                0.000997293
   4027593.272 9   3123313.16447  22978204.281    22978205.6874   22978213.1374
     -3629.755       -2828.381
   -304905.052 9   -233903.26448  21398269.893    21398270.9714   21398277.8344
       -94.620         -73.730
   1753512.782 9   1353377.80946  24833894.834    24833896.3484   24833903.0554
     -2306.344       -1797.151
  -2674209.834 9  -2072652.86446  23904999.478    23905001.1234   23905007.5554
      2048.813        1596.478
  -3449947.619 9  -2674273.41746  23867632.244    23867631.9314   23867639.0174
      2893.566        2254.727
   4456570.212 9   3452748.15247  23791511.726    23791512.7894   23791521.0594
     -3993.877       -3112.112
   -525558.669 9   -403810.66049  20927208.092    20927209.5704   20927215.2414
       157.823         122.979
 94  3 17 10  1 20.0000000  0  7 27  2 31 23  9 16 26                0.001002561
   4100238.370 9   3179919.70647  22992028.122    22992029.6084   22992037.0954
     -3634.729       -2832.256
   -302890.233 9   -232333.27448  21398653.350    21398654.4194   21398661.2254
      -106.743         -83.176
   1799759.891 9   1389414.50546  24842694.966    24842696.6564   24842703.6154
     -2318.406       -1806.550
  -2715083.581 9  -2104502.53646  23897221.136    23897223.1314   23897229.5384
      2038.616        1588.532
  -3507776.652 9  -2719334.98046  23856627.718    23856627.3924   23856634.4944
      2889.397        2251.478
   4536490.957 9   3515023.95947  23806719.948    23806721.2054   23806729.5644
     -3998.155       -3115.445
   -528601.113 9   -406181.40049  20926629.112    20926630.6614   20926636.3184
       146.340         114.031
 94  3 17 10  1 40.0010000  0  7 27  2 31 23  9 16 26                0.001007829
   4172986.779 9   3236606.75747  23005871.851    23005873.2394   23005880.6854
     -3639.729       -2836.152
   -300636.706 9   -230577.27848  21399082.329    21399083.2794   21399090.0114
      -118.526         -92.358
   1846248.173 9   1425639.13446  24851541.615    24851543.0644   24851550.2104
     -2330.151       -1815.702
  -2755755.041 9  -2136194.56746  23889481.852    23889483.5684   23889489.9824
      2028.327        1580.514
  -3565524.624 9  -2764333.36746  23845637.965    23845638.2754   23845645.4534
      2885.111        2248.138
   4616504.701 9   3577372.24446  23821945.719    23821947.3294   23821955.7504
     -4002.748       -3119.024
   -531414.014 9   -408373.27749  20926093.967    20926095.4154   20926101.0404
       134.908         105.123
 94  3 17 10  2  0.0010000  0  7 27  2 31 23  9 16 26                0.001013099
   4245830.236 9   3293367.88247  23019733.748    23019734.9274   23019742.3314
     -3644.746       -2840.062
   -298145.508 9   -228636.08448  21399556.309    21399557.3014   21399564.0624
      -130.693        -101.839
   1892970.035 9   1462045.69546  24860432.127    24860433.8824   24860441.1034
     -2341.858       -1824.824
  -2796220.967 9  -2167726.44846  23881781.508    23881783.0994   23881789.5714
      2018.309        1572.708
  -3623186.961 9  -2809265.02246  23834665.185    23834665.5194   23834672.7264
      2881.104        2245.016
   4696603.270 9   3639786.62946  23837188.111    23837189.6154   23837198.0804
     -4007.133       -3122.441
   -533999.480 9   -410387.92749  20925601.946    20925603.4334   20925609.0584
       123.753          96.431
 94  3 17 10  2 20.0010000  0  7 27  2 31 23  9 16 26                0.001018371
   4318775.651 9   3350208.43647  23033614.680    23033615.9324   23033623.4244
     -3649.912       -2844.087
   -295409.732 9   -226504.30948  21400076.849    21400077.8594   21400084.6564
      -142.964        -111.401
   1939926.602 9   1498635.21546  24869368.034    24869369.5624   24869376.5894
     -2353.927       -1834.229
  -2836487.780 9  -2199103.20046  23874118.910    23874120.5634   23874127.1024
      2008.520        1565.081
  -3680770.482 9  -2854135.26346  23823707.528    23823707.7384   23823714.9504
      2877.232        2241.999
   4776789.622 9   3702269.43046  23852447.065    23852448.6044   23852457.0984
     -4011.547       -3125.881
   -536364.489 9   -412230.79549  20925151.802    20925153.4054   20925159.0304
       112.709          87.825
 94  3 17 10  2 40.0010000  0  7 27  2 31 23  9 16 26                0.001023644
   4391824.167 9   3407129.33747  23047515.270    23047516.5814   23047524.1604
     -3655.116       -2848.142
   -292426.508 9   -224179.72248  21400644.466    21400645.5454   21400652.3204
      -155.390        -121.083
   1987123.823 9   1535412.18746  24878349.384    24878350.9774   24878358.0834
     -2365.883       -1843.545
  -2876561.345 9  -2230329.35646  23866492.901    23866494.8734   23866501.3184
      1998.836        1557.534
  -3738276.137 9  -2898944.83346  23812764.119    23812764.7884   23812771.9134
      2873.169        2238.833
   4857067.565 9   3764823.58446  23867723.523    23867725.1154   23867733.5484
     -4016.342       -3129.617
   -538506.633 9   -413900.00249  20924744.161    20924745.7664   20924751.3774
       101.464          79.063
 94  3 17 10  3  0.0010000  0  7 27  2 31 23  9 16 26                0.001028929
   4464986.248 9   3464138.72847  23061437.564    23061438.8774   23061446.4134
     -3661.058       -2852.772
   -289186.677 9   -221655.17648  21401260.986    21401262.0984   21401268.8464
      -168.633        -131.402
   2034568.593 9   1572382.13346  24887378.243    24887379.6174   24887386.4864
     -2378.557       -1853.421
  -2916435.818 9  -2261400.37446  23858905.063    23858907.0404   23858913.5164
      1988.603        1549.561
  -3795692.353 9  -2943684.72346  23801838.501    23801838.8574   23801845.8884
      2868.491        2235.188
   4937450.854 9   3827459.82746  23883020.225    23883021.6574   23883030.1074
     -4021.989       -3134.017
   -540417.938 9   -415389.33449  20924380.398    20924382.0454   20924387.6484
        89.669          69.872
 94  3 17 10  3 20.0010000  0  7 27  2 31 23  9 16 26                0.001034228
   4538268.003 9   3521241.37047  23075382.456    23075383.9284   23075391.4474
     -3667.125       -2857.500
   -285682.255 9   -218924.45748  21401927.932    21401929.0034   21401935.7394
      -181.822        -141.679
   2082264.475 9   1609547.70046  24896454.630    24896455.9464   24896462.9534
     -2391.116       -1863.207
  -2956103.098 9  -2292309.93846  23851356.910    23851358.6124   23851365.1014
      1978.105        1541.380
  -3853015.755 9  -2988352.29146  23790930.465    23790930.5864   23790937.5634
      2863.835        2231.560
   5017946.753 9   3890183.81246  23898338.356    23898339.5694   23898348.0714
     -4027.696       -3138.464
   -542093.605 9   -416695.04849  20924061.589    20924063.1474   20924068.7584
        77.863          60.672
 94  3 17 10  3 40.0010000  0  7 27  2 31 23  9 16 26                0.001039540
   4611664.342 9   3578433.28547  23089349.617    23089350.8364   23089358.3074
     -3672.533       -2861.714
   -281912.910 9   -215987.31148  21402645.285    21402646.2784   21402653.0314
      -195.245        -152.139
   2130209.516 9   1646907.51546  24905578.247    24905579.4074   24905586.6144
     -2403.448       -1872.817
  -2995563.253 9  -2323058.12146  23843847.837    23843849.5894   23843856.0404
      1967.839        1533.381
  -3910248.401 9  -3032949.11646  23780038.750    23780039.5124   23780046.5634
      2859.387        2228.094
   5098556.171 9   3952996.25147  23913677.971    23913679.1304   23913687.6344
     -4033.261       -3142.801
   -543535.287 9   -417818.44349  20923787.212    20923788.8244   20923794.4254
        66.339          51.693
 94  3 17 10  4  0.0010000  0  7 27  2 31 23  9 16 26                0.001044864
   4685169.732 9   3635710.17747  23103337.501    23103338.5094   23103345.8964
     -3678.048       -2866.011
   -277868.632 9   -212835.92548  21403414.730    21403415.8234   21403422.6344
      -209.247        -163.050
   2178399.621 9   1684458.29746  24914748.399    24914749.7704   24914756.8814
     -2415.620       -1882.301
  -3034815.767 9  -2353644.49246  23836378.299    23836380.0954   23836386.5204
      1957.371        1525.224
  -3967391.737 9  -3077476.35246  23769164.020    23769165.4464   23769172.5454
      2854.967        2224.650
   5179277.560 9   4015895.93847  23929038.637    23929039.9744   23929048.5034
     -4038.853       -3147.158
   -544750.230 9   -418765.15449  20923555.980    20923557.6394   20923563.2554
        55.096          42.932
 94  3 17 10  4 20.0010000  0  8 27  2 31 23  9 12 16 26             0.001050210
   4758782.332 9   3693070.62147  23117345.482    23117346.5884   23117353.8634
     -3683.087       -2869.938
   -273546.042 9   -209467.67548  21404237.191    21404238.3524   21404245.1994
      -222.825        -173.630
   2226832.708 9   1722198.32746  24923964.981    24923966.2214   24923973.1914
     -2427.628       -1891.658
  -3073859.576 9  -2384068.24346  23828948.573    23828950.3124   23828956.7364
      1947.004        1517.146
  -4024447.442 9  -3121935.31746  23758307.425    23758308.1574   23758315.2464
      2850.667        2221.299
  -1226798.21918   -933687.35717  24635648.914    24635651.3731   24635662.2171
      3308.312        2577.905
   5260107.718 9   4078880.39647  23944420.358    23944421.4994   23944430.0004
     -4044.117       -3151.260
   -545741.251 9   -419537.38049  20923367.341    20923369.0504   20923374.6824
        44.022          34.303
 94  3 17 10  4 40.0010000  0  8 27  2 31 23  9 12 16 26             0.001055557
   4832491.397 9   3750506.21847  23131372.102    23131372.9414   23131380.2344
     -3687.774       -2873.590
   -268958.288 9   -205892.80448  21405110.224    21405111.3364   21405118.2314
      -235.866        -183.792
   2275505.857 9   1760125.48546  24933227.276    24933228.5864   24933235.2674
     -2439.426       -1900.851
  -3112694.529 9  -2414329.25846  23821559.060    23821560.2294   23821566.6904
      1936.455        1508.926
  -4081417.714 9  -3166327.70946  23747466.394    23747467.0584   23747474.1304
      2846.380        2217.958
  -1292922.178 8   -985212.468 7  24623065.990    24623068.228    24623079.088 
      3304.113        2574.633
   5341042.285 9   4141946.18947  23959821.561    23959822.8734   23959831.4074
     -4049.306       -3155.303
   -546510.064 9   -420136.45949  20923221.083    20923222.7634   20923228.4074
        32.868          25.611
 94  3 17 10  5  0.0010000  0  8 27  2 23  7  9 12 16 26             0.001060935
   4906290.514 9   3808011.98447  23145415.689    23145416.4924   23145423.8004
     -3692.173       -2877.018
   -264115.956 9   -202119.56348  21406031.711    21406032.7624   21406039.6994
      -248.440        -193.590
  -3151317.260 9  -2444424.89446  23814209.677    23814210.5664   23814216.9974
      1925.722        1500.562
  -1772061.46219  -1354760.30055  25153709.465    25153710.7905   25153720.7055
      2910.189        2267.680
  -4138306.367 9  -3210656.48346  23736639.907    23736641.3734   23736648.5074
      2842.443        2214.891
  -1358965.539 8  -1036674.804 7  24610498.095    24610500.435    24610511.233 
      3300.150        2571.545
   5422075.509 9   4205088.87747  23975241.661    23975243.0674   23975251.6094
     -4054.043       -3158.995
   -547059.134 9   -420564.30849  20923116.631    20923118.2714   20923123.9494
        21.969          17.119
 94  3 17 10  5 20.0010000  0  8 27  2 23  7  9 12 16 26             0.001066285
   4980180.024 9   3865588.19547  23159476.526    23159477.2414   23159484.6114
     -3696.666       -2880.519
   -259019.095 9   -198147.98448  21407001.640    21407002.7224   21407009.6094
      -261.059        -203.423
  -3189722.102 9  -2474350.74746  23806901.609    23806902.3434   23806908.8254
      1914.902        1492.131
  -1830230.386 9  -1400086.68745  25142640.312    25142641.6254   25142651.5764
      2906.778        2265.022
  -4195117.256 9  -3254924.68646  23725828.905    23725830.5914   23725837.6244
      2838.746        2212.010
  -1424928.815 8  -1088074.723 7  24597945.626    24597947.933    24597958.567 
      3296.196        2568.464
   5503204.264 9   4268305.98846  23990680.382    23990681.3994   23990690.0294
     -4058.585       -3162.534
   -547385.972 9   -420818.98749  20923054.377    20923056.0834   20923061.7664
        10.817           8.429
 94  3 17 10  5 40.0010000  0  8 27  2 23  7  9 12 16 26             0.001071639
   5054160.600 9   3923235.35247  23173554.307    23173555.2334   23173562.7184
     -3701.388       -2884.198
   -253671.060 9   -193980.69148  21408019.414    21408020.4844   21408027.3224
      -273.766        -213.324
  -3227914.058 9  -2504110.71246  23799633.854    23799634.6044   23799641.1794
      1904.213        1483.802
  -1888331.126 8  -1445359.96645  25131584.074    25131585.3964   25131595.3124
      2903.324        2262.330
  -4251852.990 9  -3299134.31946  23715031.845    23715034.1004   23715041.2024
      2834.826        2208.955
  -1490812.387 9  -1139412.499 7  24585408.786    24585410.700    24585421.216 
      3292.175        2565.331
   5584421.752 9   4331592.24046  24006135.454    24006136.6394   24006145.2714
     -4063.083       -3166.039
   -547489.887 9   -420899.96549  20923034.483    20923036.3214   20923041.9764
        -0.469          -0.365
 94  3 17 10  6  0.0010000  0  8 27  2 23  7  9 12 16 26             0.001076997
   5128237.139 9   3980957.27447  23187650.448    23187651.5044   23187659.0984
     -3706.323       -2888.044
   -248069.846 9   -189616.11348  21409085.393    21409086.3914   21409093.2204
      -286.274        -223.071
  -3265890.863 9  -2533703.02146  23792406.646    23792407.9214   23792414.5444
      1893.511        1475.463
  -1946366.322 8  -1490582.12745  25120539.269    25120541.4144   25120551.4084
      2900.291        2259.967
  -4308511.891 9  -3343284.08146  23704250.169    23704252.2274   23704259.3794
      2831.023        2205.992
  -1556614.435 9  -1190686.763 7  24572887.835    24572888.997    24572899.482 
      3288.132        2562.181
   5665723.790 9   4394944.36946  24021606.747    24021607.9954   24021616.6404
     -4067.131       -3169.193
   -547367.660 9   -420804.73049  20923057.801    20923059.5724   20923065.2154
       -11.692          -9.111
 94  3 17 10  6 20.0010000  0  8 27  2 23  7  9 12 16 26             0.001082363
   5202413.868 9   4038757.27747  23201765.922    23201766.9174   23201774.5434
     -3711.305       -2891.926
   -242223.034 9   -185060.16248  21410198.023    21410199.0104   21410205.8434
      -298.231        -232.388
  -3303655.556 9  -2563130.05546  23785219.967    23785221.5024   23785228.1764
      1883.103        1467.353
  -2004341.959 8  -1535757.88445  25109507.478    25109508.9734   25109518.7884
      2897.300        2257.636
  -4365095.940 9  -3387375.51946  23693483.034    23693484.6404   23693491.7644
      2827.406        2203.174
  -1622336.232 9  -1241898.482 8  24560381.476    24560382.595    24560393.072 
      3284.140        2559.070
   5747105.146 9   4458358.33146  24037093.748    24037094.4134   24037103.0534
     -4071.002       -3172.209
   -547021.457 9   -420534.96049  20923123.575    20923125.4084   20923131.0614
       -22.900         -17.844
 94  3 17 10  6 40.0010000  0  8 27  2 23  7  9 12 16 26             0.001087732
   5276692.270 9   4096636.49947  23215900.263    23215901.6374   23215909.2284
     -3716.682       -2896.116
   -236139.067 9   -180319.41848  21411355.684    21411356.7304   21411363.5764
      -310.117        -241.650
  -3341213.867 9  -2592396.28046  23778072.498    23778074.3964   23778081.0924
      1872.741        1459.279
  -2062259.077 8  -1580888.07045  25098486.801    25098487.6954   25098497.2784
      2894.404        2255.380
  -4421606.490 9  -3431409.69246  23682729.528    23682731.0344   23682738.1814
      2823.737        2200.314
  -1687979.150 9  -1293048.731 8  24547890.245    24547891.227    24547901.702 
      3280.115        2555.934
   5828564.003 9   4521832.67346  24052595.442    24052595.6164   24052604.2564
     -4074.973       -3175.304
   -546453.247 9   -420092.20449  20923231.656    20923233.5074   20923239.1954
       -33.846         -26.373
 94  3 17 10  7  0.0010000  0  8 27  2 23  7  9 12 16 26             0.001093109
   5351082.042 9   4154602.50547  23230056.493    23230057.5494   23230065.1064
     -3722.300       -2900.494
   -229816.611 9   -175392.83448  21412558.834    21412559.8534   21412566.7094
      -322.177        -251.047
  -3378565.360 9  -2621501.34046  23770964.802    23770966.6224   23770973.3424
      1862.420        1451.236
  -2120118.377 8  -1625973.18445  25087476.033    25087477.3944   25087486.9854
      2891.558        2253.162
  -4478042.624 9  -3475385.86146  23671990.513    23671991.5884   23671998.7074
      2819.801        2197.247
  -1753541.305 9  -1344136.036 8  24535413.051    24535415.168    24535425.735 
      3276.086        2552.794
   5910101.196 9   4585368.06446  24068111.025    24068111.7534   24068120.2684
     -4078.850       -3178.325
   -545666.361 9   -419479.05249  20923381.425    20923383.2914   20923388.9584
       -44.842         -34.942
 94  3 17 10  7 20.0010000  0  8 27  2 23  7  9 12 16 26             0.001098493
   5425583.571 9   4212655.59447  23244233.152    23244234.7964   23244242.3584
     -3727.710       -2904.709
   -223253.646 9   -170278.83748  21413807.742    21413808.7534   21413815.6184
      -333.954        -260.224
  -3415714.527 9  -2650448.74046  23763895.428    23763897.3664   23763904.0964
      1852.781        1443.725
  -2177926.581 9  -1671018.51445  25076475.530    25076476.8164   25076486.5454
      2889.561        2251.606
  -4534400.110 9  -3519300.75446  23661266.367    23661267.1224   23661274.1554
      2816.061        2194.333
  -1819023.778 9  -1395161.268 8  24522952.700    24522954.273    24522964.841 
      3272.362        2549.892
   5991714.336 9   4648962.61746  24083641.382    24083642.2944   24083650.8974
     -4082.291       -3181.006
   -544662.235 9   -418696.62249  20923572.516    20923574.4114   20923580.0264
       -55.410         -43.177
 94  3 17 10  7 40.0010000  0  8 27  2 23  7  9 12 16 26             0.001103874
   5500184.036 9   4270785.77647  23258429.042    23258430.8704   23258438.4484
     -3732.308       -2908.292
   -216459.960 9   -164985.05748  21415100.548    21415101.5744   21415108.3964
      -345.371        -269.120
  -3452676.822 9  -2679250.53446  23756861.858    23756863.6964   23756870.3824
      1843.449        1436.454
  -2235696.875 9  -1716034.30345  25065481.888    25065483.4674   25065493.1814
      2887.600        2250.078
  -4590684.864 9  -3563158.99546  23650554.649    23650556.4344   23650563.4634
      2812.417        2191.494
  -1884437.174 9  -1446132.654 8  24510504.801    24510506.501    24510517.129 
      3269.077        2547.333
   6073390.274 9   4712606.12646  24099183.520    24099184.8394   24099193.4494
     -4085.341       -3183.383
   -543454.641 9   -417755.63949  20923802.416    20923804.2464   20923809.8304
       -65.303         -50.885
 94  3 17 10  8  0.0010000  0  8 27  2 23  7  9 12 16 26             0.001109255
   5574874.894 9   4328986.39847  23272642.543    23272644.1244   23272651.6634
     -3736.715       -2911.726
   -209436.213 9   -159512.01848  21416437.164    21416438.1774   21416444.9554
      -356.993        -278.176
  -3489448.570 9  -2707903.84346  23749864.151    23749866.3144   23749872.9374
      1833.758        1428.902
  -2293433.088 9  -1761023.51545  25054495.437    25054496.7194   25054506.4214
      2885.943        2248.787
  -4646894.899 9  -3606958.97846  23639857.756    23639859.9614   23639867.0054
      2808.634        2188.546
  -1949782.092 9  -1497050.663 8  24498069.687    24498071.663    24498082.395 
      3265.557        2544.590
   6155129.671 9   4776299.05346  24114737.936    24114739.2984   24114748.0724
     -4088.519       -3185.859
   -542047.490 9   -416659.16149  20924070.286    20924072.0544   20924077.5944
       -75.306         -58.680
 94  3 17 10  8 20.0010000  0  8 27  2 23  7  9 12 16 26             0.001114640
   5649657.907 9   4387258.83947  23286873.267    23286874.8994   23286882.4474
     -3741.557       -2915.499
   -202175.895 9   -153854.63648  21417818.841    21417819.7844   21417826.5264
      -369.008        -287.539
  -3526024.442 9  -2736404.52846  23742904.893    23742906.2164   23742912.8144
      1823.930        1421.244
  -2351131.754 9  -1805983.51245  25043515.749    25043517.1404   25043526.6094
      2883.891        2247.188
  -4703026.019 9  -3650697.49946  23629176.441    23629178.5434   23629185.5904
      2804.547        2185.361
  -2015057.013 8  -1547914.136 8  24485648.186    24485650.131    24485661.001 
      3262.066        2541.870
   6236937.323 9   4840045.16246  24130305.593    24130306.8404   24130315.6274
     -4092.155       -3188.692
   -540442.292 9   -415408.36649  20924375.659    20924377.5174   20924383.0424
       -85.198         -66.388
 94  3 17 10  8 40.0010000  0  8 27  2 23  7  9 12 16 26             0.001120026
   5724532.997 9   4445603.02547  23301121.629    23301123.2164   23301130.7984
     -3746.011       -2918.970
   -194674.896 9   -148009.70748  21419246.155    21419247.1494   21419253.9274
      -381.184        -297.026
  -3562405.029 9  -2764753.04446  23735982.681    23735983.1964   23735989.8424
      1814.037        1413.535
  -2408787.968 8  -1850910.40745  25032543.584    25032545.4524   25032554.9174
      2881.695        2245.477
  -4759078.484 9  -3694374.72046  23618510.285    23618512.1274   23618519.1264
      2800.607        2182.291
  -2080261.445 8  -1598722.685 8  24473239.839    24473241.962    24473252.932 
      3258.542        2539.124
   6318813.173 9   4903844.42646  24145885.835    24145887.3804   24145896.0894
     -4095.473       -3191.278
   -538638.455 9   -414002.78549  20924719.037    20924720.7954   20924726.3324
       -95.238         -74.211
 94  3 17 10  9  0.0010000  0  8 27  2 23  7  9 12 16 26             0.001125414
   5799498.782 9   4504017.87947  23315387.235    23315388.7194   23315396.3914
     -3750.420       -2922.405
   -186923.364 9   -141969.55248  21420721.142    21420722.2124   21420729.0154
      -393.884        -306.923
  -3598580.828 9  -2792941.97647  23729098.555    23729099.1934   23729105.8134
      1803.642        1405.435
  -2466396.261 8  -1895799.92345  25021581.472    25021582.7984   25021592.6034
      2879.251        2243.572
  -4815048.379 9  -3737987.60246  23607859.783    23607861.3544   23607868.3624
      2796.430        2179.036
  -2145389.808 8  -1649471.975 7  24460845.817    24460848.305    24460859.266 
      3254.499        2535.973
   6400758.204 9   4967697.62346  24161479.542    24161481.0974   24161489.7954
     -4098.982       -3194.012
   -536626.840 9   -412435.29849  20925101.734    20925103.6314   20925109.1734
      -105.901         -82.520
 94  3 17 10  9 20.0010000  0  8 27  2 23  7  9 12 16 26             0.001130797
   5874542.790 9   4562493.68147  23329667.613    23329669.1414   23329676.8594
     -3754.220       -2925.366
   -178918.815 9   -135732.24848  21422244.379    21422245.4494   21422252.2154
      -406.698        -316.908
  -3634554.141 9  -2820973.14347  23722253.100    23722253.7514   23722260.2954
      1793.592        1397.604
  -2523959.945 8  -1940654.67745  25010627.489    25010628.7594   25010638.6064
      2876.975        2241.799
  -4870937.270 9  -3781537.34746  23597224.379    23597225.9944   23597233.0524
      2792.448        2175.934
  -2210443.640 9  -1700163.194 7  24448466.545    24448468.941    24448479.710 
      3250.748        2533.050
   6482770.252 9   5031603.02346  24177085.952    24177087.5984   24177096.2954
     -4102.244       -3196.554
   -534402.755 9   -410702.24749  20925525.126    20925526.8704   20925532.4264
      -116.608         -90.863
 94  3 17 10  9 40.0010000  0  8 27  2 23  7  9 12 16 26             0.001136173
   5949662.543 9   4621028.50347  23343962.296    23343963.9774   23343971.6774
     -3757.717       -2928.091
   -170658.241 9   -129295.44348  21423816.328    21423817.3944   21423824.1484
      -419.329        -326.750
  -3670324.641 9  -2848846.26347  23715446.150    23715446.8634   23715453.4134
      1783.427        1389.683
  -2581479.612 9  -1985475.13745  24999681.291    24999683.0034   24999692.9944
      2874.861        2240.151
  -4926750.549 9  -3825028.19446  23586604.127    23586605.0924   23586612.1574
      2788.873        2173.148
  -2275423.096 9  -1750796.471 7  24436101.426    24436103.774    24436114.264 
      3247.178        2530.269
   6564845.392 9   5095557.59446  24192704.789    24192706.0534   24192714.7194
     -4105.295       -3198.931
   -531965.821 9   -408803.34549  20925988.885    20925990.5904   20925996.1654
      -127.023         -98.979
 94  3 17 10 10  0.0010000  0  8 27  2 23  7  9 12 16 26             0.001141541
   6024851.293 9   4679617.09747  23358270.414    23358272.0204   23358279.6434
     -3761.199       -2930.804
   -162148.003 9   -122664.09548  21425435.717    21425436.8234   21425443.5694
      -431.682        -336.375
  -3705892.835 9  -2876561.72947  23708677.378    23708678.4334   23708684.9964
      1773.390        1381.862
  -2638957.345 8  -2030262.93045  24988743.704    24988745.3464   24988755.2264
      2872.783        2238.532
  -4982495.845 9  -3868466.06147  23575996.322    23575997.1534   23576004.2104
      2785.559        2170.565
  -2340331.718 9  -1801374.569 7  24423750.524    24423752.093    24423762.321 
      3243.707        2527.564
   6646982.383 9   5159560.34846  24208334.789    24208336.2494   24208344.9054
     -4108.347       -3201.309
   -529319.038 9   -406740.92249  20926492.535    20926494.2754   20926499.8494
      -137.631        -107.245
 94  3 17 10 10 20.0010000  0  8 27  2 23  7  9 12 16 26             0.001146900
   6100116.481 9   4738265.25747  23372592.711    23372594.5704   23372602.2084
     -3765.165       -2933.895
   -153384.686 9   -115835.53948  21427103.287    21427104.4104   21427111.1704
      -444.423        -346.304
  -3741257.767 9  -2904118.80346  23701947.652    23701948.6624   23701955.2644
      1763.320        1374.015
  -2696386.211 9  -2075012.66845  24977814.962    24977817.0074   24977826.7454
      2870.111        2236.450
  -5038166.072 9  -3911845.43347  23565402.621    23565403.4334   23565410.5044
      2781.590        2167.473
  -2405165.496 9  -1851894.316 8  24411413.152    24411414.605    24411424.741 
      3239.784        2524.507
   6729183.345 9   5223612.95546  24223977.294    24223978.6784   24223987.3834
     -4111.647       -3203.881
   -526454.181 9   -404508.57349  20927037.728    20927039.4374   20927045.0214
      -148.750        -115.909
 94  3 17 10 10 40.0010000  0  8 27  2 23  7  9 12 16 26             0.001152249
   6175455.335 9   4796970.80547  23386929.331    23386931.0644   23386938.8134
     -3768.635       -2936.599
   -144375.400 9   -108815.31448  21428817.710    21428818.8044   21428825.6114
      -456.479        -355.698
  -3776425.107 9  -2931521.92846  23695255.302    23695256.5624   23695263.1234
      1753.349        1366.246
  -2753764.808 9  -2119723.21545  24966896.350    24966898.3124   24966907.9664
      2867.563        2234.465
  -5093760.497 9  -3955165.74147  23554823.066    23554824.1984   23554831.2444
      2777.824        2164.538
  -2469924.896 9  -1902356.103 8  24399090.421    24399091.283    24399101.383 
      3236.052        2521.599
   6811446.483 9   5287714.01546  24239631.569    24239632.9244   24239641.6744
     -4114.685       -3206.248
   -523368.042 9   -402103.79549  20927624.989    20927626.7044   20927632.2784
      -159.932        -124.622
 94  3 17 10 11  0.0010000  0  8 27  2 23  7  9 12 16 26             0.001157589
   6250863.018 9   4855730.00346  23401279.086    23401280.6784   23401288.4294
     -3772.086       -2939.288
   -135126.327 9   -101608.24448  21430577.646    21430578.7934   21430585.6994
      -468.201        -364.832
  -3811389.440 9  -2958766.87047  23688601.721    23688603.0944   23688609.6154
      1743.214        1358.349
  -2811089.424 9  -2164391.70345  24955987.897    24955989.8714   24955999.3634
      2864.978        2232.450
  -5149274.492 9  -3998423.38747  23544259.510    23544260.2334   23544267.2444
      2773.729        2161.347
  -2534605.797 9  -1952756.739 8  24386782.667    24386782.906    24386793.012 
      3232.241        2518.629
   6893774.310 9   5351865.47146  24255297.989    24255299.4024   24255308.2364
     -4118.012       -3208.841
   -520055.390 9   -399522.51249  20928255.403    20928257.0794   20928262.6534
      -171.062        -133.295
 94  3 17 10 11 20.0010000  0  8 27  2 23  7  9 12 16 26             0.001162921
   6326339.858 9   4914543.09946  23415642.118    23415643.4534   23415651.1984
     -3775.658       -2942.071
   -125647.341 9    -94222.02048  21432381.375    21432382.6034   21432389.5144
      -479.652        -373.755
  -3846153.018 9  -2985855.35447  23681986.223    23681987.8324   23681994.2864
      1733.182        1350.531
  -2868360.796 9  -2209018.69245  24945089.496    24945091.4704   24945100.8904
      2862.148        2230.245
  -5204706.561 9  -4041617.18347  23533710.940    23533711.8604   23533718.8444
      2769.373        2157.953
  -2599210.684 9  -2003098.125 8  24374488.269    24374488.905    24374499.103 
      3228.324        2515.577
   6976167.458 9   5416067.83446  24270976.999    24270978.3194   24270987.2134
     -4121.315       -3211.414
   -516524.664 9   -396771.30349  20928927.212    20928928.9044   20928934.5444
      -181.928        -141.762
 94  3 17 10 11 40.0010000  0  8 27  2 23  7  9 12 16 26             0.001168251
   6401889.674 9   4973413.05447  23430018.979    23430020.1364   23430027.9254
     -3779.454       -2945.029
   -115940.682 9    -86658.39048  21434228.551    21434229.7484   21434236.6154
      -490.947        -382.556
  -3880714.442 9  -3012786.32046  23675410.011    23675411.0094   23675417.4834
      1722.936        1342.548
  -2925572.188 9  -2253598.94245  24934202.848    24934204.5604   24934213.8724
      2858.921        2227.731
  -5260051.310 9  -4084742.93247  23523179.398    23523180.0744   23523187.0604
      2765.022        2154.562
  -2663737.858 9  -2053378.947 8  24362208.795    24362209.690    24362220.006 
      3224.350        2512.481
   7058624.116 9   5480319.66146  24286668.147    24286669.3434   24286678.3894
     -4124.449       -3213.856
   -512780.062 9   -393853.44149  20929639.734    20929641.4874   20929647.1324
      -192.554        -150.042
 94  3 17 10 12  0.0010000  0  8 27  2 23  7  9 12 16 26             0.001173583
   6477516.856 9   5032343.28146  23444410.454    23444411.5584   23444419.3204
     -3783.175       -2947.928
   -106009.265 9    -78919.62148  21436118.493    21436119.6494   21436126.4834
      -502.127        -391.268
  -3915067.444 9  -3039554.90147  23668873.207    23668873.8644   23668880.3774
      1712.514        1334.426
  -2982714.364 9  -2298125.26845  24923328.845    24923330.7494   24923340.1474
      2855.419        2225.002
  -5315303.266 9  -4127796.38847  23512665.221    23512665.9644   23512672.8874
      2760.285        2150.871
  -2728183.264 9  -2103596.050 8  24349945.761    24349946.037    24349956.432 
      3220.290        2509.317
   7141146.177 9   5544622.47146  24302371.801    24302372.8354   24302381.7964
     -4127.641       -3216.344
   -508819.524 9   -390767.31649  20930393.461    20930395.1934   20930400.8044
      -203.405        -158.497
