     2              OBSERVATION DATA                        RINEX VERSION / TYPE
ASHTORIN                                20 - APR - 96 13:01 PGM / RUN BY / DATE
                                                            COMMENT
0810                                                        MARKER NAME
                                                            MARKER NUMBER
___                                                         OBSERVER / AGENCY
                    Z-XII3              1C001C0             REC # / TYPE / VERS
                                                            ANT # / TYPE
  3436346.5800   603307.1300  5321371.0000                  APPROX POSITION XYZ
        1.2600        0.0000        0.0000                  ANTENNA: DELTA H/E/N
     1     1                                                WAVELENGTH FACT L1/2
     7    L1    L2    C1    P1    P2    D1    D2            # / TYPES OF OBSERV
    20                                                      INTERVAL
  1994     3    17     8    30   20.000000                  TIME OF FIRST OBS
  1994     3    17    11    18   39.990000                  TIME OF LAST OBS
                                                            END OF HEADER
 94  3 17  8 31 20.0000000  0  4 19 27 17 16                         0.000537861
    210895.422 9    154251.34348  22254173.255    22254174.7784   22254179.1484
     -1564.026       -1218.722
    -18676.794 9    -13677.82549  20536109.346    20536109.4054   20536113.2084
       162.753         126.821
   -139212.73319    -96913.98956  23671304.871    23671305.0285   23671309.0815
      1631.293        1271.137
    -14202.965 9    -10391.46148  21081417.624    21081417.7184   21081421.8044
       104.680          81.569
 94  3 17  8 31 40.0000000  0  4 19 27 17 16                         0.000523143
    242115.817 9    178578.88448  22260114.519    22260115.8724   22260120.2084
     -1558.133       -1214.130
    -21948.599 9    -16227.29948  20535486.674    20535486.8514   20535490.6214
       164.256         127.992
   -171826.206 9   -122327.08446  23665098.235    23665098.8694   23665102.9474
      1629.986        1270.119
    -16297.330 9    -12023.44748  21081019.019    21081019.1974   21081023.2424
       104.653          81.548
 94  3 17  8 32  0.0000000  0  4 19 27 17 16                         0.000508283
    273234.520 9    202827.18748  22266036.289    22266037.5564   22266041.8884
     -1553.918       -1210.845
    -25232.039 9    -18785.84249  20534861.847    20534862.0634   20534865.7814
       163.798         127.635
   -204393.129 9   -147703.90646  23658900.639    23658901.3944   23658905.8514
      1626.476        1267.384
    -18373.247 9    -13641.06248  21080624.039    21080624.2024   21080628.2124
       102.661          79.996
 94  3 17  8 32 20.0000000  0  4 19 27 17 16                         0.000493280
    304268.445 9    227009.42448  22271941.899    22271943.1474   22271947.4294
     -1549.115       -1207.102
    -28502.358 9    -21334.15649  20534239.538    20534239.7984   20534243.4704
       163.474         127.382
   -236891.967 9   -173027.67446  23652716.449    23652717.0284   23652721.5284
      1623.726        1265.241
    -20408.596 9    -15227.06348  21080236.734    21080236.9144   21080240.9114
       101.148          78.817
 94  3 17  8 32 40.0000000  0  4 19 27 17 16                         0.000478134
    335221.002 9    251128.26948  22277831.929    22277833.2754   22277837.5334
     -1545.918       -1204.611
    -31751.254 9    -23865.79349  20533621.369    20533621.6274   20533625.2474
       161.622         125.939
   -269320.771 9   -198296.87046  23646545.800    23646546.0584   23646550.5964
      1619.298        1261.791
    -22393.191 9    -16773.51648  21079859.067    21079859.2874   21079863.2744
        97.477          75.956
 94  3 17  8 33  0.0000000  0  4 19 27 17 16                         0.000462873
    366099.431 9    275189.35148  22283708.100    22283709.2914   22283713.5624
     -1541.771       -1201.380
    -34976.836 9    -26379.25149  20533007.528    20533007.8674   20533011.4434
       161.065         125.505
   -301669.373 9   -223503.57346  23640390.156    23640390.3884   23640394.8984
      1615.712        1258.996
    -24312.476 9    -18269.07648  21079493.832    21079494.0964   21079498.0794
        94.598          73.713
 94  3 17  8 33 20.0000000  0  6 19 27 17 28 26 16                   0.000447648
    396922.998 9    299207.68147  22289573.724    22289574.8644   22289579.1424
     -1540.092       -1200.072
    -38164.510 9    -28863.17149  20532400.934    20532401.3414   20532404.8574
       158.066         123.168
   -333919.381 9   -248633.45246  23634253.365    23634253.4394   23634257.9524
      1609.729        1254.334
    -82087.14819    -56784.35756  24662378.027    24662378.2255   24662383.1255
      1030.470         802.964
   -238666.08519   -158090.45957  22498400.058    22498401.1915   22498405.6415
      3883.944        3026.450
    -26147.516 9    -19699.00048  21079144.687    21079144.9484   21079148.9194
        89.399          69.662
 94  3 17  8 33 40.0000000  0  7 19 31 27 17 28 26 16                0.000432156
    427702.036 9    323191.31248  22295430.884    22295431.9324   22295436.2804
     -1539.277       -1199.437
   -170817.80919   -114194.18956  24452098.059    24452102.9605   24452107.1385
      2693.407        2098.759
    -41299.209 9    -31305.81549  20531804.451    20531804.8694   20531808.3534
       153.959         119.968
   -366057.509 9   -273676.15746  23628137.504    23628137.7484   23628142.2244
      1602.562        1248.750
   -102656.670 9    -72812.54046  24658463.337    24658463.9214   24658468.5994
      1025.139         798.810
   -316386.303 9   -218651.66847  22483610.862    22483611.8284   22483615.8934
      3886.773        3028.654
    -27889.546 9    -21056.44548  21078813.214    21078813.4964   21078817.4924
        83.372          64.965
 94  3 17  8 34  0.0000000  0  7 19 31 27 17 28 26 16                0.000416603
    458474.740 9    347170.00647  22301286.827    22301287.7934   22301292.2174
     -1538.292       -1198.669
   -224645.668 9   -156137.96745  24441856.649    24441859.9684   24441864.0614
      2689.114        2095.414
    -44340.567 9    -33675.72148  20531225.708    20531226.1604   20531229.6364
       150.009         116.890
   -398038.925 9   -298596.73146  23622051.771    23622051.8604   23622056.4164
      1595.364        1243.141
   -123109.264 9    -88749.64846  24654571.374    24654571.8114   24654576.4204
      1019.958         794.772
   -394155.584 9   -279251.08948  22468812.166    22468812.9804   22468816.9084
      3889.956        3031.135
    -29501.250 9    -22312.32049  21078506.639    21078506.8824   21078510.8804
        77.635          60.495
 94  3 17  8 34 20.0000000  0  7 19 31 27 17 28 26 16                0.000400961
    489234.153 9    371138.35047  22307140.104    22307141.1614   22307145.6324
     -1538.117       -1198.533
   -278382.594 9   -198010.91846  24431631.645    24431634.4274   24431638.0184
      2683.937        2091.379
    -47295.416 9    -35978.21449  20530663.564    20530663.9394   20530667.3834
       145.079         113.049
   -429869.518 9   -323399.79646  23615994.392    23615994.6904   23615999.3214
      1587.317        1236.870
   -143450.204 9   -104599.78346  24650700.712    24650701.0234   24650705.5614
      1013.862         790.022
   -471978.382 9   -339892.23848  22454002.983    22454003.8314   22454007.7744
      3891.836        3032.599
    -30990.103 9    -23472.48649  21078223.332    21078223.5964   21078227.6484
        70.995          55.321
 94  3 17  8 34 40.0000000  0  7 19 31 27 17 28 26 16                0.000385252
    520006.085 9    395116.44348  22312995.948    22312996.8894   22313001.3874
     -1539.020       -1199.236
   -331997.757 9   -239788.96446  24421429.424    24421431.8134   24421435.4794
      2677.689        2086.511
    -50135.486 9    -38191.27649  20530123.107    20530123.5324   20530126.9584
       138.941         108.266
   -461520.613 9   -348063.00846  23609971.338    23609971.6854   23609976.3434
      1577.771        1229.432
   -163651.408 9   -120341.00546  24646856.535    24646856.8274   24646861.4184
      1006.338         784.159
   -549816.771 9   -400545.53048  22439191.015    22439191.6934   22439195.6244
      3891.997        3032.725
    -32332.394 9    -24518.44248  21077967.996    21077968.1774   21077972.2674
        63.300          49.325
 94  3 17  8 35  0.0000000  0  7 19 31 27 17 28 26 16                0.000369470
    550800.834 9    419112.32147  22318856.013    22318856.9854   22318861.4924
     -1540.720       -1200.561
   -385482.872 9   -281465.69046  24411251.939    24411254.0314   24411257.6044
      2670.523        2080.927
    -52846.365 9    -40303.66649  20529607.221    20529607.6904   20529611.1174
       131.832         102.726
   -492974.748 9   -372572.73146  23603985.675    23603986.1484   23603990.8094
      1567.494        1221.424
   -183697.289 9   -135961.19646  24643041.879    24643042.1974   24643046.8204
       997.907         777.590
   -627649.309 9   -461194.26048  22424380.181    22424380.7094   22424384.5894
      3891.026        3031.968
    -33518.124 9    -25442.40148  21077742.246    21077742.5454   21077746.6624
        55.045          42.892
 94  3 17  8 35 20.0000000  0  7 19 31 27 17 28 26 16                0.000353609
    581632.199 9    443136.73347  22324722.968    22324724.0254   22324728.5514
     -1542.580       -1202.010
   -438826.383 9   -323032.06746  24401101.463    24401103.1504   24401106.7784
      2663.701        2075.611
    -55409.944 9    -42301.27649  20529119.410    20529119.8734   20529123.2884
       124.334          96.884
   -524223.454 9   -396922.37746  23598039.278    23598039.6724   23598044.4144
      1557.186        1213.392
   -203569.777 9   -151446.24146  24639260.307    24639260.5544   24639265.1974
       989.126         770.748
   -705461.485 9   -521827.12348  22409572.963    22409573.5974   22409577.4244
      3890.009        3031.176
    -34539.064 9    -26237.95249  21077547.826    21077548.2834   21077552.4564
        46.894          36.541
 94  3 17  8 35 40.0000000  0  7 19 31 27 17 28 26 16                0.000337669
    612504.579 9    467193.10747  22330597.867    22330598.8784   22330603.4014
     -1544.501       -1203.507
   -492028.496 9   -364488.26946  24390977.621    24390979.1614   24390982.8244
      2656.772        2070.212
    -57820.514 9    -44179.65849  20528660.773    20528661.1684   20528664.6094
       116.959          91.137
   -555261.160 9   -421107.59846  23592133.114    23592133.3894   23592138.1534
      1546.770        1205.275
   -223258.675 9   -166788.26446  24635513.668    24635513.9984   24635518.4794
       979.970         763.613
   -783247.400 9   -582439.53248  22394770.840    22394771.4514   22394775.2324
      3888.765        3030.206
    -35393.010 9    -26903.37948  21077385.357    21077385.8064   21077390.0374
        38.683          30.143
 94  3 17  8 36  0.0000000  0  7 19 31 27 17 28 26 16                0.000321658
    643417.037 9    491280.70747  22336480.327    22336481.3524   22336485.8764
     -1546.814       -1205.310
   -545086.889 9   -405832.47646  24380881.094    24380882.4564   24380886.2854
      2648.907        2064.083
    -60085.304 9    -45944.44849  20528229.754    20528230.1874   20528233.6594
       109.449          85.285
   -586091.498 9   -445131.24846  23586266.258    23586266.6034   23586271.4024
      1536.230        1197.062
   -242762.913 9   -181986.42146  24631801.965    24631802.4164   24631806.9304
       970.368         756.131
   -861004.735 9   -643029.67048  22379974.178    22379974.7234   22379978.4614
      3886.893        3028.748
    -36082.070 9    -27440.32248  21077254.384    21077254.7014   21077258.9574
        30.094          23.450
 94  3 17  8 36 20.0000000  0  7 19 31 27 17 28 26 16                0.000305583
    674367.662 9    515398.04547  22342370.159    22342371.0574   22342375.6214
     -1548.036       -1206.262
   -597996.733 9   -447060.93946  24370812.795    24370814.0234   24370817.9874
      2642.220        2058.873
    -62211.587 9    -47601.31049  20527825.135    20527825.5674   20527829.0784
       103.456          80.615
   -616721.206 9   -468998.56946  23580437.726    23580438.0574   23580442.8694
      1527.036        1189.898
   -262081.998 9   -197040.25846  24628125.699    24628126.1144   24628130.6494
       961.749         749.415
   -938729.596 9   -703594.50248  22365183.462    22365184.1814   22365187.8564
      3885.779        3027.880
    -36607.925 9    -27850.09348  21077154.332    21077154.6494   21077158.9254
        22.748          17.726
 94  3 17  8 36 40.0000000  0  7 19 31 27 17 28 26 16                0.000289448
    705353.811 9    539543.06147  22348266.711    22348267.5064   22348272.1464
     -1549.764       -1207.608
   -650761.511 9   -488176.35446  24360772.036    24360773.1564   24360777.2754
      2634.988        2053.237
    -64207.279 9    -49156.41049  20527445.360    20527445.8194   20527449.3394
        96.870          75.483
   -647156.908 9   -492714.69846  23574645.936    23574646.3524   23574651.1904
      1517.329        1182.334
   -281214.776 9   -211948.95146  24624484.755    24624485.2344   24624489.7914
       952.216         741.986
  -1016419.221 9   -764131.88347  22350399.662    22350400.3564   22350403.9914
      3884.009        3026.501
    -36974.495 9    -28135.74548  21077084.584    21077084.8834   21077089.1994
        14.639          11.407
 94  3 17  8 37  0.0000000  0  7 19 31 27 17 28 26 16                0.000273260
    736376.581 9    563716.61047  22354170.130    22354170.9354   22354175.6474
     -1552.021       -1209.367
   -703381.078 9   -529178.62246  24350759.139    24350760.0754   24350764.2564
      2627.364        2047.297
    -66072.692 9    -50609.99249  20527090.369    20527090.8704   20527094.3964
        90.208          70.292
   -677397.936 9   -516279.14246  23568891.233    23568891.7044   23568896.5534
      1507.318        1174.534
   -300155.072 9   -226707.65546  24620880.429    24620881.0214   24620885.5654
       942.368         734.313
  -1094076.117 9   -824643.76047  22335621.823    22335622.7204   22335626.3234
      3882.229        3025.113
    -37176.974 9    -28293.53448  21077045.971    21077046.3614   21077050.6884
         6.115           4.765
 94  3 17  8 37 20.0000000  0  8  2 19 31 27 17 28 26 16             0.000257067
   -323217.00819   -229286.05957  22824107.952    22824107.8575   22824112.4165
      4180.800        3257.766
    767433.717 9    587916.94447  22360080.021    22360080.9254   22360085.6924
     -1553.590       -1210.590
   -755856.292 9   -570068.40146  24340773.547    24340774.4284   24340778.7324
      2620.239        2041.745
    -67820.167 9    -51971.67549  20526757.820    20526758.3824   20526761.9094
        84.628          65.944
   -707454.282 9   -539699.68746  23563171.650    23563172.1724   23563177.0464
      1498.234        1167.455
   -318911.926 9   -241323.41846  24617311.292    24617311.7794   24617316.3314
       933.371         727.302
  -1171712.512 9   -885139.66147  22320847.829    22320848.9844   22320852.5474
      3881.497        3024.543
    -37221.374 9    -28328.14648  21077037.505    21077037.9334   21077042.2554
        -1.675          -1.305
 94  3 17  8 37 40.0000000  0  8  2 19 31 27 17 28 26 16             0.000240859
   -406794.213 9   -294411.15347  22808204.162    22808203.7824   22808208.2134
      4177.291        3255.032
    798532.278 9    612149.55347  22365997.761    22365998.8004   22366003.5754
     -1555.951       -1212.429
   -808172.885 9   -610834.60146  24330818.058    24330818.8654   24330823.2374
      2611.632        2035.038
    -69442.656 9    -53235.96549  20526448.991    20526449.6604   20526453.2074
        77.969          60.755
   -737310.694 9   -562964.42246  23557489.990    23557490.6714   23557495.5394
      1487.678        1159.230
   -337477.017 9   -255789.78946  24613778.384    24613779.0654   24613783.4964
       923.434         719.559
  -1249317.972 9   -945611.45447  22306080.132    22306081.1484   22306084.7034
      3879.239        3022.784
    -37092.524 9    -28227.75748  21077062.095    21077062.4494   21077066.7924
       -11.008          -8.578
 94  3 17  8 38  0.0000000  0  8  2 19 31 27 17 28 26 16             0.000224616
   -490308.688 9   -359487.36747  22792311.812    22792311.5464   22792315.8824
      4174.145        3252.581
    829672.641 9    636414.73947  22371923.572    22371924.6364   22371929.4214
     -1558.011       -1214.034
   -860322.662 9   -651470.79446  24320894.154    24320895.0584   24320899.5224
      2603.242        2028.500
    -70934.569 9    -54398.50949  20526165.141    20526165.8044   20526169.3584
        71.172          55.459
   -766961.503 9   -586068.95346  23551847.580    23551848.3224   23551853.1774
      1477.384        1151.208
   -355847.751 9   -270104.68046  24610282.469    24610283.2564   24610287.6644
       913.727         711.995
  -1326881.301 9  -1006050.41747  22291320.536    22291321.3324   22291324.8894
      3877.140        3021.148
    -36779.661 9    -27983.98648  21077121.512    21077121.9934   21077126.3384
       -20.264         -15.790
 94  3 17  8 38 20.0000000  0  8  2 19 31 27 17 28 26 16             0.000208325
   -573764.958 9   -424518.22947  22776430.406    22776430.3674   22776434.7104
      4171.570        3250.574
    860848.426 9    660707.52547  22377856.329    22377857.2224   22377862.0454
     -1559.660       -1215.319
   -912306.218 9   -691977.46846  24311001.881    24311002.8214   24311007.4684
      2594.969        2022.054
    -72290.629 9    -55455.19149  20525907.099    20525907.7894   20525911.3574
        64.304          50.107
   -796409.418 9   -609015.37846  23546243.852    23546244.4824   23546249.3804
      1467.274        1143.330
   -374028.486 9   -284271.48646  24606822.968    24606823.6424   24606828.0254
       904.310         704.657
  -1404406.518 9  -1066459.68147  22276567.768    22276568.7514   22276572.3434
      3875.373        3019.771
    -36281.875 9    -27596.11848  21077216.280    21077216.7154   21077221.0514
       -29.551         -23.027
 94  3 17  8 38 40.0000000  0  8  2 19 31 27 17 28 26 16             0.000191981
   -657166.577 9   -489506.50547  22760559.499    22760559.5564   22760563.9314
      4168.747        3248.374
    892062.140 9    685029.86647  22383796.108    22383797.0454   22383801.8974
     -1561.580       -1216.816
   -964118.019 9   -732350.30646  24301142.596    24301143.3694   24301148.1074
      2586.188        2015.211
    -73500.340 9    -56397.83649  20525676.846    20525677.5754   20525681.2124
        56.692          44.175
   -825647.646 9   -631798.40546  23540680.085    23540680.5964   23540685.5224
      1456.625        1135.032
   -392017.919 9   -298289.21446  24603399.769    24603400.3784   24603404.7804
       894.813         697.257
  -1481892.799 9  -1126838.60447  22261822.603    22261823.6224   22261827.2224
      3873.456        3018.277
    -35593.694 9    -27059.88648  21077347.256    21077347.6834   21077352.0304
       -39.201         -30.546
 94  3 17  8 39  0.0000000  0  8  2 19 31 27 17 28 26 16             0.000175571
   -740511.158 9   -554450.33147  22744699.559    22744699.5894   22744704.0274
      4165.723        3246.018
    923313.179 9    709381.28647  22389743.054    22389743.9704   22389748.8354
     -1563.618       -1218.404
  -1015752.757 9   -772585.18346  24291316.899    24291317.5854   24291322.3474
      2577.296        2008.283
    -74552.710 9    -57217.87849  20525476.467    20525477.3074   20525480.9954
        48.633          37.896
   -854669.642 9   -654412.95146  23535157.297    23535157.8904   23535162.8694
      1445.569        1126.417
   -409821.610 9   -312162.23746  24600011.753    24600012.4904   24600016.8994
       885.572         690.056
  -1559343.717 9  -1187189.96847  22247084.305    22247085.1724   22247088.8324
      3871.709        3016.916
    -34711.304 9    -26372.32648  21077515.205    21077515.6164   21077519.9534
       -49.041         -38.214
 94  3 17  8 39 20.0000000  0  8  2 19 31 27 17 28 26 16             0.000159105
   -823791.401 9   -619344.02547  22728851.839    22728851.8964   22728856.3894
      4162.304        3243.354
    954610.327 9    733768.63547  22395698.709    22395699.6624   22395704.5514
     -1566.052       -1220.300
  -1067202.144 9   -812675.61846  24281526.329    24281527.0574   24281531.9844
      2567.624        2000.746
    -75438.242 9    -57907.91849  20525308.018    20525308.7954   20525312.5354
        39.896          31.088
   -883465.458 9   -676851.25746  23529677.632    23529678.2514   23529683.1684
      1434.122        1117.498
   -427436.476 9   -325888.07846  24596659.820    24596660.4994   24596664.9644
       875.822         682.459
  -1636754.546 9  -1247510.09447  22232353.354    22232354.3484   22232358.0304
      3869.418        3015.131
    -33628.438 9    -25528.55448  21077721.287    21077721.6764   21077726.0214
       -59.250         -46.169
 94  3 17  8 39 40.0000000  0  8  2 19 31 27 17 28 26 16             0.000142582
   -907005.593 9   -684186.25247  22713016.612    22713016.7614   22713021.3214
      4159.271        3240.990
    985951.595 9    758190.36647  22401662.523    22401663.7474   22401668.6214
     -1567.863       -1221.711
  -1118463.424 9   -852619.48546  24271771.632    24271772.3974   24271777.3334
      2558.711        1993.801
    -76152.247 9    -58464.30049  20525172.193    20525172.9224   20525176.6864
        31.635          24.651
   -912036.671 9   -699114.53746  23524241.006    23524241.3494   23524246.2834
      1423.196        1108.984
   -444857.362 9   -339462.75746  24593344.672    24593345.3614   24593349.8534
       866.365         675.090
  -1714121.015 9  -1307795.65747  22217630.723    22217631.9934   22217635.6934
      3867.410        3013.566
    -32344.759 9    -24528.30248  21077965.539    21077965.9974   21077970.3354
       -68.957         -53.733
 94  3 17  8 40  0.0000000  0  8  2 19 31 27 17 28 26 16             0.000125998
   -990154.699 9   -748977.76047  22697193.633    22697194.0184   22697198.6604
      4155.914        3238.375
   1017333.542 9    782643.79447  22407634.323    22407635.6184   22407640.4794
     -1570.042       -1223.409
  -1169545.680 9   -892423.85546  24262051.005    24262051.7844   24262056.7814
      2549.923        1986.953
    -76697.212 9    -58888.96149  20525068.475    20525069.2024   20525072.9854
        23.219          18.093
   -940388.610 9   -721206.97246  23518845.820    23518846.1574   23518851.0474
      1412.418        1100.585
   -462088.334 9   -352889.49846  24590065.457    24590066.3214   24590070.8994
       857.064         667.842
  -1791445.343 9  -1368048.38347  22202916.367    22202917.6314   22202921.3474
      3865.505        3012.082
    -30867.846 9    -23377.47948  21078246.613    21078247.1004   21078251.4314
       -78.265         -60.986
 94  3 17  8 40 20.0000000  0  8  2 19 31 27 17 28 26 16             0.000109356
  -1073231.268 9   -813712.74847  22681384.619    22681385.0704   22681389.7554
      4152.142        3235.435
   1048763.537 9    807134.66047  22413615.458    22413616.6124   22413621.4614
     -1572.717       -1225.494
  -1220449.227 9   -932088.96346  24252364.395    24252365.1544   24252370.1624
      2540.770        1979.821
    -77073.095 9    -59181.87249  20524996.950    20524997.6574   20525001.4774
        14.852          11.573
   -968523.704 9   -743130.42046  23513492.022    23513492.2744   23513497.1114
      1401.529        1092.101
   -479131.504 9   -366169.92846  24586822.212    24586823.1274   24586827.6834
       847.715         660.557
  -1868732.529 9  -1428272.16947  22188209.286    22188210.3934   22188214.0964
      3863.525        3010.539
    -29209.090 9    -22084.95948  21078562.226    21078562.8074   21078567.1034
       -87.220         -67.964
 94  3 17  8 40 40.0000000  0  8  2 19 31 27 17 28 26 16             0.000092662
  -1156232.051 9   -878388.68647  22665589.986    22665590.5764   22665595.2704
      4148.160        3232.332
   1080250.043 9    831669.55947  22419607.374    22419608.3324   22419613.1774
     -1575.659       -1227.786
  -1271175.255 9   -971615.73846  24242711.510    24242712.2654   24242717.3364
      2532.101        1973.066
    -77287.365 9    -59348.85349  20524956.232    20524956.8824   20524960.7244
         6.893           5.371
   -996441.842 9   -764884.82346  23508179.302    23508179.7254   23508184.5744
      1390.630        1083.608
   -495987.043 9   -379304.13047  24583614.802    24583615.6894   24583620.1904
       838.193         653.137
  -1945977.374 9  -1488462.96248  22173510.315    22173511.2144   22173514.9334
      3861.172        3008.705
    -27373.244 9    -20654.44848  21078911.647    21078912.1924   21078916.5074
       -95.962         -74.776
 94  3 17  8 41  0.0000000  0  8  2 19 31 27 17 28 26 16             0.000075918
  -1239156.319 9   -943004.99747  22649810.222    22649810.6294   22649815.4114
      4143.929        3229.035
   1111785.930 9    856242.93647  22425608.572    22425609.4614   22425614.2964
     -1578.267       -1229.818
  -1321740.880 9  -1011017.52846  24233089.232    24233089.9904   24233095.0744
      2524.161        1966.879
    -77353.697 9    -59400.55649  20524943.557    20524944.2844   20524948.1314
        -0.572          -0.446
  -1024152.223 9   -786477.32846  23502906.158    23502906.6314   23502911.4614
      1380.060        1075.371
   -512660.910 9   -392296.75147  24580441.947    24580442.8704   24580447.2894
       828.769         645.794
  -2023181.751 9  -1548622.21848  22158818.996    22158819.7564   22158823.5164
      3859.000        3007.013
    -25372.404 9    -19095.37348  21079292.526    21079292.9884   21079297.3054
      -104.477         -81.411
 94  3 17  8 41 20.0000000  0  8  2 19 31 27 17 28 26 16             0.000059130
  -1322000.611 9  -1007558.99047  22634045.605    22634045.8974   22634050.7164
      4140.041        3226.006
   1143371.565 9    880855.08047  22431618.971    22431620.0624   22431624.8374
     -1580.733       -1231.740
  -1372152.215 9  -1050299.10046  24223496.368    24223497.0214   24223502.1604
      2516.424        1960.850
    -77281.110 9    -59344.00849  20524957.377    20524958.1304   20524961.9644
        -7.170          -5.587
  -1051657.186 9   -807909.77246  23497671.985    23497672.5884   23497677.4524
      1370.014        1067.543
   -529147.456 9   -405143.45247  24577304.553    24577305.5534   24577309.9064
       819.371         638.471
  -2100347.439 9  -1608751.33248  22144134.944    22144135.6664   22144139.4064
      3857.089        3005.524
    -23206.502 9    -17407.67648  21079704.567    21079705.1914   21079709.4634
      -112.580         -87.725
 94  3 17  8 41 40.0000000  0  8  2 19 31 27 17 28 26 16             0.000042305
  -1404755.968 9  -1072043.68047  22618297.840    22618298.0954   22618302.9614
      4134.989        3222.069
   1175014.867 9    905512.16447  22437640.529    22437641.6224   22437646.3404
     -1584.133       -1234.389
  -1422397.839 9  -1089451.55246  24213934.888    24213935.5524   24213940.8134
      2507.558        1953.941
    -77065.872 9    -59176.30649  20524998.327    20524999.1104   20525002.9384
       -14.860         -11.579
  -1078951.994 9   -829178.45646  23492478.181    23492478.5764   23492483.4114
      1358.808        1058.811
   -545435.260 9   -417835.26847  24574205.053    24574206.0524   24574210.4174
       808.944         630.346
  -2177463.820 9  -1668842.02348  22129460.031    22129460.9204   22129464.6554
      3853.973        3003.096
    -20867.788 9    -15585.32048  21080149.518    21080150.2624   21080154.5084
      -121.831         -94.933
 94  3 17  8 42  0.0000000  0  8  2 19 31 27 17 28 26 16             0.000025446
  -1487420.452 9  -1136457.55647  22602567.319    22602567.5774   22602572.5134
      4130.605        3218.653
   1206713.704 9    930212.51847  22443672.648    22443673.7364   22443678.4674
     -1586.669       -1236.365
  -1472478.452 9  -1128475.39946  24204404.859    24204405.4334   24204410.9094
      2499.543        1947.696
    -76712.091 9    -58900.64949  20525065.655    20525066.4374   20525070.3014
       -21.415         -16.687
  -1106033.865 9   -850281.21646  23487324.976    23487325.1144   23487329.9044
      1348.513        1050.789
   -561529.007 9   -430375.89847  24571142.523    24571143.5434   24571147.8224
       799.569         623.041
  -2254529.470 9  -1728893.18448  22114794.723    22114795.8554   22114799.5734
      3851.728        3001.346
    -18356.703 9    -13628.65148  21080627.376    21080628.0984   21080632.3654
      -130.136        -101.405
 94  3 17  8 42 20.0000000  0  8  2 19 31 27 17 28 26 16             0.000008563
  -1569982.755 9  -1200791.81547  22586856.232    22586856.4874   22586861.4714
      4125.386        3214.586
   1238474.457 9    954961.11747  22449716.616    22449717.5974   22449722.3474
     -1589.619       -1238.664
  -1522378.522 9  -1167358.57346  24194909.048    24194909.7664   24194915.2444
      2490.173        1940.395
    -76215.768 9    -58513.92349  20525160.097    20525160.9024   20525164.7884
       -28.434         -22.156
  -1132896.173 9   -871212.86846  23482213.126    23482213.3814   23482218.2154
      1337.447        1042.166
   -577424.588 9   -442762.11847  24568117.783    24568118.7514   24568123.0304
       789.658         615.318
  -2331537.572 9  -1788899.50048  22100140.731    22100141.6924   22100145.4144
      3848.777        2999.047
    -15666.307 9    -11532.25748  21081139.402    21081140.0734   21081144.3384
      -139.250        -108.506
 94  3 17  8 42 40.0000000  0  8  2 19 31 27 17 28 26 16            -0.000008345
  -1652447.031 9  -1265049.68847  22571163.747    22571164.0334   22571169.0434
      4120.989        3211.160
   1270286.148 9    979749.40547  22455770.102    22455771.1714   22455775.9634
     -1591.467       -1240.104
  -1572096.580 9  -1206099.92146  24185448.185    24185448.7674   24185454.2154
      2481.593        1933.709
    -75583.474 9    -58021.24749  20525280.442    20525281.2344   20525285.1574
       -34.855         -27.160
  -1159539.955 9   -891974.25446  23477142.930    23477143.2944   23477148.1104
      1326.800        1033.870
   -593124.508 9   -454995.82447  24565130.172    24565131.2094   24565135.4494
       780.295         608.022
  -2408489.833 9  -1848862.30248  22085497.091    22085498.1144   22085501.8574
      3846.384        2997.182
    -12790.683 9     -9291.52848  21081686.771    21081687.3074   21081691.5544
      -148.366        -115.610
 94  3 17  8 43  0.0000000  0  8  2 19 31 27 17 28 26 16            -0.000025281
  -1734814.489 9  -1329232.11947  22555489.597    22555490.0184   22555495.0464
      4116.029        3207.295
   1302135.495 9   1004567.04647  22461830.813    22461831.9184   22461836.7274
     -1593.252       -1241.495
  -1621634.455 9  -1244700.84646  24176021.489    24176022.0364   24176027.4654
      2472.377        1926.528
    -74814.009 9    -57421.68549  20525426.881    20525427.6734   20525431.6114
       -41.921         -32.666
  -1185962.337 9   -912563.13446  23472115.060    23472115.3794   23472120.1384
      1315.655        1025.186
   -608630.722 9   -467078.57346  24562179.478    24562180.4504   24562184.6854
       770.669         600.521
  -2485390.765 9  -1908785.10948  22070863.407    22070864.3654   22070868.0664
      3844.023        2995.343
     -9723.603 9     -6901.61348  21082270.351    21082270.9764   21082275.2254
      -158.131        -123.219
 94  3 17  8 43 19.9990000  0  8  2 19 31 27 17 28 26 16            -0.000042253
  -1817090.536 9  -1393343.31747  22539832.846    22539833.3884   22539838.4404
      4111.888        3204.069
   1334011.977 9   1029405.82647  22467896.635    22467897.8524   22467902.6804
     -1594.743       -1242.657
  -1670988.873 9  -1283158.82846  24166629.637    24166630.1154   24166635.7194
      2463.082        1919.285
    -73909.587 9    -56716.95949  20525599.073    20525599.8134   20525603.7574
       -48.694         -37.943
  -1212167.742 9   -932982.94346  23467128.242    23467128.5954   23467133.3804
      1304.823        1016.745
   -623953.537 9   -479018.45946  24559263.754    24559264.7094   24559268.8914
       761.510         593.384
  -2562249.908 9  -1968675.35348  22056237.692    22056238.5794   22056242.2494
      3842.017        2993.779
     -6469.716 9     -4366.13648  21082889.632    21082890.1834   21082894.4074
      -167.418        -130.456
 94  3 17  8 43 39.9990000  0  8  2 19 31 27 17 28 26 16            -0.000059260
  -1899280.965 9  -1457387.80248  22524192.604    22524193.0784   22524198.1464
      4107.123        3200.356
   1365928.014 9   1054275.42747  22473970.143    22473971.2794   22473976.1494
     -1596.871       -1244.315
  -1720149.165 9  -1321465.55346  24157274.973    24157275.2544   24157280.8634
      2452.974        1911.408
    -72858.928 9    -55898.28549  20525799.031    20525799.7634   20525803.7314
       -56.412         -43.957
  -1238150.731 9   -953229.42946  23462183.859    23462184.2104   23462188.9254
      1293.388        1007.835
   -639085.896 9   -490809.93046  24556384.087    24556385.1774   24556389.3384
       751.681         585.725
  -2639059.310 9  -2028526.83748  22041621.272    22041622.2444   22041625.9124
      3838.847        2991.309
     -3024.957 9     -1681.92848  21083545.200    21083545.7174   21083549.8954
      -177.040        -137.953
 94  3 17  8 43 59.9990000  0  8  2 19 31 27 17 28 26 16            -0.000076308
  -1981386.066 9  -1521365.80248  22508568.594    22508568.9944   22508574.0984
      4103.172        3197.277
   1397876.864 9   1079170.59647  22480049.926    22480050.9614   22480055.8524
     -1598.317       -1245.442
  -1769118.262 9  -1359623.27146  24147956.207    24147956.7414   24147962.3224
      2443.722        1904.199
    -71663.776 9    -54967.02249  20526026.516    20526027.1904   20526031.1694
       -63.375         -49.383
  -1263912.113 9   -973303.23846  23457281.561    23457282.0394   23457286.5974
      1282.538         999.380
   -654031.031 9   -502455.49546  24553540.198    24553541.1964   24553545.3584
       742.618         578.663
  -2715812.661 9  -2088334.64848  22027015.447    22027016.6034   22027020.2244
      3836.303        2989.327
       602.871 9      1144.92848  21084235.657    21084236.0704   21084240.2184
      -185.967        -144.909
 94  3 17  8 44 19.9990000  0  8  2 19 31 27 17 28 26 16            -0.000093404
  -2063417.534 9  -1585286.42048  22492958.516    22492958.9134   22492964.0434
      4099.762        3194.620
   1429854.671 9   1104088.33147  22486135.176    22486136.2064   22486141.1154
     -1599.678       -1246.502
  -1817903.046 9  -1397637.36646  24138672.856    24138673.3834   24138678.8804
      2434.689        1897.160
    -70328.159 9    -53926.30549  20526280.620    20526281.3724   20526285.3364
       -70.425         -54.877
  -1289459.133 9   -993210.00746  23452420.161    23452420.5934   23452425.1494
      1271.913         991.101
   -668795.730 9   -513960.48346  24550730.536    24550731.5244   24550735.6774
       733.573         571.615
  -2792519.253 9  -2148106.02448  22012418.893    22012419.8584   22012423.4184
      3834.136        2987.638
      4405.304 9      4107.83948  21084959.186    21084959.6614   21084963.7914
      -194.527        -151.579
 94  3 17  8 44 39.9990000  0  8  2 19 31 27 17 28 26 16            -0.000110558
  -2145384.914 9  -1649157.10648  22477360.727    22477361.0704   22477366.1784
      4096.730        3192.257
   1461857.333 9   1129025.43747  22492225.055    22492226.1184   22492231.0444
     -1600.852       -1247.417
  -1866517.918 9  -1435519.08046  24129421.852    24129422.3744   24129427.7684
      2426.531        1890.803
    -68856.277 9    -52779.40449  20526560.765    20526561.5114   20526565.4104
       -77.054         -60.042
  -1314796.865 9  -1012953.70946  23447598.462    23447598.9864   23447603.5844
      1261.636         983.093
   -683381.472 9   -525326.04446  24547955.134    24547956.0184   24547960.1014
       724.702         564.703
  -2869185.231 9  -2207845.75248  21997829.948    21997830.8374   21997834.3474
      3832.198        2986.128
      8375.568 9      7201.53548  21085714.801    21085715.1824   21085719.3114
      -202.769        -158.002
 94  3 17  8 44 59.9990000  0  8  2 19 31 27 17 28 26 16            -0.000127771
  -2227284.907 9  -1712975.27448  22461775.890    22461776.0534   22461781.1574
      4093.672        3189.874
   1493891.972 9   1153987.45447  22498321.282    22498322.1464   22498327.1064
     -1602.207       -1248.473
  -1914967.284 9  -1473271.82246  24120202.091    24120202.8264   24120208.1774
      2418.775        1884.760
    -67244.117 9    -51523.19349  20526867.688    20526868.3474   20526872.1874
       -83.738         -65.250
  -1339926.559 9  -1032535.31046  23442816.487    23442816.9274   23442821.5504
      1251.813         975.439
   -697781.618 9   -536546.96146  24545214.872    24545215.7924   24545219.7704
       715.752         557.729
  -2945806.876 9  -2267550.93348  21983249.282    21983250.2404   21983253.7334
      3830.448        2984.765
     12514.758 9     10426.85248  21086502.426    21086502.8164   21086507.0124
      -210.566        -164.077
 94  3 17  8 45 19.9990000  0  8  2 19 31 27 17 28 26 16            -0.000145051
  -2309125.839 9  -1776747.42348  22446202.166    22446202.2564   22446207.3564
      4090.130        3187.114
   1525954.859 9   1178971.48747  22504422.682    22504423.5154   22504428.5374
     -1604.396       -1250.179
  -1963263.239 9  -1510905.00546  24111011.652    24111012.4274   24111017.7414
      2410.497        1878.309
    -65500.391 9    -50164.46749  20527199.500    20527200.2264   20527204.0314
       -90.876         -70.812
  -1364864.991 9  -1051967.86346  23438070.657    23438071.3084   23438075.8824
      1241.721         967.575
   -712002.843 9   -547628.48846  24542508.552    24542509.5984   24542513.6134
       706.000         550.130
  -3022393.703 9  -2327228.98448  21968675.412    21968676.3054   21968679.7694
      3827.889        2982.771
     16803.070 9     13768.37248  21087318.210    21087318.8414   21087323.0584
      -218.587        -170.328
 94  3 17  8 45 39.9990000  0  8  2 19 31 27 17 28 26 16            -0.000162380
  -2390884.223 9  -1840455.24948  22430644.008    22430644.1704   22430649.2154
      4085.597        3183.582
   1558069.613 9   1203995.93747  22510533.892    22510534.7734   22510539.8064
     -1607.121       -1252.302
  -2011384.985 9  -1548402.45146  24101854.428    24101855.1344   24101860.5004
      2401.709        1871.462
    -63607.461 9    -48689.47849  20527559.726    20527560.4814   20527564.2624
       -98.441         -76.707
  -1389589.992 9  -1071234.11746  23433365.566    23433366.2934   23433370.9204
      1230.796         959.062
   -726015.809 9   -558547.72846  24539841.988    24539843.0434   24539847.0314
       695.320         541.808
  -3098919.149 9  -2386859.20648  21954113.198    21954114.0434   21954117.5184
      3824.729        2980.308
     21263.131 9     17243.72848  21088166.664    21088167.5544   21088171.7884
      -227.510        -177.281
 94  3 17  8 45 59.9990000  0  8  2 19 31 27 17 28 26 16            -0.000179751
  -2472549.686 9  -1904090.66948  22415103.510    22415103.7644   22415108.7854
      4081.189        3180.147
   1590237.763 9   1229061.98547  22516655.125    22516656.2134   22516661.2754
     -1609.392       -1254.072
  -2059327.856 9  -1585760.52246  24092731.302    24092731.9694   24092737.2224
      2392.945        1864.632
    -61563.910 9    -47097.12249  20527948.797    20527949.3854   20527953.1454
      -105.603         -82.288
  -1414097.074 9  -1090330.54646  23428701.792    23428702.6914   23428707.3534
      1220.222         950.822
   -739817.542 9   -569302.33446  24537215.605    24537216.7434   24537220.6884
       685.173         533.901
  -3175386.379 9  -2446444.06648  21939561.858    21939562.8514   21939566.3234
      3822.338        2978.445
     25904.957 9     20860.71548  21089050.172    21089050.8574   21089055.1164
      -236.400        -184.208
 94  3 17  8 46 19.9990000  0  8  2 19 31 27 17 28 26 16            -0.000197166
  -2554127.424 9  -1967657.73148  22399579.781    22399580.0334   22399585.0394
      4076.393        3176.410
   1622451.814 9   1254163.81047  22522785.248    22522786.4004   22522791.3784
     -1612.070       -1256.158
  -2107098.857 9  -1622984.64746  24083640.821    24083641.5124   24083646.7834
      2383.916        1857.597
    -59378.841 9    -45394.49349  20528364.525    20528365.2184   20528368.9654
      -113.104         -88.133
  -1438393.260 9  -1109262.64446  23424078.450    23424079.2734   23424083.8864
      1209.220         942.249
   -753419.814 9   -579901.52846  24534627.180    24534628.3304   24534632.2614
       674.836         525.846
  -3251809.527 9  -2505994.57748  21925019.222    21925020.0574   21925023.4924
      3819.734        2976.416
     30725.700 9     24617.11948  21089967.477    21089968.2384   21089972.5064
      -245.838        -191.562
 94  3 17  8 46 39.9990000  0  8  2 19 31 27 17 28 26 16            -0.000214619
  -2635610.639 9  -2031151.13748  22384074.080    22384074.3044   22384079.2964
      4071.460        3172.566
   1654711.566 9   1279301.24147  22528924.066    22528925.2564   22528930.2264
     -1614.319       -1257.911
  -2154693.834 9  -1660071.62046  24074583.770    24074584.4584   24074589.6774
      2375.072        1850.705
    -57050.903 9    -43580.53549  20528807.453    20528808.2274   20528811.9474
      -120.117         -93.598
  -1462473.409 9  -1128026.42046  23419496.226    23419496.8894   23419501.5804
      1198.388         933.809
   -766820.248 9   -590343.40546  24532077.170    24532078.3154   24532082.2764
       664.823         518.044
  -3328182.737 9  -2565506.17148  21910485.892    21910486.7684   21910490.2084
      3817.157        2974.408
     35729.048 9     28515.81448  21090919.625    21090920.3574   21090924.6154
      -254.967        -198.675
 94  3 17  8 46 59.9990000  0  8  2 19 31 27 17 28 26 16            -0.000232109
  -2716990.405 9  -2094563.93248  22368587.797    22368588.2534   22368593.2274
      4066.667        3168.831
   1687019.048 9   1304475.86747  22535071.980    22535073.2284   22535078.1714
     -1616.255       -1259.419
  -2202101.896 9  -1697012.96146  24065562.317    24065563.0224   24065568.2094
      2365.710        1843.410
    -54574.639 9    -41650.99748  20529278.694    20529279.4424   20529283.1484
      -127.439         -99.303
  -1486331.823 9  -1146617.40446  23414956.014    23414956.7754   23414961.4194
      1187.534         925.351
   -780015.081 9   -600625.04946  24529566.252    24529567.4484   24529571.4364
       654.896         510.309
  -3404498.541 9  -2624973.03248  21895963.136    21895964.3664   21895967.8314
      3814.509        2972.345
     40922.048 9     32562.28948  21091907.705    21091908.5584   21091912.8244
      -264.159        -205.838
 94  3 17  8 47 19.9990000  0  8  2 19 31 27 17 28 26 16            -0.000249638
  -2798274.360 9  -2157902.07648  22353119.713    22353120.4504   22353125.3974
      4061.565        3164.856
   1719362.883 9   1329678.81647  22541226.852    22541228.0834   22541232.9824
     -1618.270       -1260.990
  -2249321.693 9  -1733807.57346  24056576.702    24056577.4214   24056582.6144
      2355.985        1835.832
    -51951.974 9    -39607.38548  20529777.623    20529778.4774   20529782.2084
      -134.970        -105.171
  -1509969.887 9  -1165036.67246  23410457.929    23410458.6304   23410463.2154
      1175.994         916.359
   -793015.123 9   -610754.93946  24527092.483    24527093.5614   24527097.6214
       645.075         502.656
  -3480762.502 9  -2684399.49848  21881450.727    21881451.8024   21881455.2774
      3811.691        2970.149
     46294.813 9     36748.84048  21092930.235    21092930.9664   21092935.2704
      -273.462        -213.087
 94  3 17  8 47 39.9990000  0  8  2 19 31 27 17 28 26 16            -0.000267208
  -2879467.886 9  -2221169.75148  22337669.220    22337669.8374   22337674.7594
      4057.766        3161.896
   1751736.236 9   1354904.76847  22547387.410    22547388.5784   22547393.4364
     -1619.058       -1261.604
  -2296351.283 9  -1770453.98246  24047627.073    24047627.8814   24047633.1824
      2347.035        1828.858
    -49190.910 9    -37455.92948  20530302.916    20530303.8594   20530307.6164
      -141.204        -110.029
  -1533384.965 9  -1183282.18946  23406002.092    23406002.8044   23406007.4924
      1165.470         908.158
   -805832.801 9   -620742.71646  24524653.364    24524654.4274   24524658.5774
       636.693         496.124
  -3556979.658 9  -2743789.48948  21866947.217    21866948.1354   21866951.6184
      3810.030        2968.854
     51849.286 9     41076.98448  21093987.259    21093987.9824   21093992.2834
      -281.996        -219.737
 94  3 17  8 47 59.9990000  0  8  2 19 31 27 17 28 26 16            -0.000284820
  -2960571.842 9  -2284367.63148  22322235.943    22322236.2824   22322241.1794
      4051.978        3157.385
   1784138.725 9   1380153.42647  22553553.380    22553554.5704   22553559.4094
     -1621.947       -1263.855
  -2343191.955 9  -1806953.19746  24038713.603    24038714.3714   24038719.7234
      2336.282        1820.479
    -46291.156 9    -35196.40248  20530854.738    20530855.6854   20530859.4414
      -149.506        -116.498
  -1556577.621 9  -1201354.39246  23401588.771    23401589.3544   23401594.0784
      1153.093         898.514
   -818475.047 9   -630593.81446  24522247.589    24522248.6324   24522252.7084
       626.727         488.359
  -3633150.374 9  -2803143.29248  21852452.415    21852453.2604   21852456.7794
      3806.196        2965.867
     57583.929 9     45545.52048  21095078.582    21095079.2734   21095083.5714
      -292.223        -227.706
 94  3 17  8 48 19.9990000  0  8  2 19 31 27 17 28 26 16            -0.000302472
  -3041576.706 9  -2347488.29948  22306821.419    22306821.5944   22306826.4824
      4048.872        3154.965
   1816583.227 9   1405434.81147  22559727.528    22559728.5734   22559733.4424
     -1622.135       -1264.001
  -2389834.953 9  -1843298.38146  24029837.808    24029838.5434   24029843.8324
      2328.544        1814.450
    -43240.079 9    -32818.96348  20531435.386    20531436.3054   20531440.0624
      -155.256        -120.979
  -1579536.441 9  -1219244.40146  23397219.693    23397220.4384   23397225.1764
      1143.190         890.797
   -830932.473 9   -640300.89546  24519876.825    24519877.9534   24519881.9344
       619.319         482.586
  -3709256.206 9  -2862446.54148  21837969.808    21837970.7894   21837974.2964
      3804.663        2964.672
     63507.240 9     50161.06848  21096205.894    21096206.4414   21096210.7444
      -299.745        -233.568
 94  3 17  8 48 39.9990000  0  8  2 19 31 27 17 28 26 16            -0.000320176
  -3122497.899 9  -2410543.76648  22291422.721    22291422.8264   22291427.6964
      4043.270        3150.600
   1849050.660 9   1430734.06947  22565905.878    22565906.9654   22565911.8244
     -1624.561       -1265.892
  -2436302.850 9  -1879507.12946  24020995.281    24020996.0804   24021001.2994
      2318.401        1806.546
    -40053.540 9    -30335.96648  20532041.772    20532042.7074   20532046.4744
      -163.284        -127.234
  -1602278.769 9  -1236965.70246  23392892.017    23392892.8074   23392897.5024
      1131.218         881.469
   -843218.221 9   -649874.22146  24517539.060    24517540.0014   24517543.9734
       609.313         474.789
  -3785308.286 9  -2921707.90548  21823497.346    21823498.5514   21823502.0454
      3800.658        2961.552
     69600.454 9     54909.00548  21097365.333    21097365.9474   21097370.2574
      -309.468        -241.144
 94  3 17  8 48 59.9990000  0  8  2 19 31 27 17 28 26 16            -0.000337926
  -3203324.711 9  -2473525.69348  22276041.739    22276041.9844   22276046.8604
      4039.308        3147.513
   1881544.721 9   1456054.08247  22572089.139    22572090.4364   22572095.2614
     -1624.953       -1266.197
  -2482590.068 9  -1915575.07646  24012187.173    24012187.9174   24012193.0954
      2310.145        1800.113
    -36729.009 9    -27745.44648  20532674.419    20532675.3504   20532679.1494
      -169.331        -131.946
  -1624806.247 9  -1254519.58346  23388605.267    23388606.0134   23388610.7374
      1121.386         873.807
   -855324.053 9   -659307.33846  24515235.494    24515236.2634   24515240.2494
       601.113         468.400
  -3861302.460 9  -2980924.14648  21809036.200    21809037.3664   21809040.8444
      3798.651        2959.988
     75868.142 9     59792.90048  21098558.109    21098558.6734   21098562.9684
      -317.444        -247.359
 94  3 17  8 49 19.9990000  0  8  2 19 31 27 17 28 26 16            -0.000355723
  -3284055.808 9  -2536433.03448  22260679.044    22260679.3714   22260684.2424
      4033.618        3143.079
   1914061.116 9   1481391.49047  22578276.961    22578278.1744   22578282.9894
     -1626.818       -1267.650
  -2528700.760 9  -1951505.48746  24003412.642    24003413.3864   24003418.4744
      2300.807        1792.837
    -33270.457 9    -25050.49048  20533332.697    20533333.5384   20533337.3494
      -176.547        -137.569
  -1647121.461 9  -1271908.07646  23384358.913    23384359.5584   23384364.3054
      1110.093         865.008
   -867252.289 9   -668602.06646  24512965.532    24512966.4654   24512970.3174
       591.595         460.983
  -3937242.639 9  -3040098.31348  21794585.135    21794586.4634   21794589.9314
      3795.305        2957.381
     82310.804 9     64813.14148  21099784.032    21099784.7114   21099788.9444
      -326.960        -254.774
 94  3 17  8 49 39.9990000  0  8  2 19 31 27 17 28 26 16            -0.000373555
  -3364680.294 9  -2599257.30848  22245336.714    22245337.0594   22245341.8954
      4028.740        3139.278
   1946606.162 9   1506751.23047  22584470.283    22584471.3284   22584476.1404
     -1627.746       -1268.374
  -2574634.840 9  -1987298.27246  23994671.568    23994672.3184   23994677.4424
      2292.542        1786.396
    -29678.843 9    -22251.85348  20534016.229    20534017.0244   20534020.8594
      -182.700        -142.364
  -1669221.780 9  -1289129.11846  23380153.201    23380153.9504   23380158.7624
      1099.992         857.137
   -878996.670 9   -677753.52446  24510730.462    24510731.5854   24510735.3854
       582.727         454.073
  -4013127.231 9  -3099229.16648  21780144.835    21780146.1364   21780149.5804
      3793.061        2955.632
     88934.784 9     69974.66748  21101044.628    21101045.2474   21101049.4724
      -335.461        -261.398
 94  3 17  8 49 59.9990000  0  8  2 19 31 27 17 28 26 16            -0.000391420
  -3445186.583 9  -2661989.47448  22230016.925    22230017.2364   22230022.0684
      4022.122        3134.121
   1979190.175 9   1532141.33347  22590670.757    22590671.9124   22590676.7244
     -1630.402       -1270.443
  -2620386.888 9  -2022949.21746  23985965.087    23985965.9144   23985971.1024
      2282.750        1778.766
    -25942.005 9    -19340.05348  20534727.419    20534728.1684   20534732.0144
      -190.780        -148.660
  -1691104.076 9  -1306180.26546  23375989.043    23375989.8764   23375994.7004
      1088.468         848.157
   -890539.079 9   -686747.63546  24508533.913    24508535.1014   24508539.0694
       571.801         445.559
  -4088943.233 9  -3158306.57048  21765717.599    21765718.8304   21765722.2784
      3788.788        2952.302
     95745.091 9     75281.38448  21102340.657    21102341.2454   21102345.4604
      -345.318        -269.079
 94  3 17  8 50 19.9990000  0  8  2 19 31 27 17 28 26 16            -0.000409318
  -3525570.638 9  -2724626.39748  22214720.252    22214720.6694   22214725.5074
      4016.441        3129.694
   2011812.910 9   1557561.60947  22596878.729    22596879.8714   22596884.6914
     -1631.605       -1271.380
  -2665953.964 9  -2058456.03146  23977293.947    23977294.8374   23977299.9674
      2274.080        1772.010
    -22054.827 9    -16311.10448  20535467.107    20535467.9204   20535471.7524
      -197.784        -154.117
  -1712767.770 9  -1323061.07946  23371866.805    23371867.4474   23371872.2444
      1078.150         840.117
   -901874.691 9   -695580.55945  24506376.841    24506377.9334   24506381.9574
       561.982         437.908
  -4164686.728 9  -3217327.47648  21751304.063    21751305.3464   21751308.7824
      3785.828        2949.996
    102743.575 9     80734.73048  21103672.583    21103673.0564   21103677.2344
      -354.218        -276.014
 94  3 17  8 50 39.9990000  0  8  2 19 31 27 17 28 26 16            -0.000427244
  -3605818.916 9  -2787157.51848  22199449.526    22199449.9144   22199454.7874
      4008.509        3123.514
   2044480.160 9   1583016.57547  22603095.107    22603096.2584   22603101.1254
     -1635.035       -1274.053
  -2711321.635 9  -2093807.47146  23968660.944    23968661.7144   23968666.7874
      2262.614        1763.076
    -18004.713 9    -13155.19248  20536237.902    20536238.6144   20536242.4774
      -207.136        -161.405
  -1734202.096 9  -1339763.15746  23367787.996    23367788.6684   23367793.4434
      1065.336         830.132
   -912992.139 9   -704243.49446  24504261.090    24504262.3414   24504266.4594
       549.789         428.407
  -4240350.128 9  -3276285.97048  21736905.893    21736907.0984   21736910.5384
      3780.586        2945.911
    109937.230 9     86340.15648  21105041.539    21105041.9674   21105046.1604
      -365.027        -284.437
 94  3 17  8 50 59.9990000  0  8  2 19 31 27 17 28 26 16            -0.000445191
  -3685924.954 9  -2849577.80548  22184205.681    22184206.2154   22184211.0994
      4001.570        3118.106
   2077200.533 9   1608512.92447  22609321.517    22609322.7424   22609327.6894
     -1637.639       -1276.082
  -2756473.296 9  -2128990.59246  23960069.017    23960069.6514   23960074.7304
      2251.862        1754.698
    -13784.358 9     -9866.62648  20537040.950    20537041.7384   20537045.6164
      -215.583        -167.987
  -1755398.490 9  -1356279.82646  23363754.527    23363755.1914   23363759.9284
      1053.610         820.995
   -923881.754 9   -712728.96745  24502188.816    24502190.0634   24502194.4124
       538.671         419.744
  -4315927.803 9  -3335177.66748  21722524.244    21722525.1344   21722528.5694
      3776.574        2942.785
    117328.889 9     92099.87048  21106448.059    21106448.5524   21106452.7604
      -374.752        -292.014
 94  3 17  8 51 19.9990000  0  8  2 19 31 27 17 28 26 16            -0.000463166
  -3765898.505 9  -2911894.85248  22168987.094    22168987.7234   22168992.6264
      3995.706        3113.537
   2109974.014 9   1634050.65947  22615558.247    22615559.3614   22615564.3584
     -1639.916       -1277.857
  -2801408.240 9  -2164004.86346  23951518.072    23951518.7704   23951523.7304
      2241.611        1746.710
     -9393.327 9     -6445.06648  20537876.403    20537877.3254   20537881.2324
      -223.652        -174.274
  -1776354.273 9  -1372609.01246  23359766.737    23359767.4434   23359772.1314
      1041.972         811.926
   -934551.459 9   -721043.05745  24500158.572    24500159.6324   24500164.0484
       528.158         411.552
  -4391422.870 9  -3394004.99448  21708157.977    21708158.8734   21708162.3074
      3772.763        2939.815
    124913.143 9     98009.65948  21107891.254    21107891.8214   21107896.0154
      -383.744        -299.021
 94  3 17  8 51 39.9990000  0  8  2 19 31 27 17 28 26 16            -0.000481188
  -3845768.765 9  -2974131.41648  22153788.265    22153788.8834   22153793.8424
      3991.145        3109.983
   2142783.674 9   1659616.58747  22621801.974    22621802.9074   22621807.9454
     -1641.351       -1278.975
  -2846148.538 9  -2198867.45046  23943004.036    23943004.9534   23943009.9524
      2232.143        1739.332
     -4852.742 9     -2906.96848  20538740.390    20538741.3614   20538745.2954
      -230.704        -179.769
  -1797092.384 9  -1388768.59046  23355820.269    23355821.1174   23355825.8314
      1031.607         803.850
   -945022.162 9   -729202.06845  24498165.930    24498167.1184   24498171.6414
       518.672         404.160
  -4466851.997 9  -3452780.93948  21693804.104    21693805.2064   21693808.6414
      3769.835        2937.534
    132664.389 9    104049.57148  21109366.220    21109366.8814   21109371.0764
      -391.626        -305.163
 94  3 17  8 51 59.9990000  0  8  2 19 31 27 17 28 26 16            -0.000499259
  -3925536.720 9  -3036288.26048  22138609.065    22138609.5104   22138614.5254
      3986.135        3106.079
   2175638.913 9   1685218.02947  22628054.174    22628055.0844   22628060.2064
     -1643.688       -1280.796
  -2890683.108 9  -2233569.74246  23934529.303    23934530.3224   23934535.2784
      2221.672        1731.173
      -155.547 9       753.16248  20539634.400    20539635.2394   20539639.1854
      -238.541        -185.876
  -1817606.761 9  -1404753.81846  23351916.213    23351917.3664   23351922.1274
      1020.257         795.005
   -955290.353 9   -737203.30345  24496211.847    24496213.0854   24496217.6964
       508.691         396.382
  -4542202.659 9  -3511495.74648  21679465.231    21679466.4894   21679469.9094
      3765.691        2934.305
    140588.296 9    110224.02348  21110874.230    21110874.7584   21110879.0094
      -400.366        -311.974
 94  3 17  8 52 19.9990000  0  8  2 19 31 27 17 28 26 16            -0.000517381
  -4005213.688 9  -3098374.20548  22123446.948    22123447.4544   22123452.5134
      3981.220        3102.249
   2208528.050 9   1710845.88647  22634312.571    22634313.7084   22634318.8454
     -1645.563       -1282.257
  -2935014.709 9  -2268113.87946  23926093.282    23926094.4044   23926099.1324
      2211.169        1722.989
      4687.350 9      4526.82848  20540555.958    20540556.8284   20540560.7844
      -245.985        -191.677
  -1837899.302 9  -1420566.20046  23348054.519    23348055.8574   23348060.5634
      1008.622         785.939
   -965370.546 9   -745058.02445  24494293.632    24494294.8274   24494299.5944
       498.938         388.783
  -4617482.071 9  -3570155.03248  21665140.318    21665141.2884   21665144.7004
      3761.940        2931.382
    148681.891 9    116530.69748  21112414.721    21112414.9264   21112419.2124
      -409.327        -318.956
 94  3 17  8 52 39.9990000  0  8  2 19 31 27 17 28 26 16            -0.000535550
  -4084803.559 9  -3160392.28148  22108301.377    22108301.9644   22108307.0634
      3977.331        3099.219
   2241441.238 9   1736492.47847  22640575.579    22640576.8994   22640582.1254
     -1646.303       -1282.833
  -2979148.945 9  -2302504.23146  23917694.939    23917695.9414   23917700.6124
      2201.747        1715.647
      9660.726 9      8402.16448  20541502.350    20541503.2274   20541507.1814
      -251.797        -196.205
  -1857972.464 9  -1436207.64746  23344234.807    23344236.1074   23344240.7984
       998.277         777.878
   -975267.992 9   -752770.36945  24492410.464    24492411.3824   24492416.1774
       490.363         382.101
  -4692698.449 9  -3628765.20048  21650826.981    21650828.0614   21650831.4964
      3759.281        2929.310
    156938.576 9    122964.45748  21113985.754    21113986.1364   21113990.4564
      -416.816        -324.792
 94  3 17  8 52 59.9990000  0  8  2 19 31 27 17 28 26 16            -0.000553761
  -4164308.988 9  -3222344.55848  22093172.108    22093172.5374   22093177.6594
      3972.424        3095.395
   2274380.210 9   1762159.16347  22646843.715    22646845.0004   22646850.2514
     -1648.293       -1284.384
  -3023082.728 9  -2336738.37646  23909334.496    23909335.5814   23909340.2084
      2191.121        1707.367
     14757.361 9     12373.54748  20542472.163    20542473.0784   20542477.0364
      -258.613        -201.517
  -1877830.519 9  -1451681.47846  23340456.067    23340457.2794   23340461.8934
       986.923         769.031
   -984983.721 9   -760341.07745  24490561.709    24490562.6484   24490567.4524
       480.642         374.526
  -4767854.806 9  -3687328.59548  21636524.922    21636526.2414   21636529.6884
      3755.638        2926.471
    165355.966 9    129523.44348  21115587.562    21115587.9414   21115592.2754
      -425.723        -331.732
 94  3 17  8 53 19.9990000  0  8  2 19 31 27 17 28 26 16            -0.000572013
  -4243720.364 9  -3284223.55048  22078060.545    22078061.0354   22078066.1654
      3968.278        3092.165
   2307354.773 9   1787853.59247  22653118.525    22653119.8844   22653125.1194
     -1649.588       -1285.393
  -3066813.257 9  -2370814.14246  23901012.970    23901014.0514   23901018.5764
      2181.465        1699.843
     19985.480 9     16447.38248  20543467.070    20543467.9674   20543471.9474
      -264.574        -206.162
  -1897467.147 9  -1466982.76646  23336719.478    23336720.5444   23336725.1424
       976.381         760.816
   -994512.743 8   -767766.29445  24488748.049    24488749.2454   24488754.2574
       471.762         367.607
  -4842941.514 9  -3745837.71748  21622236.415    21622237.6694   21622241.1834
      3752.542        2924.059
    173949.220 9    136219.46548  21117222.804    21117223.2054   21117227.5604
      -434.111        -338.268
 94  3 17  8 53 39.9990000  0  7  2 19 31 27 17 26 16               -0.000590361
  -4323039.464 9  -3346030.64148  22062966.459    22062967.0944   22062972.2464
      3962.648        3087.778
   2340356.502 9   1813569.18347  22659398.551    22659399.9594   22659405.2174
     -1651.512       -1286.892
  -3110346.025 9  -2404735.82646  23892729.102    23892730.1184   23892734.5904
      2170.908        1691.617
     25335.489 9     20616.20048  20544485.169    20544486.0504   20544490.0294
      -271.388        -211.471
  -1916888.752 9  -1482116.48446  23333023.647    23333024.7174   23333029.2954
       964.840         751.823
  -4917961.737 9  -3804295.03548  21607960.616    21607961.7434   21607965.3334
      3748.659        2921.033
    182716.828 9    143051.34648  21118891.349    21118891.6724   21118896.0244
      -443.620        -345.678
 94  3 17  8 53 59.9990000  0  7  2 19 31 27 17 26 16               -0.000608666
  -4402234.304 9  -3407740.90848  22047896.176    22047896.8334   22047901.9674
      3956.895        3083.295
   2373403.248 9   1839319.85047  22665687.282    22665688.5824   22665693.8374
     -1653.066       -1288.103
  -3153656.149 9  -2438484.01646  23884487.536    23884488.5094   23884492.9504
      2160.236        1683.301
     30830.389 9     24897.92148  20545530.853    20545531.7254   20545535.7024
      -277.984        -216.611
  -1936067.535 9  -1497060.99146  23329374.103    23329375.1364   23329379.6574
       953.137         742.704
  -4992896.215 9  -3862685.53848  21593701.289    21593702.1854   21593705.8044
      3744.971        2918.159
    191683.468 9    150038.31548  21120597.619    21120597.9844   21120602.3284
      -452.859        -352.877
 94  3 17  8 54 19.9990000  0  7  2 19 31 27 17 26 16               -0.000626987
  -4481302.753 9  -3469352.68348  22032849.853    22032850.6194   22032855.7214
      3949.981        3077.907
   2406485.667 9   1865098.31347  22671982.821    22671983.9854   22671989.2614
     -1655.094       -1289.684
  -3196748.246 9  -2472062.30646  23876287.418    23876288.4084   23876292.7884
      2149.146        1674.659
     36463.779 9     29287.55248  20546602.900    20546603.7434   20546607.7184
      -285.289        -222.303
  -1955005.611 9  -1511817.92946  23325770.384    23325771.3684   23325775.8514
       940.779         733.075
  -5067754.656 9  -3921016.79648  21579456.089    21579457.1084   21579460.7474
      3741.027        2915.086
    200838.797 9    157172.31348  21122339.774    21122340.2264   21122344.5674
      -462.567        -360.442
 94  3 17  8 54 39.9990000  0  7  2 19 31 27 17 26 16               -0.000645320
  -4560235.603 9  -3530858.79548  22017829.482    22017830.2264   22017835.2904
      3943.484        3072.845
   2439609.209 9   1890908.82847  22678286.091    22678287.2384   22678292.5024
     -1657.143       -1291.280
  -3239621.172 9  -2505469.82546  23868129.022    23868129.9594   23868134.2644
      2138.420        1666.301
     42239.956 9     33788.44848  20547702.149    20547702.9634   20547706.9204
      -292.256        -227.732
  -1973705.050 9  -1526388.92746  23322212.173    23322213.0404   23322217.4514
       929.351         724.170
  -5142536.505 9  -3979288.37148  21565225.395    21565226.6124   21565230.2544
      3737.360        2912.229
    210181.139 9    164452.04448  21124117.591    21124118.0614   21124122.3704
      -471.490        -367.395
 94  3 17  8 54 59.9990000  0  7  2 19 31 27 17 26 16               -0.000663666
  -4639021.502 9  -3592250.40548  22002837.272    22002837.7984   22002842.8234
      3935.705        3066.783
   2472794.229 9   1916767.24147  22684600.965    22684602.1494   22684607.4334
     -1660.804       -1294.133
  -3282264.605 9  -2538698.50746  23860014.195    23860015.1684   23860019.4774
      2126.700        1657.169
     48178.311 9     38415.71948  20548832.214    20548833.0364   20548836.9814
      -301.053        -234.587
  -1992160.020 9  -1540769.42046  23318700.396    23318701.1604   23318705.6044
       916.693         714.306
  -5217227.923 9  -4037489.47948  21551011.966    21551013.3084   21551016.9774
      3732.340        2908.317
    219720.079 9    171884.96448  21125932.800    21125933.2984   21125937.5794
      -481.922        -375.524
 94  3 17  8 55 19.9990000  0  7  2 19 31 27 17 26 16               -0.000682039
  -4717673.804 9  -3653537.91348  21987870.190    21987870.7804   21987875.7654
      3928.880        3061.465
   2506028.888 9   1942664.33647  22690925.183    22690926.5214   22690931.8274
     -1663.416       -1296.168
  -3324696.887 9  -2571762.64946  23851939.573    23851940.5754   23851945.0024
      2115.962        1648.802
     54272.187 9     43164.17248  20549991.758    20549992.6974   20549996.6394
      -308.970        -240.756
  -2010379.641 9  -1554966.52646  23315233.359    23315234.0834   23315238.4994
       904.534         704.832
  -5291838.967 9  -4095627.96448  21536813.789    21536815.3044   21536818.9374
      3728.151        2905.053
    229448.381 9    179465.43348  21127784.019    21127784.5244   21127788.8294
      -491.586        -383.054
 94  3 17  8 55 39.9990000  0  7  2 19 31 27 17 26 16               -0.000700433
  -4796188.799 9  -3714718.43048  21972929.300    21972929.8894   21972934.8704
      3922.239        3056.290
   2539316.024 9   1968602.32047  22697259.554    22697260.8764   22697266.2514
     -1665.660       -1297.917
  -3366911.061 9  -2604656.84846  23843906.462    23843907.4134   23843911.9744
      2105.047        1640.296
     60524.367 9     48035.97748  20551181.538    20551182.4704   20551186.4204
      -316.619        -246.716
  -2028354.671 9  -1568973.04646  23311812.733    23311813.5674   23311817.9114
       892.604         695.536
  -5366366.168 9  -4153701.11748  21522631.703    21522633.2844   21522636.8654
      3724.292        2902.046
    239367.653 9    187194.71048  21129671.385    21129672.1074   21129676.4294
      -500.668        -390.131
 94  3 17  8 55 59.9990000  0  7  2 19 31 27 17 26 16               -0.000718847
  -4874564.037 9  -3775790.04948  21958014.952    21958015.5904   21958020.5734
      3915.979        3051.412
   2572655.288 9   1994580.92847  22703604.041    22703605.1614   22703610.5404
     -1667.648       -1299.466
  -3408902.820 9  -2637377.71746  23835915.793    23835916.6494   23835921.2894
      2094.607        1632.161
     66937.957 9     53033.55848  20552401.892    20552402.9454   20552406.9124
      -324.050        -252.506
  -2046084.789 9  -1582788.73246  23308438.798    23308439.6274   23308443.9894
       881.179         686.633
  -5440809.657 9  -4211709.03648  21508465.618    21508467.1914   21508470.7644
      3720.663        2899.218
    249474.541 9    195070.18248  21131594.602    21131595.4044   21131599.7334
      -509.377        -396.917
 94  3 17  8 56 19.9990000  0  7  2 19 31 27 17 26 16               -0.000737288
  -4952803.628 9  -3836755.96748  21943126.287    21943127.0824   21943132.0634
      3908.192        3045.344
   2606048.936 9   2020601.91447  22709958.666    22709959.7564   22709965.2174
     -1671.532       -1302.492
  -3450670.770 9  -2669924.20746  23827967.711    23827968.5174   23827973.1324
      2082.387        1622.639
     73511.858 9     58156.05748  20553652.968    20553653.9494   20553657.9344
      -333.289        -259.706
  -2063579.488 9  -1596420.97246  23305109.497    23305110.4304   23305114.8944
       868.552         676.794
  -5515167.708 9  -4269650.38348  21494315.908    21494317.3864   21494320.9544
      3715.353        2895.080
    259767.640 9    203090.75248  21133553.383    21133554.1394   21133558.4574
      -519.816        -405.051
 94  3 17  8 56 39.9990000  0  7  2 19 31 27 17 26 16               -0.000755758
  -5030905.848 9  -3897614.83948  21928263.938    21928264.7194   21928269.6844
      3902.285        3040.742
   2639504.079 9   2046670.81947  22716324.975    22716326.0874   22716331.5394
     -1673.729       -1304.204
  -3492211.080 9  -2702293.29546  23820062.993    23820063.7634   23820068.3244
      2071.864        1614.439
     80255.733 9     63411.00248  20554936.372    20554937.3014   20554941.2974
      -340.879        -265.620
  -2080839.083 9  -1609870.01546  23301824.933    23301826.0094   23301830.5134
       857.604         668.263
  -5589432.249 9  -4327518.86348  21480184.210    21480185.3864   21480188.9044
      3711.252        2891.885
    270256.443 9    211263.81548  21135549.385    21135550.0784   21135554.4584
      -528.846        -412.088
 94  3 17  8 56 59.9990000  0  7  2 19 31 27 17 26 16               -0.000774259
  -5108874.144 9  -3958369.35748  21913427.122    21913427.8314   21913432.7874
      3895.421        3035.393
   2673018.193 9   2072785.68247  22722702.663    22722703.6284   22722709.1444
     -1676.736       -1306.548
  -3533523.433 9  -2734484.75746  23812201.448    23812202.2234   23812206.8164
      2060.265        1605.401
     87168.307 9     68797.40448  20556251.847    20556252.7794   20556256.7594
      -349.522        -272.355
  -2097863.786 9  -1623136.02846  23298585.228    23298586.2654   23298590.8454
       845.597         658.907
  -5663596.762 9  -4385309.40248  21466071.376    21466072.3744   21466075.8644
      3706.025        2887.812
    280940.949 9    219589.37548  21137582.606    21137583.2644   21137587.6714
      -538.798        -419.843
 94  3 17  8 57 19.9990000  0  7  2 19 31 27 17 26 16               -0.000792791
  -5186704.998 9  -4019016.77148  21898616.443    21898617.1224   21898622.0654
      3887.650        3029.338
   2706587.941 9   2098943.89147  22729090.624    22729091.7254   22729097.3134
     -1680.201       -1309.248
  -3574603.928 9  -2766495.54646  23804383.862    23804384.8104   23804389.4334
      2047.633        1595.558
     94251.475 9     74316.73248  20557599.817    20557600.7074   20557604.6834
      -358.755        -279.549
  -2114648.141 9  -1636214.74946  23295391.297    23295392.3444   23295396.9104
       832.828         648.957
  -5737655.280 9  -4443017.34548  21451978.534    21451979.5284   21451983.0134
      3699.807        2882.966
    291825.291 9    228070.65248  21139653.839    21139654.4944   21139658.9144
      -549.558        -428.227
 94  3 17  8 57 39.9990000  0  7  2 19 31 27 17 26 16               -0.000811352
  -5264399.004 9  -4079557.55348  21883831.816    21883832.4844   21883837.3534
      3880.961        3024.125
   2740205.870 9   2125139.64947  22735487.918    22735488.9934   22735494.6514
     -1682.296       -1310.880
  -3615449.203 9  -2798323.03046  23796611.416    23796612.2874   23796617.0034
      2036.047        1586.530
    101498.597 9     79963.81848  20558978.900    20558979.8264   20558983.7754
      -366.710        -285.748
  -2131198.558 9  -1649111.18646  23292242.073    23292242.9334   23292247.4774
       821.587         640.198
  -5811607.511 9  -4500642.46948  21437905.982    21437906.8534   21437910.3664
      3694.688        2878.978
    302901.910 9    236701.74948  21141761.855    21141762.3394   21141766.7344
      -558.838        -435.458
 94  3 17  8 57 59.9990000  0  7  2 19 31 27 17 26 16               -0.000829946
  -5341949.466 9  -4139986.48848  21869074.306    21869075.1124   21869079.9464
      3874.316        3018.948
   2773871.192 9   2151372.32547  22741894.079    22741895.3124   22741901.0444
     -1684.146       -1312.322
  -3656061.172 9  -2829968.73046  23788883.400    23788884.1754   23788888.8074
      2025.212        1578.087
    108910.632 9     85739.40948  20560389.369    20560390.3364   20560394.2504
      -374.341        -291.694
  -2147521.107 9  -1661830.06746  23289136.173    23289136.8704   23289141.4384
       810.875         631.851
  -5885448.600 9  -4558180.98448  21423854.481    21423855.3054   21423858.8484
      3689.587        2875.003
    314170.711 9    245482.60148  21143906.241    21143906.7444   21143911.1614
      -567.953        -442.561
 94  3 17  8 58 19.9990000  0  7  2 19 31 27 17 26 16               -0.000848575
  -5419352.725 9  -4200300.71748  21854344.848    21854345.7804   21854350.5754
      3866.555        3012.900
   2807591.453 9   2177647.82047  22748310.644    22748312.1444   22748317.8184
     -1687.307       -1314.785
  -3696441.319 9  -2861433.79646  23781199.246    23781200.0804   23781204.6544
      2013.408        1568.889
    116491.201 9     91646.32748  20561831.925    20561832.8914   20561836.7904
      -383.246        -298.633
  -2163614.870 9  -1674370.66546  23286073.509    23286074.3484   23286078.8524
       798.989         622.589
  -5959172.287 9  -4615628.01848  21409825.200    21409826.1284   21409829.7064
      3683.323        2870.122
    325636.074 9    254416.61748  21146088.012    21146088.5554   21146092.9924
      -578.092        -450.461
 94  3 17  8 58 39.9990000  0  7  2 19 31 27 17 26 16               -0.000867243
  -5496614.910 9  -4260505.01648  21839642.472    21839643.2734   21839648.0754
      3859.237        3007.198
   2841359.914 9   2203960.87347  22754736.643    22754738.0994   22754743.7944
     -1689.838       -1316.757
  -3736599.876 9  -2892726.17246  23773557.067    23773558.0854   23773562.7234
      2002.236        1560.184
    124236.068 9     97681.26548  20563305.806    20563306.6864   20563310.5934
      -391.494        -305.060
  -2179482.160 9  -1686734.80646  23283053.987    23283054.9214   23283059.3944
       787.392         613.552
  -6032786.906 9  -4672990.06048  21395816.742    21395817.7334   21395821.3284
      3677.761        2865.788
    337289.508 9    263497.18148  21148305.516    21148306.1884   21148310.6164
      -587.522        -457.809
 94  3 17  8 58 59.9990000  0  7  2 19 31 27 17 26 16               -0.000885940
  -5573726.049 9  -4320591.61748  21824968.876    21824969.4944   21824974.2654
      3851.553        3001.210
   2875179.098 9   2230313.44847  22761172.570    22761173.7654   22761179.4424
     -1692.396       -1318.750
  -3776534.101 9  -2923843.74246  23765957.829    23765958.9174   23765963.4304
      1990.856        1551.316
    132143.457 9    103842.84248  20564810.526    20564811.4214   20564815.3334
      -399.487        -311.288
  -2195115.893 9  -1698916.94046  23280078.826    23280080.0094   23280084.4014
       775.714         604.452
  -6106287.537 9  -4730263.28248  21381829.790    21381831.0004   21381834.6684
      3672.102        2861.378
    349131.508 9    272724.67048  21150559.099    21150559.6984   21150564.1304
      -596.948        -465.154
 94  3 17  8 59 19.9990000  0  7  2 19 31 27 17 26 16               -0.000904660
  -5650679.099 9  -4380555.02748  21810325.175    21810325.7964   21810330.5474
      3843.599        2995.012
   2909050.996 9   2256707.09547  22767618.251    22767619.4314   22767625.0844
     -1695.030       -1320.803
  -3816238.870 9  -2954782.50846  23758402.383    23758403.3974   23758407.8944
      1979.373        1542.369
    140212.750 9    110130.58148  20566346.066    20566346.9684   20566350.9034
      -407.510        -317.540
  -2210513.169 9  -1710914.82746  23277148.886    23277150.0644   23277154.4134
       763.839         595.199
  -6179675.476 9  -4787448.69048  21367864.314    21367865.7554   21367869.4524
      3666.528        2857.035
    361163.997 9    282100.59548  21152848.946    21152849.4544   21152853.8944
      -606.442        -472.552
 94  3 17  8 59 39.9990000  0  7  2 19 31 27 17 26 16               -0.000923400
  -5727471.775 9  -4440393.47548  21795711.949    21795712.6364   21795717.3574
      3835.019        2988.326
   2942979.214 9   2283144.63547  22774074.596    22774075.8124   22774081.4434
     -1698.475       -1323.487
  -3855711.694 9  -2985540.55846  23750890.974    23750891.9684   23750896.5094
      1967.289        1532.952
    148441.203 9    116542.33848  20567911.927    20567912.8044   20567916.7624
      -415.988        -324.146
  -2225670.208 9  -1722725.51546  23274264.513    23274265.7544   23274270.1474
       751.205         585.355
  -6252950.644 9  -4844546.22848  21353920.619    21353921.9614   21353925.6904
      3660.357        2852.226
    373388.970 9    291626.50348  21155175.346    21155175.8214   21155180.2864
      -616.689        -480.537
 94  3 17  8 59 59.9990000  0  7  2 19 31 27 17 26 16               -0.000942140
  -5804084.247 9  -4500091.50448  21781133.270    21781133.7744   21781138.4634
      3826.618        2981.780
   2976987.089 9   2309644.24847  22780546.238    22780547.3434   22780552.9404
     -1701.958       -1326.201
  -3894937.941 9  -3016106.44646  23743426.410    23743427.3244   23743431.8834
      1955.656        1523.888
    156845.633 9    123091.22048  20569511.173    20569512.1304   20569516.1054
      -424.074        -330.447
  -2240564.407 9  -1734331.39546  23271430.081    23271431.5014   23271435.9244
       738.564         575.504
  -6326097.541 9  -4901543.81348  21340001.346    21340002.5744   21340006.2624
      3654.694        2847.814
    385828.720 9    301319.77148  21157542.388    21157543.0504   21157547.5444
      -626.870        -488.470
 94  3 17  9  0 19.9990000  0  7  2 19 31 27 17 26 16               -0.000960894
  -5880547.186 9  -4559673.01248  21766582.651    21766583.3474   21766588.0724
      3820.035        2976.651
   3011048.653 9   2336185.68647  22787028.051    22787029.0584   22787034.6224
     -1703.781       -1327.621
  -3933940.192 9  -3046497.81646  23736004.524    23736005.3744   23736009.9044
      1944.852        1515.469
    165395.522 9    129753.44748  20571138.222    20571139.1454   20571143.1214
      -430.571        -335.510
  -2255221.042 9  -1745752.16646  23268641.084    23268642.4334   23268646.8364
       727.418         566.819
  -6399146.411 9  -4958465.01448  21326100.819    21326101.8894   21326105.5434
      3650.560        2844.592
    398455.021 9    311158.40048  21159945.101    21159945.7614   21159950.3024
      -635.402        -495.118
 94  3 17  9  0 39.9990000  0  7  2 19 31 27 17 26 16               -0.000979662
  -5956861.643 9  -4619138.81748  21752060.543    21752061.1974   21752065.8914
      3811.933        2970.337
   3045157.817 9   2362764.21747  22793518.687    22793519.8674   22793525.4254
     -1706.603       -1329.821
  -3972714.391 9  -3076711.46446  23728626.017    23728626.9444   23728631.3794
      1933.088        1506.302
    174089.702 9    136528.11048  20572792.723    20572793.6094   20572797.5904
      -438.272        -341.511
  -2269640.549 9  -1756988.15046  23265897.246    23265898.5064   23265902.8644
       714.989         557.134
  -6472098.486 9  -5015310.79048  21312218.609    21312219.6104   21312223.2164
      3645.195        2840.412
    411266.502 9    321141.33348  21162383.204    21162383.7334   21162388.2934
      -645.230        -502.777
 94  3 17  9  0 59.9990000  0  7  2 19 31 27 17 26 16               -0.000998437
  -6033014.986 9  -4678479.08248  21737569.176    21737569.7104   21737574.3914
      3803.116        2963.467
   3079319.465 9   2389383.64347  22800019.316    22800020.6044   22800026.1764
     -1709.847       -1332.348
  -4011251.754 9  -3106740.58446  23721292.559    23721293.6324   23721298.0064
      1920.337        1496.366
    182933.547 9    143419.39348  20574475.653    20574476.5424   20574480.5584
      -446.478        -347.905
  -2283814.313 9  -1768032.63746  23263200.202    23263201.3634   23263205.6784
       701.952         546.976
  -6544943.014 9  -5072072.76648  21298356.857    21298357.7934   21298361.3684
      3638.937        2835.535
    424273.899 9    331276.92748  21164858.421    21164858.9754   21164863.5414
      -655.871        -511.068
 94  3 17  9  1 19.9990000  0  7  2 19 31 27 17 26 16               -0.001017222
  -6109016.578 9  -4737701.09948  21723106.486    21723107.0964   21723111.7934
      3796.110        2958.008
   3113522.879 9   2416035.62047  22806528.280    22806529.3594   22806534.8894
     -1711.470       -1333.613
  -4049556.752 9  -3136588.62946  23714003.431    23714004.5074   23714008.7894
      1909.118        1487.624
    191919.525 9    150421.42648  20576185.631    20576186.4804   20576190.5434
      -453.183        -353.130
  -2297746.848 9  -1778889.15446  23260548.932    23260550.0464   23260554.4504
       690.308         537.902
  -6617686.635 9  -5128756.11348  21284514.348    21284515.1684   21284518.7124
      3634.462        2832.048
    437473.612 9    341562.38448  21167370.355    21167370.8344   21167375.3864
      -665.080        -518.244
 94  3 17  9  1 39.9980000  0  7  2 19 31 27 17 26 16               -0.001036009
  -6184852.765 9  -4796794.22848  21708675.254    21708675.9724   21708680.6824
      3788.217        2951.857
   3147780.106 9   2442729.51647  22813047.326    22813048.3264   22813053.8034
     -1714.030       -1335.608
  -4087614.423 9  -3166243.95446  23706761.458    23706762.4244   23706766.6814
      1897.164        1478.310
    201063.514 9    157546.58348  20577925.591    20577926.5214   20577930.6134
      -460.895        -359.139
  -2311423.504 9  -1789546.28446  23257946.181    23257947.4564   23257951.8974
       677.755         528.121
  -6690314.499 9  -5185349.26448  21270693.658    21270694.5624   21270698.1024
      3629.119        2827.885
    450879.970 9    352008.86048  21169921.590    21169922.0334   21169926.5794
      -675.301        -526.209
 94  3 17  9  1 59.9980000  0  7  2 19 31 27 17 26 16               -0.001054805
  -6260534.641 9  -4855767.11548  21694273.371    21694274.2024   21694278.9514
      3780.019        2945.469
   3182086.450 9   2469461.68847  22819575.421    22819576.6344   22819582.1104
     -1716.529       -1337.555
  -4125437.080 9  -3195716.15646  23699564.005    23699564.9734   23699569.2384
      1885.180        1468.971
    210361.353 9    164791.63048  20579694.929    20579695.8324   20579699.9574
      -468.808        -365.305
  -2324852.164 9  -1800010.19246  23255390.916    23255392.1224   23255396.5614
       665.282         518.402
  -6762843.262 9  -5241865.18948  21256891.732    21256892.7874   21256896.3404
      3623.799        2823.739
    464488.134 9    362612.59248  21172511.239    21172511.6664   21172516.1614
      -685.346        -534.036
 94  3 17  9  2 19.9980000  0  7  2 19 31 27 17 26 16               -0.001073610
  -6336048.206 9  -4914608.84948  21679903.688    21679904.4724   21679909.2534
      3770.905        2938.368
   3216441.270 9   2496231.63347  22826112.872    22826114.1434   22826119.6464
     -1719.367       -1339.766
  -4163014.594 9  -3224997.33246  23692413.398    23692414.2234   23692418.4714
      1872.204        1458.860
    219821.142 9    172162.86448  20581495.136    20581495.9624   20581500.1174
      -477.695        -372.230
  -2338027.942 9  -1810277.04746  23252883.605    23252884.9234   23252889.2454
       651.777         507.878
  -6835261.435 9  -5298294.94348  21243111.155    21243112.0824   21243115.6454
      3617.476        2818.812
    478296.972 9    373372.69148  21175139.028    21175139.4424   21175143.9234
      -695.993        -542.332
 94  3 17  9  2 39.9980000  0  7  2 19 31 27 17 26 16               -0.001092423
  -6411385.276 9  -4973313.05448  21665567.604    21665568.3134   21665573.1204
      3762.996        2932.205
   3250848.291 9   2523042.25447  22832660.263    22832661.6064   22832667.1074
     -1721.071       -1341.094
  -4200344.249 9  -3254085.37546  23685309.692    23685310.5614   23685314.8644
      1861.166        1450.259
    229454.054 9    179668.99948  20583328.195    20583329.0444   20583333.2344
      -485.357        -378.200
  -2350940.170 9  -1820338.54346  23250426.697    23250427.8384   23250432.0824
       639.658         498.435
  -6907558.901 9  -5354630.64048  21229353.320    21229354.3544   21229357.9124
      3612.549        2814.973
    492312.916 9    384294.17048  21177806.093    21177806.6114   21177811.0884
      -705.341        -549.616
 94  3 17  9  2 59.9980000  0  7  2 19 31 27 17 26 16               -0.001111251
  -6486555.037 9  -5031886.89048  21651263.320    21651263.9904   21651268.8044
      3754.230        2925.374
   3285300.072 9   2549887.75347  22839216.320    22839217.6184   22839223.0974
     -1723.853       -1343.262
  -4237447.031 9  -3282996.62846  23678249.373    23678250.2114   23678254.3284
      1849.220        1440.951
    239246.868 9    187299.73648  20585191.600    20585192.5684   20585196.7854
      -493.668        -384.676
  -2363600.633 9  -1830203.84646  23248017.662    23248018.6374   23248022.8984
       626.687         488.328
  -6979748.005 9  -5410881.90048  21215616.134    21215617.2184   21215620.7744
      3606.543        2810.293
    506523.300 9    395367.16248  21180510.251    21180510.7824   21180515.2524
      -715.439        -557.485
 94  3 17  9  3 19.9980000  0  7  2 19 31 27 17 26 16               -0.001130090
  -6561554.591 9  -5090328.09648  21636991.404    21636992.0704   21636996.8714
      3745.444        2918.528
   3319803.283 9   2576773.32947  22845782.083    22845783.3724   22845788.9274
     -1726.701       -1345.481
  -4274315.867 9  -3311725.59346  23671233.422    23671234.2364   23671238.4584
      1837.348        1431.700
    249199.801 9    195055.24148  20587085.591    20587086.5744   20587090.8124
      -501.922        -391.108
  -2376005.138 9  -1839869.68546  23245657.258    23245658.1464   23245662.3934
       613.651         478.170
  -7051821.900 9  -5467043.38248  21201900.926    21201901.9964   21201905.5614
      3600.566        2805.636
    520927.442 9    406591.13548  21183251.304    21183251.8414   21183256.2454
      -725.162        -565.061
 94  3 17  9  3 39.9980000  0  7  2 19 31 27 17 26 16               -0.001148941
  -6636374.185 9  -5148629.07348  21622753.709    21622754.3714   21622759.1854
      3736.472        2911.537
   3354367.965 9   2603706.80047  22852359.738    22852360.8334   22852366.4374
     -1729.770       -1347.873
  -4310942.590 9  -3340265.92446  23664263.591    23664264.4414   23664268.6924
      1825.386        1422.379
    259324.567 9    202944.64348  20589012.232    20589013.2874   20589017.5234
      -510.567        -397.844
  -2388150.271 9  -1849333.44646  23243346.175    23243347.0784   23243351.1864
       600.823         468.174
  -7123769.736 9  -5523106.63548  21188209.615    21188210.7524   21188214.3474
      3594.094        2800.593
    535527.190 9    417967.53148  21186029.581    21186030.1424   21186034.5134
      -734.804        -572.575
 94  3 17  9  3 59.9980000  0  7  2 19 31 27 17 26 16               -0.001167814
  -6711016.401 9  -5206791.83048  21608549.723    21608550.4334   21608555.2584
      3728.024        2904.954
   3388991.302 9   2630685.97547  22858948.208    22858949.4514   22858955.0704
     -1732.363       -1349.893
  -4347332.364 9  -3368621.60046  23657338.821    23657339.7224   23657343.9444
      1813.873        1413.408
    269618.680 9    210966.00648  20590971.221    20590972.2314   20590976.4404
      -518.641        -404.136
  -2400041.998 9  -1858599.73746  23241083.274    23241084.1934   23241088.2824
       588.572         458.627
  -7195587.806 9  -5579068.77248  21174543.049    21174544.2424   21174547.8334
      3587.935        2795.794
    550314.945 9    429490.42248  21188843.787    21188844.2084   21188848.5604
      -743.639        -579.459
 94  3 17  9  4 19.9980000  0  7  2 19 31 27 17 26 16               -0.001186715
  -6785488.598 9  -5264822.10948  21594377.985    21594378.8414   21594383.6684
      3719.400        2898.234
   3423671.032 9   2657709.10047  22865547.565    22865548.8114   22865554.4674
     -1735.557       -1352.382
  -4383486.350 9  -3396793.53546  23650458.949    23650459.8754   23650464.0074
      1801.665        1403.895
    280079.616 9    219117.36248  20592961.788    20592962.9234   20592967.1154
      -527.349        -410.921
  -2411686.975 9  -1867673.76246  23238867.362    23238868.2754   23238872.3324
       575.949         448.791
  -7267274.213 9  -5634928.31548  21160901.537    21160902.7994   21160906.3624
      3580.818        2790.248
    565280.246 9    441151.66248  21191691.661    21191692.0564   21191696.4014
      -752.920        -586.691
 94  3 17  9  4 39.9980000  0  7  2 19 31 27 17 26 16               -0.001205645
  -6859799.940 9  -5322727.04148  21580237.035    21580237.8504   21580242.7114
      3711.972        2892.446
   3458407.473 9   2684776.41147  22872157.895    22872158.9634   22872164.6504
     -1737.955       -1354.251
  -4419404.617 9  -3424781.79746  23643624.044    23643624.8624   23643629.0674
      1790.390        1395.109
    290705.101 9    227396.93548  20594983.735    20594984.9194   20594989.1134
      -534.937        -416.834
  -2423088.603 9  -1876558.16246  23236697.656    23236698.6554   23236702.6424
       564.575         439.929
  -7338828.517 9  -5690684.92148  21147285.227    21147286.4984   21147290.0384
      3574.825        2785.578
    580428.333 9    452955.33548  21194574.307    21194574.6644   21194579.0014
      -761.569        -593.430
 94  3 17  9  4 59.9980000  0  7  2 19 31 27 17 26 16               -0.001224617
  -6933966.258 9  -5380518.97048  21566123.603    21566124.4644   21566129.3494
      3704.455        2886.588
   3493185.055 9   2711875.78247  22878776.062    22878776.9184   22878782.6914
     -1739.997       -1355.842
  -4455099.643 9  -3452596.09646  23636831.580    23636832.3864   23636836.6154
      1778.802        1386.079
    301476.094 9    235789.89148  20597033.536    20597034.6304   20597038.7884
      -542.400        -422.649
  -2434271.162 9  -1885271.85646  23234569.815    23234570.6794   23234574.7704
       553.404         431.224
  -7410269.862 9  -5746353.50348  21133690.488    21133691.6734   21133695.2014
      3569.079        2781.101
    595739.784 9    464886.30848  21197487.905    21197488.3824   21197492.6994
      -769.867        -599.896
 94  3 17  9  5 19.9980000  0  7  2 19 31 27 17 26 16               -0.001243614
  -7007970.009 9  -5438184.21948  21552041.239    21552042.0324   21552046.8974
      3696.205        2880.160
   3528017.765 9   2739018.11347  22885404.474    22885405.4064   22885411.1674
     -1742.971       -1358.159
  -4490541.229 9  -3480212.94246  23630087.402    23630088.1174   23630092.4634
      1765.678        1375.853
    312413.040 9    244312.16348  20599114.935    20599115.9184   20599120.0404
      -551.109        -429.436
  -2445214.601 9  -1893799.23446  23232487.575    23232488.1714   23232492.3344
       541.206         421.719
  -7481580.995 9  -5801920.62148  21120120.488    21120121.6364   21120125.1334
      3562.339        2775.849
    611233.967 9    476959.67048  21200436.365    21200436.8684   21200441.1754
      -779.317        -607.260
 94  3 17  9  5 39.9980000  0  7  2 19 31 27 17 26 16               -0.001262639
  -7081812.651 9  -5495723.93548  21537989.496    21537990.2714   21537995.0944
      3688.004        2873.769
   3562905.056 9   2766202.97947  22892043.181    22892044.3014   22892050.0894
     -1745.892       -1360.435
  -4525724.893 9  -3507628.77846  23623392.153    23623392.8544   23623397.1844
      1752.500        1365.584
    323521.633 9    252968.18448  20601228.924    20601229.8644   20601233.9864
      -559.809        -436.215
  -2455917.424 9  -1902139.09546  23230450.883    23230451.4644   23230455.7164
       528.996         412.205
  -7552763.886 9  -5857387.81648  21106574.714    21106575.9924   21106579.4724
      3555.887        2770.821
    626915.101 9    489178.70548  21203420.295    21203420.9284   21203425.2184
      -788.950        -614.766
 94  3 17  9  5 59.9980000  0  7  2 19 31 27 17 26 16               -0.001281683
  -7155501.065 9  -5553143.47148  21523967.107    21523967.8484   21523972.6374
      3680.487        2867.912
   3597845.205 9   2793429.01947  22898691.945    22898693.1854   22898699.0354
     -1748.405       -1362.394
  -4560653.880 9  -3534846.18746  23616745.248    23616746.0854   23616750.5414
      1740.032        1355.869
    334791.576 9    261749.92948  20603373.492    20603374.4874   20603378.6274
      -567.457        -442.174
  -2466382.264 9  -1910293.53346  23228459.397    23228460.0684   23228464.4414
       517.221         403.029
  -7623827.991 9  -5912762.44848  21093051.420    21093052.9614   21093056.4384
      3550.290        2766.460
    642784.503 9    501544.43948  21206439.985    21206440.7714   21206445.0944
      -798.280        -622.036
 94  3 17  9  6 19.9980000  0  7  2 19 31 27 17 26 16               -0.001300734
  -7229028.178 9  -5610437.32248  21509975.235    21509976.1074   21509980.8734
      3672.262        2861.503
   3632845.716 9   2820702.09846  22905352.318    22905353.5434   22905359.4394
     -1751.479       -1364.789
  -4595316.769 9  -3561856.22846  23610148.804    23610149.8034   23610154.5134
      1726.457        1345.291
    346226.774 9    270660.44548  20605549.461    20605550.5444   20605554.6704
      -575.949        -448.791
  -2476601.354 9  -1918256.46846  23226514.780    23226515.4484   23226519.8574
       504.830         393.374
  -7694770.999 9  -5968042.72148  21079551.323    21079552.9584   21079556.4184
      3544.172        2761.692
    658853.283 9    514065.53748  21209497.782    21209498.5734   21209502.9434
      -808.662        -630.126
 94  3 17  9  6 39.9980000  0  7  2 19 31 27 17 26 16               -0.001319790
  -7302393.247 9  -5667604.90448  21496014.315    21496015.2034   21496019.9534
      3664.288        2855.289
   3667900.124 9   2848017.18646  22912022.910    22912024.2194   22912030.0534
     -1753.865       -1366.648
  -4629715.914 9  -3588660.78046  23603602.906    23603603.9504   23603608.5474
      1713.525        1335.214
    357825.943 9    279698.72948  20607756.762    20607757.7904   20607761.9494
      -583.952        -455.028
  -2486579.353 9  -1926031.54046  23224616.122    23224616.7584   23224621.1504
       492.972         384.134
  -7765597.782 9  -6023232.42948  21066073.484    21066075.0914   21066078.5624
      3538.644        2757.385
    675129.350 9    526748.15448  21212594.889    21212595.7864   21212600.2524
      -818.842        -638.059
 94  3 17  9  6 59.9980000  0  7  2 19 31 27 17 26 16               -0.001338857
  -7375599.312 9  -5724648.58648  21482083.709    21482084.5364   21482089.2864
      3656.349        2849.103
   3702996.501 9   2875364.96446  22918701.643    22918702.8204   22918708.6614
     -1755.760       -1368.125
  -4663860.838 9  -3615267.22046  23597105.588    23597106.4894   23597110.7614
      1700.999        1325.454
    369581.381 9    288858.77948  20609993.780    20609994.7964   20609998.9844
      -591.575        -460.968
  -2496324.755 9  -1933625.38646  23222761.864    23222762.3484   23222766.6984
       481.489         375.186
  -7836319.084 9  -6078339.94148  21052615.737    21052617.2764   21052620.7484
      3533.524        2753.395
    691599.778 9    539582.22548  21215728.964    21215729.9994   21215734.5314
      -828.158        -645.318
 94  3 17  9  7 19.9980000  0  7  2 19 31 27 17 26 16               -0.001357933
  -7448645.654 9  -5781567.80748  21468183.446    21468184.2514   21468189.0064
      3648.103        2842.678
   3738135.328 9   2902745.82246  22925388.203    22925389.5824   22925395.4274
     -1758.432       -1370.207
  -4697754.967 9  -3641678.24346  23590655.795    23590656.6744   23590660.8544
      1688.184        1315.468
    381491.932 9    298139.69848  20612260.300    20612261.3264   20612265.5134
      -599.687        -467.288
  -2505831.251 9  -1941033.04846  23220952.880    23220953.3854   23220957.7114
       468.946         365.412
  -7906933.458 9  -6133364.13048  21039178.314    21039179.7924   21039183.2704
      3527.668        2748.832
    708263.623 9    552567.00948  21218900.161    21218901.0424   21218905.5894
      -838.430        -653.322
 94  3 17  9  7 39.9980000  0  7  2 19 31 27 17 26 16               -0.001377014
  -7521527.095 9  -5838358.53448  21454314.565    21454315.3654   21454320.1054
      3639.969        2836.339
   3773327.154 9   2930167.99346  22932084.942    22932086.4184   22932092.2434
     -1760.785       -1372.040
  -4731393.661 9  -3667890.21746  23584254.511    23584255.3834   23584259.5944
      1675.588        1305.653
    393563.155 9    307545.81648  20614557.335    20614558.4094   20614562.6134
      -607.497        -473.374
  -2515091.236 9  -1948248.62946  23219190.610    23219191.3024   23219195.6064
       457.018         356.118
  -7977428.058 9  -6188294.99148  21025763.539    21025765.0674   21025768.5764
      3521.789        2744.251
    725128.728 9    565708.61648  21222109.586    21222110.4064   21222114.9744
      -848.096        -660.854
 94  3 17  9  7 59.9980000  0  7  2 19 31 27 17 26 16               -0.001396104
  -7594237.805 9  -5895016.22748  21440478.104    21440478.9824   21440483.6974
      3631.284        2829.572
   3808570.258 9   2957630.11646  22938791.434    22938792.9444   22938798.8094
     -1763.247       -1373.959
  -4764779.406 9  -3693905.08346  23577901.068    23577902.1424   23577906.5184
      1663.040        1295.875
    405795.574 9    317077.54448  20616885.210    20616886.1554   20616890.3854
      -615.518        -479.624
  -2524106.815 9  -1955273.77946  23217474.860    23217475.7294   23217480.0554
       444.770         346.574
  -8047797.729 9  -6243128.49948  21012372.713    21012374.1234   21012377.6814
      3515.390        2739.265
    742193.091 9    579005.48948  21225356.888    21225357.7184   21225362.2614
      -858.146        -668.685
 94  3 17  9  8 19.9980000  0  7  2 19 31 27 17 26 16               -0.001415205
  -7666774.171 9  -5951538.06548  21426674.923    21426675.7604   21426680.4514
      3622.340        2822.602
   3843857.547 9   2985126.65446  22945506.141    22945507.8994   22945513.8404
     -1765.401       -1375.637
  -4797913.582 9  -3719723.92546  23571595.768    23571596.8624   23571601.3754
      1650.424        1286.045
    418191.792 9    326736.90748  20619244.142    20619245.0904   20619249.3434
      -624.107        -486.317
  -2532879.681 9  -1962109.78946  23215805.281    23215806.3224   23215810.7564
       432.547         337.050
  -8118038.859 9  -6297861.85048  20999006.292    20999007.6494   20999011.2244
      3508.770        2734.106
    759457.415 9    592458.17948  21228642.343    21228643.0594   21228647.6174
      -868.204        -676.523
 94  3 17  9  8 39.9980000  0  7  2 19 31 27 17 26 16               -0.001434322
  -7739131.389 9  -6007920.30948  21412905.849    21412906.6244   21412911.3214
      3613.612        2815.802
   3879185.696 9   3012655.04246  22952228.659    22952230.6434   22952236.6154
     -1767.202       -1377.041
  -4830801.255 9  -3745350.68246  23565337.432    23565338.6164   23565343.2174
      1638.661        1276.879
    430755.108 9    336526.47648  20621634.767    20621635.8164   20621640.0834
      -631.997        -492.465
  -2541408.812 9  -1968755.87746  23214182.498    23214183.2514   23214187.7984
       420.527         327.683
  -8188150.821 9  -6352494.54948  20985664.165    20985665.7624   20985669.3534
      3502.675        2729.357
    776917.733 9    606063.59148  21231965.113    21231965.6664   21231970.2814
      -877.542        -683.799
 94  3 17  9  8 59.9980000  0  7  2 19 31 27 17 26 16               -0.001453460
  -7811313.467 9  -6064166.07748  21399170.240    21399170.8134   21399175.5184
      3604.525        2808.721
   3914548.342 9   3040210.30646  22958957.767    22958959.9994   22958965.9344
     -1769.176       -1378.579
  -4863456.565 9  -3770796.41446  23559123.506    23559124.5894   23559129.2184
      1626.905        1267.718
    443472.020 9    346435.73148  20624054.717    20624055.7784   20624060.0484
      -639.725        -498.487
  -2549695.697 9  -1975213.18846  23212605.377    23212606.2694   23212610.9634
       408.198         318.076
  -8258141.929 9  -6407033.07748  20972345.334    20972346.9194   20972350.5234
      3496.361        2724.437
    794556.444 9    619808.01248  21235321.590    21235322.2214   21235326.8344
      -886.415        -690.713
 94  3 17  9  9 19.9980000  0  7  2 19 31 27 17 26 16               -0.001472609
  -7883308.043 9  -6120265.74348  21385470.063    21385470.6954   21385475.4024
      3595.295        2801.529
   3949958.342 9   3067802.47046  22965696.046    22965698.3674   22965704.2864
     -1771.533       -1380.415
  -4895874.663 9  -3796057.27246  23552954.811    23552955.8134   23552960.1934
      1615.244        1258.632
    456345.861 9    356467.27348  20626504.625    20626505.6154   20626509.8744
      -647.434        -504.494
  -2557729.667 9  -1981473.44046  23211076.560    23211077.4124   23211082.1944
       395.629         308.282
  -8328000.611 9  -6461468.41648  20959051.690    20959053.2834   20959056.8724
      3489.757        2719.291
    812380.992 9    633697.23948  21238713.567    21238714.1404   21238718.7534
      -895.880        -698.088
 94  3 17  9  9 39.9980000  0  7  2 19 31 27 17 26 16               -0.001491771
  -7955118.878 9  -6176222.23448  21371804.738    21371805.5134   21371810.2334
      3585.426        2793.838
   3985412.775 9   3095429.25846  22972442.929    22972445.1864   22972451.0784
     -1774.150       -1382.455
  -4928056.910 9  -3821134.37646  23546831.012    23546831.8554   23546835.9614
      1602.811        1248.944
    469374.135 9    366619.15148  20628983.883    20628984.8364   20628989.0894
      -655.738        -510.965
  -2565519.954 9  -1987543.80846  23209594.092    23209594.9314   23209599.7844
       383.184         298.585
  -8397726.453 9  -6515800.24548  20945783.294    20945784.9324   20945788.5024
      3482.525        2713.656
    830396.762 9    647735.47248  21242141.857    21242142.4554   21242147.1034
      -906.026        -705.994
 94  3 17  9  9 59.9980000  0  7  2 19 31 27 17 26 16               -0.001510948
  -8026736.346 9  -6232028.05148  21358176.366    21358177.1424   21358181.8894
      3576.273        2786.706
   4020908.761 9   3123088.42846  22979197.858    22979199.8744   22979205.7944
     -1775.611       -1383.593
  -4960002.486 9  -3846027.03646  23540751.890    23540752.6924   23540756.8374
      1591.555        1240.173
    482560.248 9    376894.02048  20631493.248    20631494.0934   20631498.3624
      -662.966        -516.597
  -2573068.697 9  -1993425.95846  23208157.657    23208158.4464   23208163.3634
       371.609         289.565
  -8467315.784 9  -6570025.70048  20932540.953    20932542.5454   20932546.1134
      3476.318        2708.819
    848611.116 9    661928.44448  21245607.830    21245608.5194   21245613.2004
      -915.577        -713.437
 94  3 17  9 10 19.9980000  0  7  2 19 31 27 17 26 16               -0.001530137
  -8098168.030 9  -6287689.09948  21344583.317    21344584.1314   21344588.9254
      3567.071        2779.536
   4056440.346 9   3150775.34046  22985959.632    22985961.3064   22985967.2854
     -1777.441       -1385.019
  -4991723.356 9  -3870744.59746  23534715.384    23534716.2794   23534720.4434
      1580.668        1231.689
    495892.792 9    387282.99248  20634030.298    20634031.2204   20634035.4974
      -670.163        -522.205
  -2580383.241 9  -1999125.62346  23206765.588    23206766.5384   23206771.5324
       360.063         280.569
  -8536780.262 9  -6624153.86848  20919322.322    20919323.9044   20919327.4544
      3470.280        2704.114
    867020.664 9    676273.51248  21249111.025    21249111.7134   21249116.4404
      -925.061        -720.827
 94  3 17  9 10 39.9980000  0  7  2 19 31 27 17 26 16               -0.001549342
  -8169413.766 9  -6343205.25448  21331025.671    21331026.5094   21331031.3434
      3557.862        2772.360
   4092013.655 9   3178494.74646  22992728.863    22992730.6694   22992736.7334
     -1779.568       -1386.676
  -5023222.250 9  -3895289.17446  23528721.280    23528722.1884   23528726.4554
      1569.578        1223.048
    509369.419 9    397784.23548  20636594.814    20636595.7684   20636600.0464
      -677.098        -527.609
  -2587464.561 9  -2004643.53646  23205418.010    23205418.9224   23205424.1014
       348.405         271.484
  -8606120.407 9  -6678185.15348  20906127.480    20906128.9404   20906132.4634
      3464.039        2699.251
    885616.037 9    690763.38248  21252649.419    21252650.2874   21252655.0284
      -934.073        -727.849
 94  3 17  9 10 59.9980000  0  7  2 19 31 27 17 26 16               -0.001568562
  -8240478.373 9  -6398580.27448  21317502.535    21317503.3734   21317508.2094
      3548.949        2765.415
   4127625.874 9   3206244.48446  22999505.790    22999507.4424   22999513.5044
     -1781.385       -1388.092
  -5054499.453 9  -3919661.01946  23522769.537    23522770.3194   23522774.6914
      1558.367        1214.312
    522978.720 9    408388.86148  20639184.514    20639185.5294   20639189.8414
      -683.629        -532.698
  -2594318.468 9  -2009984.24746  23204113.650    23204114.6404   23204119.8854
       337.292         262.825
  -8675335.030 9  -6732118.62848  20892956.348    20892957.8684   20892961.3484
      3457.658        2694.279
    904388.373 9    705391.14248  21256221.681    21256222.5754   21256227.3234
      -942.946        -734.763
 94  3 17  9 11 19.9980000  0  7  2 19 31 27 17 26 16               -0.001587797
  -8311357.298 9  -6453810.60148  21304014.784    21304015.5504   21304020.4274
      3538.966        2757.636
   4163284.782 9   3234030.61046  23006291.621    23006293.1714   23006299.2104
     -1784.490       -1390.512
  -5085539.364 9  -3943847.96446  23516863.014    23516863.6824   23516868.0174
      1545.509        1204.293
    536729.328 9    419103.59548  20641801.114    20641802.1944   20641806.5484
      -691.468        -538.806
  -2600945.780 9  -2015148.37646  23202852.681    23202853.4744   23202858.7964
       325.414         253.569
  -8744411.019 9  -6785944.07848  20879811.767    20879813.1244   20879816.5964
      3449.914        2688.245
    923350.683 9    720166.93148  21259830.149    21259831.0134   21259835.7704
      -953.368        -742.884
 94  3 17  9 11 39.9980000  0  7  2 19 31 27 17 26 16               -0.001607046
  -8382049.287 9  -6508895.27048  21290562.433    21290563.2854   21290568.1994
      3529.847        2750.530
   4198989.389 9   3261852.34246  23013086.129    23013087.5864   23013093.6054
     -1786.270       -1391.899
  -5116326.946 9  -3967838.29146  23511004.367    23511005.0224   23511009.2794
      1532.929        1194.490
    550627.146 9    429933.03948  20644445.833    20644446.8754   20644451.2694
      -698.605        -544.368
  -2607348.052 9  -2020137.19446  23201634.256    23201635.1434   23201640.5814
       314.385         244.975
  -8813345.432 9  -6839659.21148  20866693.995    20866695.3144   20866698.7864
      3443.176        2682.994
    942506.022 9    735093.13348  21263475.405    21263476.1894   21263480.9604
      -962.415        -749.934
 94  3 17  9 11 59.9980000  0  7  2 19 31 27 17 26 16               -0.001626313
  -8452551.997 9  -6563832.44348  21277146.311    21277147.0734   21277151.9984
      3520.730        2743.426
   4234735.074 9   3289706.08746  23019888.483    23019889.8614   23019895.8464
     -1788.023       -1393.265
  -5146861.641 9  -3991631.56246  23505193.788    23505194.5034   23505198.7574
      1520.851        1185.079
    564670.077 9    440875.55748  20647118.079    20647119.1804   20647123.5964
      -705.389        -549.654
  -2613523.513 9  -2024949.26546  23200458.826    23200459.9604   23200465.4694
       303.354         236.380
  -8882140.400 9  -6893265.68248  20853602.518    20853604.0704   20853607.5264
      3436.691        2677.941
    961840.351 9    750158.81148  21267154.683    21267155.4314   21267160.2204
      -970.652        -756.352
 94  3 17  9 12 19.9980000  0  7  2 19 31 27 17 26 16               -0.001645600
  -8522870.343 9  -6618625.96148  21263765.120    21263765.9514   21263770.8924
      3511.399        2736.155
   4270524.658 9   3317594.03846  23026699.214    23026700.4414   23026706.3564
     -1790.700       -1395.351
  -5177147.580 9  -4015230.99846  23499430.261    23499431.1844   23499435.4694
      1507.772        1174.887
    578852.816 9    451927.01948  20649817.028    20649818.0894   20649822.5074
      -712.732        -555.375
  -2619472.804 9  -2029585.10246  23199326.928    23199327.8674   23199333.4534
       291.746         227.335
  -8950804.459 9  -6946770.14748  20840536.071    20840537.7104   20840541.1864
      3429.894        2672.645
    981337.128 9    765351.07448  21270864.676    21270865.5874   21270870.3814
      -978.676        -762.605
 94  3 17  9 12 39.9980000  0  7  2 19 31 27 17 26 16               -0.001664908
  -8593005.383 9  -6673276.64148  21250418.803    21250419.6934   21250424.6264
      3502.245        2729.022
   4306363.564 9   3345520.42146  23033519.506    23033520.3884   23033526.3414
     -1793.062       -1397.191
  -5207175.441 9  -4038629.31146  23493715.841    23493716.9534   23493721.4384
      1494.895        1164.853
    593180.936 9    463091.76148  20652543.613    20652544.6714   20652549.0724
      -719.995        -561.035
  -2625190.377 9  -2034040.38546  23198239.001    23198239.8664   23198245.4464
       280.068         218.235
  -9019332.101 9  -7000168.31248  20827495.807    20827497.2974   20827500.7804
      3422.961        2667.242
   1000989.654 9    780664.69648  21274604.467    21274605.3194   21274610.1744
      -986.508        -768.707
 94  3 17  9 12 59.9980000  0  7  2 19 31 27 17 26 16               -0.001684237
  -8662959.435 9  -6727786.29448  21237107.140    21237107.8464   21237112.7954
      3493.147        2721.933
   4342247.190 9   3373481.64746  23040348.148    23040348.8564   23040354.7684
     -1795.316       -1398.947
  -5236939.759 9  -4061822.28946  23488051.864    23488052.9404   23488057.4434
      1481.417        1154.351
    607653.826 9    474369.31648  20655297.843    20655298.7974   20655303.1804
      -727.404        -566.808
  -2630673.697 9  -2038313.12746  23197195.327    23197196.4744   23197202.0374
       268.247         209.024
  -9087722.716 9  -7053459.70248  20814481.609    20814482.9834   20814486.4814
      3416.097        2661.894
   1020800.983 9    796102.06248  21278374.710    21278375.3224   21278380.1884
      -994.760        -775.138
 94  3 17  9 13 19.9980000  0  7  2 19 31 27 17 26 16               -0.001703579
  -8732730.982 9  -6782153.73448  21223829.955    21223830.7484   21223835.6964
      3483.912        2714.737
   4378178.009 9   3401479.64746  23047185.622    23047186.2874   23047192.2194
     -1797.829       -1400.906
  -5266435.434 9  -4084805.93946  23482439.133    23482440.1304   23482444.5974
      1468.123        1143.992
    622280.784 9    485766.92248  20658081.210    20658082.2504   20658086.6154
      -735.325        -572.981
  -2635920.003 9  -2042401.16146  23196196.932    23196198.0484   23196203.7274
       256.245         199.671
  -9155977.077 9  -7106644.91948  20801493.096    20801494.5854   20801498.1274
      3409.339        2656.628
   1040781.820 9    811671.51648  21282176.782    21282177.5684   21282182.4404
     -1003.337        -781.821
 94  3 17  9 13 39.9980000  0  7  2 19 31 27 17 26 16               -0.001722932
  -8802314.042 9  -6836374.30048  21210588.753    21210589.5484   21210594.4994
      3474.382        2707.311
   4414158.471 9   3429516.33346  23054032.302    23054033.1954   23054039.0984
     -1800.351       -1402.871
  -5295662.366 9  -4107580.17446  23476877.356    23476878.3744   23476882.8004
      1454.665        1133.505
    637067.104 9    497288.70748  20660895.151    20660896.0504   20660900.3964
      -743.426        -579.293
  -2640917.829 9  -2046295.58546  23195245.527    23195246.9114   23195252.6914
       243.372         189.641
  -9224095.346 9  -7159724.09148  20788530.574    20788532.1004   20788535.6714
      3402.450        2651.260
   1060934.773 9    827375.08148  21286011.828    21286012.5584   21286017.4784
     -1011.949        -788.532
 94  3 17  9 13 59.9980000  0  7  2 19 31 27 17 26 16               -0.001742288
  -8871705.863 9  -6890445.85448  21197384.021    21197384.7324   21197389.6754
      3464.748        2699.804
   4450196.308 9   3457597.72646  23060890.077    23060891.0144   23060896.9024
     -1803.552       -1405.365
  -5324624.612 9  -4130148.15546  23471365.814    23471366.9764   23471371.2994
      1441.414        1123.180
    652019.099 9    508939.58348  20663740.526    20663741.3354   20663745.7054
      -751.915        -585.908
  -2645653.509 9  -2049985.74346  23194344.514    23194345.7604   23194351.5284
       230.150         179.338
  -9292070.837 9  -7212692.00948  20775595.193    20775596.7664   20775600.4024
      3394.982        2645.441
   1081264.920 9    843216.71848  21289880.537    21289881.2524   21289886.2094
     -1021.243        -795.774
 94  3 17  9 14 19.9980000  0  7  2 19 31 27 17 26 16               -0.001761650
  -8940915.287 9  -6944375.27548  21184214.016    21184214.5844   21184219.5784
      3456.125        2693.084
   4486285.602 9   3485719.22046  23067757.657    23067758.6534   23067764.4884
     -1805.398       -1406.804
  -5353332.046 9  -4152517.58846  23465902.744    23465904.0704   23465908.3584
      1429.257        1113.707
    667131.592 9    520715.52748  20666616.304    20666617.1654   20666621.5374
      -759.449        -591.778
  -2650134.327 9  -2053477.29146  23193491.881    23193493.1184   23193498.8974
       217.828         169.736
  -9359908.657 9  -7265552.64648  20762686.110    20762687.6534   20762691.3504
      3388.637        2640.496
   1101773.650 9    859197.51248  21293783.163    21293783.9214   21293788.9284
     -1029.826        -802.462
 94  3 17  9 14 39.9980000  0  7  2 19 31 27 17 26 16               -0.001781022
  -9009948.650 9  -6998167.50648  21171077.483    21171077.9414   21171082.9784
      3446.693        2685.735
   4522409.494 9   3513867.66946  23074631.778    23074632.8404   23074638.6564
     -1807.288       -1408.276
  -5381791.031 9  -4174693.42546  23460487.555    23460488.6294   23460492.8004
      1416.159        1103.501
    682396.402 9    532610.16248  20669521.097    20669521.9934   20669526.3684
      -767.419        -597.989
  -2654367.553 9  -2056775.92046  23192686.180    23192687.5524   23192693.3914
       205.047         159.777
  -9427614.211 9  -7318310.22248  20749802.160    20749803.7224   20749807.4514
      3381.480        2634.919
   1122461.401 9    875317.80648  21297720.146    21297720.6814   21297725.7384
     -1039.407        -809.928
 94  3 17  9 14 59.9980000  0  7  2 19 31 27 17 26 16               -0.001800399
  -9078791.818 9  -7051811.53448  21157976.969    21157977.5264   21157982.5894
      3437.334        2678.442
   4558566.115 9   3542041.62146  23081512.284    23081513.2264   23081519.0234
     -1808.641       -1409.331
  -5409995.063 9  -4196670.59946  23455120.630    23455121.6244   23455125.6894
      1403.811        1093.879
    697817.497 9    544626.58048  20672455.685    20672456.5714   20672460.9354
      -774.996        -603.893
  -2658349.563 9  -2059878.82346  23191928.271    23191929.7774   23191935.6074
       192.922         150.329
  -9495180.397 9  -7370959.19748  20736944.717    20736946.3224   20736950.0664
      3374.845        2629.749
   1143342.684 9    891588.90248  21301693.818    21301694.2594   21301699.3564
     -1049.015        -817.414
 94  3 17  9 15 19.9980000  0  7  2 19 31 27 17 26 16               -0.001819781
  -9147445.963 9  -7105308.27048  21144912.536    21144913.0984   21144918.1604
      3428.230        2671.348
   4594751.093 9   3570237.67146  23088397.991    23088399.0094   23088404.8284
     -1809.664       -1410.128
  -5437951.815 9  -4218455.10346  23449800.687    23449801.6724   23449805.8134
      1392.063        1084.724
    713392.038 9    556762.56748  20675419.412    20675420.3074   20675424.7084
      -782.203        -609.509
  -2662089.760 9  -2062793.28646  23191216.677    23191218.0934   23191223.8164
       181.224         141.214
  -9562609.876 9  -7423501.65148  20724113.057    20724114.9444   20724118.6994
      3368.370        2624.704
   1164419.939 9    908012.70448  21305704.763    21305705.1774   21305710.2524
     -1058.542        -824.838
 94  3 17  9 15 39.9980000  0  7  2 19 31 27 17 26 16               -0.001839172
  -9215912.763 9  -7158659.02548  21131883.756    21131884.2844   21131889.3434
      3418.896        2664.075
   4630962.117 9   3598454.02146  23095289.003    23095289.7714   23095295.6234
     -1810.987       -1411.159
  -5465670.250 9  -4240053.88346  23444526.168    23444527.0864   23444531.3264
      1380.250        1075.519
    729113.453 9    569013.00048  20678410.960    20678411.9974   20678416.4334
      -789.577        -615.255
  -2665591.262 9  -2065521.74246  23190550.400    23190551.8144   23190557.5904
       169.351         131.962
  -9629905.019 9  -7475939.42248  20711307.163    20711309.1354   20711312.8894
      3361.512        2619.360
   1185688.719 9    924585.74048  21309752.130    21309752.5134   21309757.6094
     -1067.917        -832.143
 94  3 17  9 15 59.9980000  0  7  2 19 31 27 17 26 16               -0.001858588
  -9284205.487 9  -7211874.13348  21118888.102    21118888.6014   21118893.6544
      3410.656        2657.654
   4667187.748 9   3626681.75046  23102182.549    23102183.3474   23102189.1764
     -1811.300       -1411.403
  -5493164.465 9  -4261477.96646  23439294.274    23439295.1604   23439299.4924
      1369.359        1067.033
    744973.383 9    581371.37048  20681428.859    20681430.0704   20681434.5214
      -796.082        -620.324
  -2668872.188 9  -2068078.33246  23189926.124    23189927.4664   23189933.2064
       159.128         123.996
  -9697073.638 9  -7528278.60448  20698525.474    20698527.4024   20698531.1744
      3355.632        2614.778
   1207132.505 9    941295.14748  21313832.813    21313833.1624   21313838.2494
     -1076.173        -838.576
 94  3 17  9 16 19.9980000  0  7  2 19 31 27 17 26 16               -0.001878031
  -9352321.359 9  -7264951.42948  21105926.149    21105926.5774   21105931.6634
      3400.969        2650.106
   4703428.177 9   3654921.00146  23109078.793    23109079.6784   23109085.5544
     -1812.689       -1412.485
  -5520431.026 9  -4282724.64646  23434105.552    23434106.4714   23434110.9564
      1357.226        1057.579
    760972.174 9    593837.94448  20684473.376    20684474.5654   20684479.0434
      -803.668        -626.235
  -2671944.309 9  -2070472.20746  23189341.716    23189342.8934   23189348.5734
       148.163         115.452
  -9764114.883 9  -7580518.52948  20685768.038    20685769.8764   20685773.6934
      3348.623        2609.317
   1228752.042 9    958141.50348  21317946.753    21317947.2584   21317952.3454
     -1085.620        -845.938
 94  3 17  9 16 39.9980000  0  7  2 19 31 27 17 26 16               -0.001897485
  -9420238.976 9  -7317874.24348  21093001.806    21093002.2564   21093007.3434
      3390.765        2642.155
   4739706.800 9   3683190.03146  23115982.642    23115983.2924   23115989.1524
     -1815.426       -1414.618
  -5547443.421 9  -4303773.26846  23428965.195    23428966.1364   23428970.9244
      1343.763        1047.088
    777127.568 9    606426.54548  20687547.751    20687548.8384   20687553.3324
      -811.965        -632.700
  -2674791.467 9  -2072690.78246  23188800.153    23188801.1634   23188806.7344
       136.470         106.340
  -9831009.681 9  -7632644.34448  20673038.612    20673040.2394   20673044.0794
      3340.730        2603.166
   1250564.723 9    975138.36048  21322097.275    21322098.1094   21322103.2044
     -1095.792        -853.864
 94  3 17  9 16 59.9980000  0  7  2 19 31 27 17 26 16               -0.001916948
  -9487963.371 9  -7370646.49548  21080114.292    21080114.7024   21080119.8114
      3381.865        2635.219
   4776036.243 9   3711498.64846  23122895.737    23122896.6264   23122902.4914
     -1817.555       -1416.277
  -5574199.270 9  -4324622.00346  23423873.712    23423874.7104   23423879.6274
      1331.842        1037.799
    793439.633 9    619137.23048  20690651.890    20690652.9434   20690657.4444
      -819.118        -638.274
  -2677415.192 9  -2074735.23146  23188300.822    23188301.9404   23188307.3874
       126.006          98.186
  -9897755.907 9  -7684654.38748  20660337.356    20660338.8454   20660342.7164
      3334.090        2597.992
   1272569.644 9    992285.01748  21326284.588    21326285.5184   21326290.6154
     -1104.560        -860.696
 94  3 17  9 17 19.9980000  0  7  2 19 31 27 17 26 16               -0.001936432
  -9555522.280 9  -7423289.80148  21067258.224    21067258.6714   21067263.7754
      3373.917        2629.026
   4812404.802 9   3739837.73846  23129816.447    23129817.3404   23129823.2854
     -1819.444       -1417.749
  -5600724.721 9  -4345291.19746  23418826.205    23418827.1404   23418832.0664
      1320.597        1029.037
    809885.051 9    631951.82148  20693781.378    20693782.4274   20693786.9434
      -825.498        -643.245
  -2679840.759 9  -2076625.28846  23187839.365    23187840.4624   23187845.8084
       116.418          90.715
  -9964377.072 9  -7736566.98548  20647660.014    20647661.2524   20647665.1374
      3327.916        2593.181
   1294739.092 9   1009559.87748  21330503.298    21330504.2554   21330509.3394
     -1112.288        -866.718
 94  3 17  9 17 39.9980000  0  7  2 19 31 27 17 26 16               -0.001955940
  -9622911.283 9  -7475800.70848  21054434.436    21054434.9534   21054440.0624
      3364.600        2621.766
   4848817.456 9   3768211.19146  23136745.731    23136746.4794   23136752.4334
     -1822.233       -1419.922
  -5627019.302 9  -4365780.49746  23413822.525    23413823.4434   23413828.3934
      1308.371        1019.510
    826464.054 9    644870.50348  20696936.190    20696937.3084   20696941.8514
      -832.869        -648.989
  -2682063.758 9  -2078357.49546  23187416.168    23187417.4704   23187422.7784
       105.586          82.275
 -10030868.214 9  -7788378.26648  20635007.245    20635008.3844   20635012.2784
      3320.737        2587.587
   1317063.124 9   1026955.18648  21334751.380    21334752.3794   21334757.5014
     -1120.406        -873.044
 94  3 17  9 17 59.9980000  0  7  2 19 31 27 17 26 16               -0.001975465
  -9690109.765 9  -7528163.15848  21041646.924    21041647.4974   21041652.6374
      3355.726        2614.851
   4885288.612 9   3796630.22646  23143685.803    23143686.7374   23143692.6904
     -1824.342       -1421.565
  -5653057.303 9  -4386069.85546  23408867.692    23408868.5094   23408873.4804
      1295.978        1009.853
    843197.302 9    657909.38148  20700120.399    20700121.5484   20700126.1054
      -839.884        -654.455
  -2684067.661 9  -2079918.96446  23187034.978    23187036.1744   23187041.4124
        95.301          74.261
 -10097208.105 9  -7840071.69248  20622383.090    20622384.3104   20622388.2024
      3313.803        2582.184
   1339551.415 9   1044478.49748  21339030.945    21339031.8164   21339036.8944
     -1127.963        -878.932
 94  3 17  9 18 19.9980000  0  7  2 19 31 27 17 26 16               -0.001995004
  -9757116.035 9  -7580375.83148  21028896.120    21028896.6474   21028901.7654
      3345.218        2606.663
   4921815.945 9   3825093.02746  23150636.821    23150637.6714   23150643.6584
     -1828.095       -1424.490
  -5678833.365 9  -4406155.10346  23403962.747    23403963.4394   23403968.3824
      1282.000         998.961
    860076.537 9    671062.01748  20703332.396    20703333.5874   20703338.1174
      -847.695        -660.542
  -2685852.580 9  -2081309.81246  23186695.464    23186696.5044   23186701.8324
        83.328          64.931
 -10163397.354 9  -7891647.73448  20609787.498    20609788.9034   20609792.8034
      3305.456        2575.680
   1362204.024 9   1062129.84548  21343341.760    21343342.5194   21343347.5964
     -1136.919        -885.911
 94  3 17  9 18 39.9970000  0  7  2 19 31 27 17 26 16               -0.002014555
  -9823929.242 9  -7632438.06748  21016182.040    21016182.5364   21016187.6504
      3336.700        2600.026
   4958393.196 9   3853594.72946  23157596.990    23157598.0794   23157604.1334
     -1829.632       -1425.687
  -5704351.274 9  -4426039.21146  23399106.698    23399107.4844   23399112.4534
      1270.137         989.717
    877090.927 9    684319.96648  20706570.156    20706571.3484   20706575.8444
      -853.617        -665.156
  -2687413.646 9  -2082526.24046  23186398.463    23186399.5104   23186404.7414
        72.884          56.793
 -10229438.208 9  -7943108.13948  20597220.244    20597221.7644   20597225.6744
      3299.180        2570.790
   1385012.767 9   1079902.85048  21347682.268    21347682.9084   21347687.9924
     -1143.816        -891.285
 94  3 17  9 18 59.9970000  0  7  2 19 31 27 17 26 16               -0.002034127
  -9890563.717 9  -7684361.02648  21003502.032    21003502.4464   21003507.5664
      3326.349        2591.960
   4995010.850 9   3882127.92246  23164564.769    23164566.1744   23164572.2854
     -1832.396       -1427.841
  -5729624.754 9  -4445732.85446  23394297.061    23394298.0114   23394303.2064
      1257.029         979.503
    894234.204 9    697678.35248  20709832.492    20709833.6534   20709838.1264
      -861.004        -670.912
  -2688753.042 9  -2083569.93746  23186143.712    23186144.6874   23186149.7684
        60.735          47.326
 -10295346.496 9  -7994465.24748  20584678.407    20584679.8594   20584683.7474
      3291.378        2564.710
   1407969.698 9   1097791.33248  21352050.658    21352051.4934   21352056.5744
     -1152.162        -897.788
 94  3 17  9 19 19.9970000  0  7  2 19 31 27 17 26 16               -0.002053708
  -9956994.159 9  -7736125.00148  20990860.875    20990861.1614   20990866.3134
      3316.724        2584.460
   5031671.690 9   3910694.76846  23171541.137    23171542.5714   23171548.6184
     -1833.530       -1428.725
  -5754641.184 9  -4465226.17846  23389536.298    23389537.4204   23389542.7344
      1244.592         969.812
    911518.355 9    711146.50048  20713121.582    20713122.7724   20713127.2414
      -867.437        -675.925
  -2689852.891 9  -2084426.97946  23185934.495    23185935.4304   23185940.5124
        49.202          38.339
 -10361104.540 9  -8045705.28548  20572165.207    20572166.5284   20572170.4134
      3284.383        2559.259
   1431086.735 9   1115804.57048  21356449.713    21356450.5814   21356455.6534
     -1159.544        -903.541
 94  3 17  9 19 39.9970000  0  7  2 19 31 27 17 26 16               -0.002073308
 -10023226.863 9  -7787734.89548  20978257.178    20978257.5094   20978262.6894
      3306.812        2576.737
   5068357.545 9   3939281.11346  23178522.106    23178523.6904   23178529.6784
     -1834.769       -1429.690
  -5779402.378 9  -4484520.63546  23384824.048    23384825.4744   23384830.9404
      1231.686         959.755
    928938.710 9    724720.78248  20716436.698    20716437.7944   20716442.2604
      -874.416        -681.363
  -2690716.917 9  -2085100.25146  23185769.868    23185771.0064   23185776.1234
        37.394          29.138
 -10426715.771 9  -8096830.92548  20559679.996    20559681.1434   20559684.9954
      3277.017        2553.520
   1454358.593 9   1133938.44548  21360878.317    21360879.0904   21360884.1994
     -1167.471        -909.718
 94  3 17  9 19 59.9970000  0  7  2 19 31 27 17 26 16               -0.002092919
 -10089266.257 9  -7839194.15648  20965690.216    20965690.6044   20965695.8394
      3296.971        2569.068
   5105064.804 9   3967884.14946  23185507.498    23185508.8774   23185514.8464
     -1836.166       -1430.779
  -5803904.946 9  -4503613.54246  23380161.341    23380162.7324   23380168.1944
      1218.388         949.393
    946498.669 9    738403.84648  20719778.155    20719779.3974   20719783.8654
      -881.726        -687.059
  -2691346.257 9  -2085590.65646  23185650.193    23185651.2794   23185656.3624
        25.370          19.769
 -10492184.273 9  -8147845.34448  20547221.641    20547222.8884   20547226.7384
      3269.608        2547.746
   1477790.640 9   1152197.14648  21365337.212    21365338.0884   21365343.1844
     -1175.939        -916.316
 94  3 17  9 20 19.9970000  0  7  2 19 31 27 17 26 16               -0.002112534
 -10155111.855 9  -7890502.40948  20953160.151    20953160.6184   20953165.8504
      3287.303        2561.535
   5141799.315 9   3996508.40846  23192497.906    23192499.2564   23192505.2284
     -1837.603       -1431.898
  -5828148.005 9  -4522504.23546  23375548.019    23375549.4874   23375554.8324
      1205.743         939.540
    964197.942 9    752195.46548  20723146.283    20723147.4904   20723151.9344
      -888.506        -692.342
  -2691735.510 9  -2085893.97846  23185576.266    23185577.1834   23185582.2344
        13.269          10.339
 -10557510.434 9  -8198748.84948  20534790.485    20534791.7454   20534795.5614
      3262.772        2542.420
   1501392.661 9   1170588.28948  21369828.604    21369829.4624   21369834.5614
     -1184.486        -922.976
 94  3 17  9 20 39.9970000  0  7  2 19 31 27 17 26 16               -0.002132155
 -10220771.962 9  -7941666.12348  20940665.466    20940665.8994   20940671.1364
      3278.915        2554.999
   5178557.183 9   4025150.87946  23199492.532    23199494.0864   23199499.9854
     -1837.939       -1432.160
  -5852142.542 9  -4541201.29646  23370982.213    23370983.5544   23370988.8184
      1193.998         930.388
    982030.980 9    766091.31648  20726539.787    20726541.0524   20726545.4934
      -894.728        -697.191
  -2691890.325 9  -2086014.61446  23185547.090    23185547.6554   23185552.7924
         2.332           1.817
 -10622704.418 9  -8249549.36048  20522384.590    20522385.7664   20522389.5324
      3256.852        2537.807
   1525158.945 9   1189107.43148  21374351.107    21374352.0864   21374357.1804
     -1191.994        -928.826
 94  3 17  9 20 59.9970000  0  7  2 19 31 27 17 26 16               -0.002151784
 -10286250.526 9  -7992688.37548  20928205.437    20928205.7374   20928210.9544
      3269.546        2547.698
   5215333.463 9   4053807.68146  23206490.708    23206492.3604   23206498.3324
     -1839.204       -1433.146
  -5875888.922 9  -4559704.98846  23366463.623    23366464.8164   23366470.1684
      1181.296         920.490
   1000002.417 9    780095.00848  20729959.764    20729960.9424   20729965.3684
      -901.823        -702.719
  -2691814.879 9  -2085955.83946  23185561.082    23185561.8994   23185567.1504
        -9.236          -7.197
 -10687766.552 9  -8300247.13148  20510003.645    20510004.8884   20510008.6244
      3249.903        2532.392
   1549090.637 9   1207755.46148  21378905.378    21378906.1644   21378911.2474
     -1200.643        -935.566
 94  3 17  9 21 19.9970000  0  7  2 19 31 27 17 26 16               -0.002171423
 -10351546.666 9  -8043568.47548  20915780.038    20915780.2874   20915785.5014
      3260.328        2540.515
   5252126.066 9   4082477.20446  23213492.195    23213493.7654   23213499.7814
     -1839.872       -1433.666
  -5899392.222 9  -4578019.24846  23361991.192    23361992.3624   23361997.6704
      1169.146         911.023
   1018107.943 9    794203.19048  20733405.118    20733406.3444   20733410.7324
      -908.629        -708.023
  -2691519.691 9  -2085725.84046  23185617.193    23185618.0844   23185623.2894
       -20.048         -15.622
 -10752696.114 9  -8350841.59648  20497647.960    20497649.2344   20497652.9244
      3243.225        2527.188
   1573189.935 9   1226534.09448  21383491.545    21383492.1624   21383497.2534
     -1209.018        -942.092
 94  3 17  9 21 39.9970000  0  7  2 19 31 27 17 26 16               -0.002191074
 -10416654.548 9  -8094301.88448  20903390.258    20903390.6824   20903395.8514
      3250.440        2532.810
   5288939.755 9   4111163.15546  23220497.881    23220499.1344   23220505.2904
     -1841.535       -1434.962
  -5922647.974 9  -4596140.62846  23357565.986    23357567.1044   23357572.2334
      1156.470         901.145
   1036356.216 9    808422.60348  20736877.689    20736878.8924   20736883.2634
      -916.209        -713.929
  -2691007.098 9  -2085326.43346  23185715.005    23185715.7604   23185720.8134
       -31.168         -24.287
 -10817486.272 9  -8401327.43848  20485318.783    20485320.1234   20485323.7614
      3235.948        2521.518
   1597458.739 9   1245444.81048  21388109.666    21388110.4144   21388115.4794
     -1217.812        -948.944
 94  3 17  9 21 59.9970000  0  7  2 19 31 27 17 26 16               -0.002210739
 -10481570.780 9  -8144885.95248  20891037.128    20891037.5494   20891042.6824
      3240.831        2525.323
   5325780.115 9   4139869.88446  23227508.607    23227509.7004   23227515.8834
     -1842.736       -1435.898
  -5945658.162 9  -4614070.64846  23353187.391    23353188.4164   23353193.3584
      1144.395         891.736
   1054746.103 9    822752.36348  20740377.085    20740378.3874   20740382.7464
      -923.048        -719.258
  -2690282.766 9  -2084762.03746  23185852.590    23185853.6434   23185858.6824
       -41.573         -32.395
 -10882139.996 9  -8451706.96348  20473015.646    20473016.9234   20473020.5524
      3229.194        2516.255
   1621893.915 9   1264485.16248  21392759.565    21392760.3284   21392765.4034
     -1225.995        -955.321
 94  3 17  9 22 19.9970000  0  8  2 19 31 23 27 17 26 16            -0.002230428
 -10546282.302 9  -8195310.50748  20878722.992    20878723.3544   20878728.4534
      3230.358        2517.162
   5362651.333 9   4168600.65646  23234524.785    23234526.0974   23234532.2884
     -1844.392       -1437.188
  -5968418.398 9  -4631805.88746  23348856.308    23348857.3234   23348862.0444
      1131.731         881.868
  -7393959.37019  -5374096.03056  24227815.186    24227815.7355   24227820.3035
      4862.962        3789.321
   1073278.008 9    837192.78348  20743903.707    20743904.8854   20743909.2664
      -930.055        -724.718
  -2689340.686 9  -2084027.96746  23186031.582    23186032.8514   23186038.0564
       -52.555         -40.952
 -10946649.292 9  -8501973.94948  20460740.017    20460741.2024   20460744.8364
      3221.800        2510.494
   1646502.600 9   1283660.72148  21397442.539    21397443.2694   21397448.3254
     -1234.835        -962.209
 94  3 17  9 22 39.9970000  0  8  2 19 31 23 27 17 26 16            -0.002250116
 -10610787.375 9  -8245574.19348  20866448.161    20866448.4564   20866453.5354
      3220.317        2509.338
   5399551.842 9   4197354.25646  23241547.249    23241548.0674   23241554.3284
     -1845.420       -1437.990
  -5990929.978 9  -4649347.39046  23344572.815    23344573.5734   23344578.0794
      1119.473         872.317
  -7491175.337 9  -5449848.72546  24209315.680    24209316.0624   24209320.6684
      4858.721        3786.016
   1091949.174 9    851741.71848  20747456.816    20747457.9184   20747462.3084
      -936.914        -730.063
  -2688184.348 9  -2083126.94146  23186251.804    23186252.9294   23186258.0534
       -62.840         -48.966
 -11011010.990 9  -8552125.92148  20448492.220    20448493.5274   20448497.2044
      3214.447        2504.764
   1671283.705 9   1302970.63648  21402158.121    21402158.9864   21402164.0664
     -1243.132        -968.674
 94  3 17  9 22 59.9970000  0  8  2 19 31 23 27 17 26 16            -0.002269817
 -10675086.359 9  -8295677.29148  20854212.461    20854212.7564   20854217.8424
      3209.632        2501.012
   5436475.174 9   4226125.63946  23248573.655    23248574.3544   23248580.6764
     -1846.940       -1439.174
  -6013191.746 9  -4666694.21246  23340336.322    23340337.2624   23340341.6284
      1106.710         862.371
  -7588301.616 9  -5525531.63446  24190833.311    24190833.5324   24190838.1244
      4854.011        3782.346
   1110760.096 9    866399.55048  20751036.505    20751037.5304   20751041.9304
      -944.003        -735.587
  -2686819.064 9  -2082063.10446  23186511.902    23186512.7724   23186517.7624
       -73.558         -57.318
 -11075219.924 9  -8602158.85648  20436273.470    20436274.9594   20436278.6744
      3206.560        2498.618
   1696235.532 9   1322413.57748  21406906.524    21406907.1974   21406912.2584
     -1251.903        -975.509
 94  3 17  9 23 19.9970000  0  8  2 19 31 23 27 17 26 16            -0.002289529
 -10739163.049 9  -8345607.17348  20842018.963    20842019.3384   20842024.4184
      3198.446        2492.296
   5473434.131 9   4254924.77646  23255606.724    23255607.5034   23255613.8474
     -1848.562       -1440.438
  -6035193.972 9  -4683838.81546  23336149.649    23336150.5214   23336154.7624
      1093.920         852.405
  -7685329.446 9  -5601137.74045  24172369.887    24172369.9054   24172374.3084
      4849.012        3778.451
   1129716.840 9    881171.00948  20754643.789    20754644.8754   20754649.2994
      -951.321        -741.289
  -2685235.745 9  -2080829.36746  23186813.051    23186813.9824   23186819.0734
       -84.355         -65.731
 -11139262.818 9  -8652062.40948  20424086.634    20424088.0174   20424091.7554
      3198.075        2492.006
   1721365.803 9   1341995.57048  21411688.682    21411689.3584   21411694.3764
     -1260.589        -982.277
 94  3 17  9 23 39.9970000  0  8  2 19 31 23 27 17 26 16            -0.002309264
 -10803034.475 9  -8395377.10648  20829864.392    20829865.0204   20829870.0714
      3188.854        2484.821
   5510414.214 9   4283740.38346  23262643.584    23262644.6584   23262650.8834
     -1849.325       -1441.032
  -6056949.435 9  -4700791.12246  23332009.754    23332010.5304   23332014.8574
      1081.923         843.057
  -7782261.427 9  -5676669.09545  24153924.194    24153924.4654   24153928.8094
      4844.268        3774.754
   1148805.826 9    896045.50848  20758276.239    20758277.3904   20758281.8524
      -957.369        -746.002
  -2683449.484 9  -2079437.49246  23187152.721    23187153.9224   23187158.9874
       -94.200         -73.403
 -11203150.928 9  -8701845.35248  20411929.331    20411930.5044   20411934.2584
      3190.876        2486.397
   1746650.812 9   1361698.13448  21416500.160    21416500.9684   21416506.0134
     -1267.753        -987.859
 94  3 17  9 23 59.9970000  0  8  2 19 31 23 27 17 26 16            -0.002329019
 -10866717.093 9  -8444999.91948  20817746.123    20817746.6354   20817751.6344
      3179.495        2477.528
   5547412.204 9   4312569.93646  23269683.675    23269685.1954   23269691.4124
     -1850.320       -1441.808
  -6078464.608 9  -4717556.19046  23327915.554    23327916.3664   23327920.5224
      1069.713         833.543
  -7879096.588 8  -5752125.07145  24135496.649    24135497.2344   24135501.5874
      4839.476        3771.020
   1168011.670 9    911011.06848  20761931.150    20761932.1784   20761936.6244
      -963.118        -750.481
  -2681465.337 9  -2077891.41446  23187530.487    23187531.6104   23187536.5614
      -104.154         -81.159
 -11266895.118 9  -8751516.15048  20399799.010    20399800.3714   20399804.1394
      3183.552        2480.690
   1772079.917 9   1381512.98848  21421339.230    21421340.0144   21421345.0244
     -1275.073        -993.563
 94  3 17  9 24 19.9970000  0  8  2 19 31 23 27 17 26 16            -0.002348793
 -10930212.348 9  -8494476.73548  20805663.416    20805663.9094   20805668.8654
      3170.228        2470.308
   5584428.959 9   4341414.11646  23276727.505    23276729.3304   23276735.5234
     -1851.236       -1442.522
  -6099738.887 9  -4734133.54346  23323867.369    23323868.1014   23323872.2274
      1057.831         824.284
  -7975842.209 9  -5827511.25245  24117086.003    24117087.0174   24117091.4594
      4835.389        3767.836
   1187330.219 9    926064.45348  20765607.474    20765608.4094   20765612.8384
      -968.606        -754.758
  -2679277.647 9  -2076186.73946  23187946.893    23187948.0194   23187952.9474
      -114.478         -89.204
 -11330492.071 9  -8801072.22148  20387696.822    20387698.2904   20387702.0654
      3176.337        2475.068
   1797655.903 9   1401442.28848  21426206.301    21426207.0254   21426212.0064
     -1282.310        -999.203
 94  3 17  9 24 39.9970000  0  8  2 19 31 23 27 17 26 16            -0.002368595
 -10993532.106 9  -8543816.79748  20793614.131    20793614.5554   20793619.5084
      3161.794        2463.736
   5621455.398 9   4370265.84446  23283773.823    23283775.2924   23283781.4184
     -1851.418       -1442.663
  -6120784.609 9  -4750532.81146  23319862.609    23319863.3174   23319867.6014
      1046.793         815.683
  -8072516.022 9  -5902841.47645  24098689.507    24098690.5374   24098695.0414
      4831.953        3765.158
   1206752.927 9    941199.00548  20769303.449    20769304.4684   20769308.8974
      -973.735        -758.755
  -2676894.541 9  -2074329.79246  23188400.220    23188401.5074   23188406.4374
      -123.789         -96.459
 -11393953.101 9  -8850522.37448  20375620.675    20375622.0774   20375625.8474
      3169.790        2469.966
   1823364.410 9   1421474.85248  21431098.420    21431099.2304   21431104.2354
     -1288.473       -1004.005
 94  3 17  9 24 59.9970000  0  8  2 19 31 23 27 17 26 16            -0.002388426
 -11056673.252 9  -8593017.68548  20781598.640    20781599.1754   20781604.1514
      3152.204        2456.263
   5658495.190 9   4399127.99346  23290822.616    23290823.7874   23290829.8504
     -1852.740       -1443.694
  -6141602.134 9  -4766754.27046  23315901.232    23315901.9034   23315906.2054
      1034.903         806.418
  -8169112.841 9  -5978111.70345  24080307.682    24080308.6574   24080313.4334
      4827.661        3761.814
   1226288.468 9    956421.47548  20773020.918    20773021.9584   20773026.4224
      -979.941        -763.590
  -2674315.391 9  -2072320.08646  23188891.286    23188892.3094   23188897.2654
      -134.200        -104.571
 -11457274.259 9  -8899863.53548  20363571.007    20363572.4744   20363576.2214
      3162.292        2464.124
   1849203.187 9   1441608.92448  21436015.533    21436016.2214   21436021.2084
     -1295.480       -1009.465
 94  3 17  9 25 19.9970000  0  8  2 19 31 23 27 17 26 16            -0.002408277
 -11119616.251 9  -8642064.17048  20769620.972    20769621.5304   20769626.4994
      3142.478        2448.684
   5695566.620 9   4428014.79146  23297876.661    23297878.3224   23297884.3634
     -1854.079       -1444.737
  -6162178.668 9  -4782787.93146  23311985.648    23311986.3594   23311990.6284
      1023.054         797.185
  -8265622.802 9  -6053314.26945  24061942.760    24061943.3054   24061948.2254
      4823.583        3758.636
   1245953.583 9    971744.91248  20776763.068    20776764.1224   20776768.5984
      -986.267        -768.520
  -2671520.853 9  -2070142.54346  23189423.045    23189424.0884   23189429.1164
      -144.891        -112.902
 -11520442.718 9  -8949085.71348  20351550.468    20351551.9424   20351555.6724
      3154.821        2458.302
   1875185.355 9   1461854.73448  21440959.809    21440960.4814   21440965.4894
     -1302.394       -1014.852
 94  3 17  9 25 39.9970000  0  8  2 19 31 23 27 17 26 16            -0.002428148
 -11182366.614 9  -8690960.55248  20757679.983    20757680.5234   20757685.4914
      3132.605        2440.991
   5732665.901 9   4456923.27846  23304936.353    23304938.0754   23304944.0594
     -1855.894       -1446.151
  -6182520.358 9  -4798638.59846  23308114.591    23308115.4184   23308119.7114
      1011.046         787.828
  -8362051.257 9  -6128453.32745  24043592.971    24043593.6584   24043598.4144
      4819.316        3755.311
   1265744.466 9    987166.35348  20780528.997    20780530.2114   20780534.7134
      -992.754        -773.575
  -2668514.955 9  -2067800.29946  23189995.057    23189996.1094   23190001.1664
      -155.716        -121.337
 -11583465.441 9  -8998194.33148  20339557.749    20339559.1324   20339562.8434
      3147.542        2452.630
   1901306.302 9   1482208.68048  21445930.530    21445931.1594   21445936.2044
     -1309.750       -1020.584
 94  3 17  9 25 59.9970000  0  8  2 19 31 23 27 17 26 16            -0.002448030
 -11244921.231 9  -8739704.40248  20745776.298    20745776.7914   20745781.7314
      3122.619        2433.210
   5769796.796 9   4485856.39646  23312002.537    23312003.8404   23312009.8484
     -1857.365       -1447.297
  -6202624.343 9  -4814304.03246  23304289.021    23304289.7854   23304294.1694
       999.203         778.600
  -8458403.038 9  -6203532.66446  24025257.673    24025258.5034   24025263.2334
      4815.702        3752.495
   1285660.861 9   1002685.59148  20784319.071    20784320.1904   20784324.7124
      -999.133        -778.545
  -2665292.724 9  -2065289.47946  23190608.092    23190609.2384   23190614.3484
      -166.637        -129.847
 -11646347.349 9  -9047193.22448  20327591.716    20327593.1124   20327596.8134
      3140.430        2447.088
   1927574.908 9   1502677.68548  21450929.602    21450929.8804   21450935.0024
     -1317.337       -1026.496
 94  3 17  9 26 19.9970000  0  8  2 19 31 23 27 17 26 16            -0.002467916
 -11307260.109 9  -8788280.14648  20733913.627    20733914.1114   20733919.0574
      3111.409        2424.475
   5806964.275 9   4514818.02446  23319075.458    23319076.6294   23319082.6764
     -1859.189       -1448.719
  -6222480.314 9  -4829776.23546  23300510.761    23300511.4174   23300515.7514
       986.485         768.690
  -8554673.770 9  -6278548.81346  24006938.364    24006938.7814   24006943.6054
      4811.566        3749.272
   1305720.035 9   1018316.08748  20788136.258    20788137.3324   20788141.8874
     -1006.716        -784.454
  -2661841.408 9  -2062600.16746  23191264.796    23191266.0164   23191271.1324
      -178.312        -138.944
 -11709075.839 9  -9096072.56849  20315654.796    20315656.2864   20315660.0064
      3132.556        2440.953
   1954007.315 9   1523274.32748  21455959.616    21455959.7914   21455964.9574
     -1325.775       -1033.071
 94  3 17  9 26 39.9970000  0  8  2 19 31 23 27 17 26 16            -0.002487812
 -11369381.790 9  -8836686.64748  20722092.292    20722092.7824   20722097.6854
      3100.742        2416.162
   5844160.388 9   4543801.96246  23326153.507    23326154.7904   23326160.9184
     -1860.471       -1449.718
  -6242087.237 9  -4845054.37346  23296779.828    23296780.4724   23296784.6164
       974.181         759.102
  -8650862.921 9  -6353501.38946  23988634.273    23988634.6404   23988639.4614
      4807.330        3745.971
   1325926.833 9   1034061.61548  20791981.465    20791982.5364   20791987.1364
     -1014.038        -790.159
  -2658165.413 9  -2059735.77946  23191964.588    23191965.6024   23191970.6674
      -189.258        -147.474
 -11771652.532 9  -9144833.62949  20303747.028    20303748.3874   20303752.0884
      3125.001        2435.066
   1980600.056 9   1543995.90148  21461020.184    21461020.2414   21461025.4634
     -1333.534       -1039.117
 94  3 17  9 26 59.9970000  0  8  2 19 31 23 27 17 26 16            -0.002507721
 -11431293.752 9  -8884929.73048  20710310.930    20710311.3464   20710316.2424
      3090.572        2408.238
   5881380.323 9   4572804.45746  23333236.306    23333237.5414   23333243.6644
     -1861.440       -1450.473
  -6261446.641 9  -4860139.61246  23293095.854    23293096.5304   23293100.6424
       961.918         749.546
  -8746968.547 9  -6428388.89656  23970346.086    23970346.4274   23970351.1545
      4803.341        3742.863
   1346276.758 9   1049918.66848  20795854.020    20795855.0104   20795859.6084
     -1020.754        -795.393
  -2654276.425 9  -2056705.40746  23192704.853    23192705.6834   23192710.7224
      -199.651        -155.572
 -11834079.716 9  -9193478.19549  20291867.500    20291868.9094   20291872.5884
      3117.782        2429.441
   2007346.292 9   1564837.08448  21466109.838    21466109.9174   21466115.1344
     -1341.008       -1044.941
 94  3 17  9 27 19.9970000  0  8  2 19 31 23 27 17 26 16            -0.002527639
 -11492996.995 9  -8933010.17748  20698569.157    20698569.6394   20698574.5134
      3079.786        2399.833
   5918625.065 9   4601826.28046  23340323.791    23340325.0044   23340331.1524
     -1863.050       -1451.727
  -6280552.123 9  -4875027.00146  23289460.083    23289460.9234   23289464.9374
       948.691         739.240
  -8842989.871 9  -6503210.70046  23952073.756    23952074.1854   23952078.9154
      4798.744        3739.281
   1366765.177 9   1065883.64248  20799752.766    20799753.8494   20799758.4704
     -1027.949        -800.999
  -2650169.538 9  -2053505.25646  23193486.001    23193487.1574   23193492.3414
      -211.052        -164.456
 -11896354.158 9  -9242003.73749  20280017.057    20280018.4614   20280022.1424
      3109.685        2423.131
   2034249.967 9   1585800.94548  21471229.419    21471229.5664   21471234.7934
     -1349.375       -1051.461
 94  3 17  9 27 39.9970000  0  8  2 19 31 23 27 17 26 16            -0.002547563
 -11554492.589 9  -8980928.82048  20686866.875    20686867.4054   20686872.2834
      3069.589        2391.888
   5955898.145 9   4630870.19846  23347416.673    23347417.8764   23347424.0934
     -1864.506       -1452.862
  -6299399.912 9  -4889713.58746  23285873.417    23285874.2504   23285878.1384
       935.882         729.259
  -8938920.544 9  -6577961.85446  23933818.626    23933819.1714   23933823.9194
      4794.067        3735.637
   1387387.366 9   1081952.85148  20803677.058    20803678.1314   20803682.7824
     -1034.468        -806.079
  -2645842.754 9  -2050133.75046  23194309.301    23194310.4974   23194315.7944
      -221.789        -172.823
 -11958471.898 9  -9290407.17249  20268196.403    20268197.8514   20268201.5354
      3101.949        2417.103
   2061315.187 9   1606890.68548  21476379.560    21476379.9274   21476385.2194
     -1357.361       -1057.684
 94  3 17  9 27 59.9970000  0  8  2 19 31 23 27 17 26 16            -0.002567481
 -11615765.282 9  -9028673.78048  20675207.069    20675207.5704   20675212.4484
      3058.008        2382.863
   5993215.938 9   4659948.94646  23354518.041    23354519.3304   23354525.5704
     -1866.915       -1454.739
  -6317972.573 9  -4904185.80146  23282339.179    23282339.9954   23282343.8184
       921.813         718.296
  -9034739.556 9  -6652626.00146  23915584.835    23915585.4544   23915590.1404
      4788.149        3731.025
   1408157.783 9   1098137.55948  20807629.536    20807630.6414   20807635.2844
     -1042.289        -812.173
  -2641282.609 9  -2046580.42146  23195177.234    23195178.2514   23195183.5554
      -233.843        -182.215
 -12020416.056 9  -9338675.35249  20256408.741    20256410.2604   20256413.9394
      3092.785        2409.962
   2088557.149 9   1628118.14548  21481563.314    21481563.9444   21481569.2244
     -1366.442       -1064.760
 94  3 17  9 28 19.9970000  0  8  2 19 31 23 27 17 26 16            -0.002587402
 -11676819.189 9  -9076248.25848  20663588.949    20663589.3914   20663594.2554
      3047.675        2374.812
   6030568.376 9   4689054.70746  23361625.841    23361627.3714   23361633.5394
     -1868.159       -1455.708
  -6336276.516 9  -4918448.64146  23278855.876    23278856.8344   23278860.8034
       908.629         708.023
  -9130449.343 9  -6727205.04846  23897372.018    23897372.4464   23897377.2194
      4782.980        3726.997
   1429073.323 9   1114435.35448  20811609.765    20811610.7694   20811615.3854
     -1048.976        -817.384
  -2636494.403 9  -2042849.36146  23196088.341    23196089.3464   23196094.7174
      -244.635        -190.625
 -12082186.092 9  -9386807.85149  20244654.174    20244655.7804   20244659.4634
      3084.494        2403.502
   2115966.695 9   1649476.18548  21486779.232    21486779.8144   21486785.1284
     -1374.179       -1070.789
 94  3 17  9 28 39.9970000  0  8  2 19 31 23 27 17 26 16            -0.002607334
 -11737670.611 9  -9123664.95448  20652009.301    20652009.7694   20652014.6194
      3037.380        2366.790
   6067946.904 9   4718180.79946  23368738.778    23368740.3184   23368746.4284
     -1869.936       -1457.093
  -6354320.883 9  -4932509.21946  23275422.137    23275423.1254   23275427.1094
       895.609         697.877
  -9226054.739 9  -6801702.75546  23879179.259    23879179.3684   23879184.1084
      4777.369        3722.625
   1450119.396 9   1130834.86348  20815614.627    20815615.7214   20815620.3184
     -1055.717        -822.637
  -2631495.382 9  -2038954.03846  23197039.548    23197040.6034   23197046.0224
      -255.397        -199.011
 -12143793.881 9  -9434813.92249  20232930.710    20232932.1994   20232935.8554
      3076.125        2396.981
   2143526.179 9   1670951.06148  21492023.678    21492024.2354   21492029.5884
     -1381.859       -1076.773
 94  3 17  9 28 59.9970000  0  8  2 19 31 23 27 17 26 16            -0.002627271
 -11798315.519 9  -9170920.72748  20640469.020    20640469.4354   20640474.2634
      3027.187        2358.847
   6105364.885 9   4747337.62346  23375859.297    23375860.7914   23375866.8564
     -1871.654       -1458.432
  -6372102.121 9  -4946364.74846  23272038.751    23272039.5784   23272043.3904
       882.669         687.794
  -9321547.380 9  -6876112.61746  23861007.661    23861007.7944   23861012.3854
      4772.134        3718.546
   1471298.282 9   1147337.86048  20819645.147    20819645.9474   20819650.5454
     -1062.037        -827.561
  -2626280.447 9  -2034890.47546  23198031.880    23198033.0074   23198038.4174
      -265.987        -207.263
 -12205232.243 9  -9482687.97449  20221239.406    20221240.8754   20221244.5204
      3067.912        2390.581
   2171240.863 9   1692546.87148  21497297.535    21497298.2054   21497303.5754
     -1389.462       -1082.698
 94  3 17  9 29 19.9970000  0  8  2 19 31 23 27 17 26 16            -0.002647218
 -11858758.112 9  -9218018.85448  20628967.089    20628967.5714   20628972.3934
      3016.828        2350.775
   6142814.393 9   4776519.02446  23382985.575    23382987.2364   23382993.2014
     -1873.497       -1459.868
  -6389629.083 9  -4960022.14646  23268703.599    23268704.3084   23268708.2664
       869.798         677.765
  -9416938.238 9  -6950443.13546  23842855.207    23842855.4754   23842860.1114
      4766.801        3714.390
   1492599.363 9   1163936.07448  20823698.748    20823699.4424   20823704.0614
     -1068.239        -832.394
  -2620856.729 9  -2030664.22446  23199064.152    23199065.0854   23199070.6064
      -276.475        -215.435
 -12266511.502 9  -9530438.04649  20209578.251    20209579.8324   20209583.4744
      3059.786        2384.249
   2199102.476 9   1714257.17748  21502599.230    21502600.1384   21502605.4864
     -1396.862       -1088.464
 94  3 17  9 29 39.9970000  0  8  2 19 31 23 27 17 26 16            -0.002667177
 -11918995.100 9  -9264956.76548  20617504.422    20617504.8314   20617509.6384
      3006.137        2342.444
   6180293.698 9   4805723.63646  23390117.950    23390119.2794   23390125.2604
     -1875.207       -1461.200
  -6406909.743 9  -4973487.60746  23265415.167    23265415.8864   23265419.9614
       857.467         668.156
  -9512226.789 9  -7024693.92246  23824722.205    23824722.6594   23824727.3414
      4761.329        3710.126
   1514021.011 9   1180628.23848  20827775.074    20827775.8754   20827780.5034
     -1074.738        -837.458
  -2615231.476 9  -2026280.93846  23200134.675    23200135.4514   23200141.1264
      -286.803        -223.483
 -12327634.463 9  -9578066.32749  20197946.822    20197948.5084   20197952.1774
      3051.804        2378.029
   2227106.229 9   1736078.23548  21507928.329    21507929.0864   21507934.4804
     -1404.195       -1094.178
 94  3 17  9 29 59.9970000  0  8  2 19 31 23 27 17 26 16            -0.002687142
 -11979009.931 9  -9311721.57548  20606083.861    20606084.3554   20606089.1514
      2994.915        2333.700
   6217811.296 9   4834958.08246  23397257.327    23397258.6444   23397264.6254
     -1877.005       -1462.601
  -6423935.630 9  -4986754.55146  23262175.112    23262175.9774   23262180.0854
       844.529         658.075
  -9607400.856 9  -7098855.50346  23806611.244    23806611.6344   23806616.2854
      4755.621        3705.679
   1535583.188 9   1197429.90448  20831878.142    20831879.0824   20831883.6814
     -1081.991        -843.110
  -2609392.497 9  -2021731.10246  23201245.829    23201246.6024   23201252.2514
      -297.563        -231.867
 -12388593.522 9  -9625566.89849  20186346.714    20186348.3674   20186352.0674
      3043.603        2371.639
   2255260.936 9   1758016.91548  21513286.115    21513286.8004   21513292.2014
     -1411.751       -1100.066
 94  3 17  9 30 19.9970000  0  8  2 19 31 23 27 17 26 16            -0.002707110
 -12038795.030 9  -9358307.37248  20594707.167    20594707.6034   20594712.3904
      2983.639        2324.914
   6255368.690 9   4864223.53646  23404404.040    23404405.5334   23404411.6014
     -1878.810       -1464.008
  -6440696.575 9  -4999815.04546  23258985.666    23258986.5094   23258990.7394
       831.535         647.949
  -9702456.400 9  -7172924.73746  23788522.557    23788523.1434   23788527.7184
      4749.823        3701.161
   1557296.397 9   1214349.25548  20836009.877    20836010.9534   20836015.5794
     -1089.371        -848.861
  -2603331.654 9  -2017008.38146  23202399.248    23202399.9934   23202405.6234
      -308.507        -240.395
 -12449381.394 9  -9672934.07249  20174779.165    20174780.7944   20174784.5534
      3035.102        2365.015
   2283572.346 9   1780077.70848  21518673.931    21518674.3374   21518679.7144
     -1419.402       -1106.028
 94  3 17  9 30 39.9970000  0  8  2 19 31 23 27 17 26 16            -0.002727081
 -12098356.137 9  -9404718.62948  20583372.989    20583373.4744   20583378.2964
      2972.380        2316.140
   6292965.629 9   4893519.80946  23411558.765    23411559.9274   23411566.1324
     -1880.972       -1465.692
  -6457193.811 9  -5012670.06146  23255846.448    23255847.2344   23255851.3704
       818.182         637.544
  -9797394.659 9  -7246902.59145  23770456.305    23770456.8974   23770461.4984
      4744.022        3696.640
   1579156.160 9   1231382.80248  20840169.565    20840170.6944   20840175.3794
     -1096.688        -854.562
  -2597052.653 9  -2012115.66246  23203594.096    23203594.8984   23203600.3964
      -319.539        -248.991
 -12509997.698 9  -9720167.55749  20163244.126    20163245.8624   20163249.6584
      3026.423        2358.252
   2312037.204 9   1802258.06648  21524090.583    21524091.0684   21524096.4504
     -1427.276       -1112.163
 94  3 17  9 30 59.9970000  0  8  2 19 31 23 27 17 26 16            -0.002747052
 -12157684.966 9  -9450948.89148  20572083.017    20572083.5794   20572088.4064
      2960.629        2306.984
   6330609.872 9   4922852.93646  23418722.189    23418723.3424   23418729.6184
     -1883.157       -1467.395
  -6473425.565 9  -5025318.17546  23252757.500    23252758.3974   23252762.5574
       805.033         627.298
  -9892214.251 9  -7320787.94545  23752412.840    23752413.2804   23752417.9504
      4738.217        3692.117
   1601165.873 9   1248533.19448  20844357.958    20844359.0184   20844363.7654
     -1104.055        -860.303
  -2590543.968 9  -2007043.96946  23204832.712    23204833.4734   23204838.8594
      -331.101        -258.001
 -12570432.627 9  -9767259.71149  20151743.699    20151745.5004   20151749.2974
      3017.292        2351.137
   2340666.649 9   1824566.67048  21529538.599    21529539.1324   21529544.5064
     -1435.509       -1118.578
 94  3 17  9 31 19.9970000  0  8  2 19 31 23 27 17 26 16            -0.002767026
 -12216780.103 9  -9496997.05748  20560837.626    20560838.1434   20560842.9904
      2948.677        2297.670
   6368289.897 9   4952213.95546  23425892.605    23425893.6534   23425899.9384
     -1885.094       -1468.904
  -6489398.947 9  -5037764.98646  23249717.943    23249718.7084   23249722.9284
       792.083         617.207
  -9986920.596 9  -7394585.07045  23734390.682    23734391.1684   23734396.0214
      4732.155        3687.394
   1623317.576 9   1265794.23148  20848573.325    20848574.3744   20848579.1424
     -1111.330        -865.971
  -2583809.299 9  -2001796.19145  23206114.300    23206115.0534   23206120.4194
      -342.630        -266.984
 -12630691.248 9  -9814214.48749  20140277.078    20140278.7024   20140282.4764
      3008.259        2344.098
   2369456.330 9   1847000.13648  21535017.046    21535017.6904   21535023.0284
     -1443.727       -1124.982
 94  3 17  9 31 39.9970000  0  8  2 19 31 23 27 17 26 16            -0.002787000
 -12275639.611 9  -9542861.61048  20549637.078    20549637.5704   20549642.4294
      2937.442        2288.916
   6406005.362 9   4981602.58246  23433069.752    23433070.7214   23433077.0304
     -1886.259       -1469.812
  -6505113.987 9  -5050010.49846  23246727.488    23246728.2594   23246732.6474
       779.586         607.470
 -10081506.959 9  -7468288.69745  23716391.572    23716391.9154   23716396.8444
      4726.586        3683.054
   1645612.167 9   1283166.60748  20852815.900    20852816.9334   20852821.7044
     -1118.024        -871.188
  -2576844.829 9  -1996369.34546  23207439.488    23207440.3304   23207445.6554
      -353.719        -275.625
 -12690766.296 9  -9861026.21649  20128845.314    20128846.8074   20128850.5744
      2999.470        2337.249
   2398412.231 9   1869563.12448  21540527.280    21540527.8624   21540533.1764
     -1451.706       -1131.199
 94  3 17  9 31 59.9970000  0  8  2 19 31 23 27 17 26 16            -0.002806971
 -12334269.054 9  -9588546.89448  20538480.248    20538480.7824   20538485.6344
      2925.619        2279.703
   6443750.552 9   5011014.39646  23440252.453    23440253.5014   23440259.6954
     -1888.210       -1471.332
  -6520571.300 9  -5062055.16846  23243785.998    23243786.8914   23243791.2364
       766.173         597.018
 -10175975.556 9  -7541900.58645  23698414.955    23698415.2274   23698420.2024
      4720.336        3678.184
   1668050.529 9   1300651.01248  20857085.957    20857086.8064   20857091.6144
     -1125.651        -877.131
  -2569646.088 9  -1990759.95446  23208809.248    23208810.2424   23208815.5644
      -365.854        -285.081
 -12750659.182 9  -9907696.00049  20117447.962    20117449.5554   20117453.3124
      2989.875        2329.773
   2427537.258 9   1892257.89648  21546069.670    21546070.1964   21546075.5584
     -1460.636       -1138.158
 94  3 17  9 32 19.9970000  0  8  2 19 31 23 27 17 26 16            -0.002826942
 -12392669.912 9  -9634054.05748  20527366.888    20527367.5024   20527372.3694
      2914.065        2270.700
   6481529.033 9   5040452.12746  23447441.222    23447442.5754   23447448.7834
     -1890.160       -1472.852
  -6535764.198 9  -5073893.78446  23240894.937    23240895.7534   23240900.2354
       752.721         586.536
 -10270321.800 9  -7615417.16746  23680461.081    23680461.7734   23680466.6974
      4713.856        3673.135
   1690630.560 9   1318245.80548  20861382.726    20861383.6244   20861388.4784
     -1132.678        -882.606
  -2562216.134 9  -1984970.38645  23210223.018    23210224.1134   23210229.4064
      -377.573        -294.213
 -12810360.993 9  -9954216.89849  20106087.098    20106088.6414   20106092.4214
      2979.903        2322.002
   2456835.494 9   1915087.63648  21551645.063    21551645.5314   21551650.9234
     -1469.557       -1145.109
 94  3 17  9 32 39.9970000  0  8  2 19 31 23 27 17 26 16            -0.002846905
 -12450833.056 9  -9679375.98448  20516298.816    20516299.4644   20516304.3414
      2902.121        2261.393
   6519354.234 9   5069926.28646  23454639.245    23454640.5834   23454646.7514
     -1892.473       -1474.654
  -6550686.677 9  -5085521.69646  23238055.183    23238056.0864   23238060.6284
       739.389         576.147
 -10364530.175 9  -7688826.28646  23662533.800    23662534.5324   23662539.5364
      4706.879        3667.698
   1713355.358 9   1335953.41048  20865707.096    20865708.0314   20865712.8844
     -1139.973        -888.291
  -2554549.421 9  -1978996.33945  23211682.013    23211683.0734   23211688.2034
      -389.168        -303.248
 -12869857.949 9 -10000578.16449  20094765.246    20094766.7314   20094770.5244
      2969.765        2314.102
   2486315.363 9   1938058.91047  21557254.964    21557255.4174   21557260.7864
     -1478.605       -1152.160
 94  3 17  9 32 59.9970000  0  9  2  9 19 31 23 27 17 26 16         -0.002866846
 -12508762.935 9  -9724516.15248  20505275.157    20505275.7964   20505280.6804
      2890.572        2252.394
  -5676633.65719  -4384462.08656  23803163.072    23803164.7315   23803170.7995
      5111.081        3982.661
   6557218.847 9   5099431.14446  23461845.014    23461845.9724   23461852.1904
     -1894.145       -1475.957
  -6565347.217 9  -5096945.48546  23235265.383    23235266.3144   23235270.8634
       726.378         566.009
 -10458606.076 9  -7762132.17746  23644631.955    23644632.5014   23644637.5994
      4700.394        3662.645
   1736217.880 9   1353768.32648  20870057.693    20870058.6194   20870063.5254
     -1146.541        -893.409
  -2546660.053 9  -1972848.79845  23213183.534    23213184.3284   23213189.5354
      -399.965        -311.661
 -12929163.348 9 -10046790.16849  20083479.625    20083481.2514   20083485.0564
      2960.579        2306.945
   2515968.237 9   1961164.98948  21562897.563    21562898.2164   21562903.6434
     -1486.807       -1158.551
 94  3 17  9 33 19.9970000  0  9  2  9 19 31 23 27 17 26 16         -0.002886804
 -12566455.084 9  -9769471.07548  20494296.801    20494297.3644   20494302.2724
      2878.759        2243.189
  -5778835.600 9  -4464099.95746  23783715.190    23783716.4284   23783722.4894
      5109.012        3981.048
   6595117.325 9   5128962.39446  23469056.760    23469057.8584   23469064.0184
     -1895.690       -1477.161
  -6579741.007 9  -5108161.45646  23232526.357    23232527.2514   23232531.8904
       712.818         555.442
 -10552543.739 9  -7835330.37156  23626756.192    23626756.7605   23626761.8665
      4693.267        3657.091
   1759220.008 9   1371692.02948  20874434.771    20874435.7804   20874440.7104
     -1153.735        -899.014
  -2538554.495 9  -1966532.79345  23214726.097    23214726.7914   23214731.9104
      -410.507        -319.875
 -12988279.625 9 -10092854.80549  20072230.105    20072231.7864   20072235.6104
      2951.074        2299.538
   2545786.327 9   1984399.81147  21568571.467    21568572.4514   21568577.9034
     -1494.988       -1164.926
 94  3 17  9 33 39.9970000  0  9  2  9 19 31 23 27 17 26 16         -0.002906763
 -12623913.861 9  -9814244.14648  20483362.732    20483363.3194   20483368.2654
      2867.406        2234.342
  -5880994.804 9  -4543704.55945  23764274.951    23764276.2154   23764282.1654
      5107.185        3979.625
   6633050.303 9   5158520.52646  23476275.170    23476276.2644   23476282.4844
     -1897.324       -1478.434
  -6593860.792 9  -5119163.89346  23229839.511    23229840.3924   23229844.8754
       699.341         544.941
 -10646338.244 9  -7908417.00756  23608907.964    23608908.2625   23608913.3535
      4686.367        3651.715
   1782367.831 9   1389729.26148  20878839.641    20878840.6764   20878845.6424
     -1160.924        -904.616
  -2530238.374 9  -1960052.70545  23216308.325    23216309.3344   23216314.4144
      -420.819        -327.911
 -13047203.281 9 -10138769.34649  20061017.377    20061019.0054   20061022.8374
      2941.511        2292.086
   2575768.191 9   2007762.24947  21574276.957    21574277.8204   21574283.3494
     -1502.996       -1171.166
 94  3 17  9 33 59.9970000  0  9  2  9 19 31 23 27 17 26 16         -0.002926730
 -12681156.273 9  -9858848.62248  20472469.904    20472470.4444   20472475.3924
      2856.453        2225.807
  -5983124.831 9  -4623286.41245  23744840.170    23744841.4014   23744847.3934
      5105.481        3978.297
   6671004.981 9   5188095.56646  23483497.598    23483498.7734   23483505.1054
     -1898.461       -1479.320
  -6607716.849 9  -5129960.81646  23227202.692    23227203.6244   23227208.1724
       685.949         534.506
 -10740004.776 9  -7981403.92356  23591083.771    23591084.0985   23591089.2155
      4679.990        3646.745
   1805652.236 9   1407872.92548  20883270.542    20883271.5664   20883276.5114
     -1167.844        -910.008
  -2521726.257 9  -1953419.91245  23217927.977    23217929.2234   23217934.2024
      -430.636        -335.560
 -13105947.186 9 -10184543.82549  20049838.840    20049840.4224   20049844.2784
      2932.598        2285.141
   2605895.384 9   2031237.92747  21580009.956    21580010.8304   21580016.4124
     -1510.000       -1176.623
 94  3 17  9 34 19.9970000  0  9  2  9 19 31 23 27 17 26 16         -0.002946705
 -12738171.682 9  -9903276.21048  20461620.217    20461620.7564   20461625.7324
      2845.029        2216.906
  -6085219.363 8  -4702840.55545  23725411.913    23725413.3134   23725419.5084
      5104.016        3977.155
   6708988.768 9   5217693.28245  23490725.864    23490726.8454   23490733.2524
     -1899.967       -1480.494
  -6621298.366 9  -5140543.80546  23224618.110    23224619.0864   23224623.7954
       672.146         523.750
 -10833538.568 9  -8054287.39746  23573285.061    23573285.2244   23573290.2944
      4673.334        3641.559
   1829078.164 9   1426126.86948  20887728.412    20887729.3564   20887734.3444
     -1174.741        -915.383
  -2513015.954 9  -1946632.69345  23219585.391    23219586.7994   23219591.6904
      -440.486        -343.236
 -13164506.900 9 -10230174.77349  20038695.438    20038696.8884   20038700.7734
      2923.378        2277.957
   2636164.723 9   2054824.37147  21585769.858    21585770.9024   21585776.4974
     -1516.979       -1182.062
 94  3 17  9 34 39.9970000  0  9  2  9 19 31 23 27 17 26 16         -0.002966685
 -12794956.552 9  -9947524.15548  20450814.441    20450814.9474   20450819.9134
      2833.449        2207.882
  -6187282.651 9  -4782370.35745  23705989.602    23705991.2224   23705997.4454
      5102.409        3975.903
   6747001.475 9   5247313.54845  23497959.547    23497960.4134   23497966.6384
     -1901.457       -1481.655
  -6634602.241 9  -5150910.45546  23222086.348    23222087.3944   23222092.3854
       658.291         512.954
 -10926940.664 9  -8127068.23846  23555511.154    23555511.2974   23555516.4824
      4666.882        3636.531
   1852643.445 9   1444489.39748  20892212.676    20892213.6974   20892218.6964
     -1181.836        -920.911
  -2504103.756 9  -1939688.14145  23221281.324    23221282.7914   23221287.6904
      -450.651        -351.157
 -13222884.670 9 -10275663.94749  20027586.686    20027587.9614   20027591.8534
      2914.441        2270.993
   2666575.581 9   2078521.09647  21591556.958    21591557.9744   21591563.4944
     -1524.081       -1187.596
 94  3 17  9 34 59.9970000  0  9  2  9 19 31 23 27 17 26 16         -0.002986672
 -12851513.683 9  -9991594.64548  20440051.879    20440052.4514   20440057.4284
      2822.058        2199.006
  -6289321.189 9  -4861880.90846  23686572.743    23686573.9984   23686580.2394
      5101.199        3974.960
   6785038.537 9   5276952.79745  23505197.603    23505198.5954   23505204.8804
     -1902.555       -1482.510
  -6647633.406 9  -5161064.58646  23219606.687    23219607.7104   23219612.6464
       644.566         502.259
 -11020223.012 9  -8199755.77546  23537760.006    23537760.2384   23537765.3914
      4661.024        3631.967
   1876347.738 9   1462960.23848  20896723.424    20896724.5054   20896729.5104
     -1188.807        -926.343
  -2494991.896 9  -1932588.01746  23223015.410    23223016.7804   23223021.6234
      -460.823        -359.083
 -13281088.365 9 -10321017.48149  20016511.044    20016512.1784   20016516.0774
      2905.662        2264.152
   2697124.528 9   2102325.41147  21597370.255    21597371.2944   21597376.7854
     -1531.089       -1193.056
 94  3 17  9 35 19.9970000  0  9  2  9 19 31 23 27 17 26 16         -0.003006666
 -12907842.148 9 -10035486.95248  20429332.807    20429333.4804   20429338.5044
      2810.922        2190.329
  -6391331.564 9  -4941369.48846  23667160.760    23667162.1114   23667168.3834
      5099.872        3973.926
   6823097.951 9   5306609.45245  23512440.048    23512441.0484   23512447.3344
     -1903.409       -1483.176
  -6660389.954 9  -5171004.73446  23217179.375    23217180.2714   23217185.1194
       631.235         491.871
 -11113385.805 9  -8272350.15046  23520031.676    23520031.9294   23520037.0164
      4655.360        3627.553
   1900190.272 9   1481538.80448  20901260.469    20901261.5894   20901266.6224
     -1195.485        -931.547
  -2485673.069 9  -1925326.60846  23224788.882    23224790.1054   23224794.9334
      -471.012        -367.022
 -13339114.398 9 -10366232.57749  20005469.239    20005470.2454   20005474.1034
      2896.998        2257.401
   2727813.170 9   2126238.58347  21603210.262    21603211.1874   21603216.7064
     -1537.827       -1198.307
 94  3 17  9 35 39.9960000  0  9  2  9 19 31 23 27 17 26 16         -0.003026659
 -12963941.677 9 -10079200.87048  20418657.243    20418658.0674   20418663.1354
      2799.496        2181.425
  -6493302.493 9  -5020827.33646  23647756.566    23647757.7454   23647764.0314
      5097.970        3972.444
   6861183.079 9   5336286.14945  23519687.505    23519688.3634   23519694.8604
     -1905.230       -1484.595
  -6672879.692 9  -5180737.00446  23214802.698    23214803.6074   23214808.4354
       618.095         481.632
 -11206425.755 9  -8344848.80246  23502326.705    23502327.0164   23502332.0184
      4649.311        3622.840
   1924169.405 9   1500223.81248  20905823.551    20905824.6824   20905829.7424
     -1202.334        -936.884
  -2476142.638 9  -1917900.33245  23226602.761    23226603.7544   23226608.5974
      -481.983        -375.571
 -13396960.113 9 -10411307.16449  19994461.477    19994462.6034   19994466.4244
      2888.076        2250.449
   2758645.690 9   2150263.86847  21609077.664    21609078.4514   21609083.9924
     -1545.410       -1204.216
 94  3 17  9 35 59.9960000  0  9  2  9 19 31 23 27 17 26 16         -0.003046652
 -13019810.532 9 -10122735.04348  20408025.741    20408026.5644   20408031.6584
      2787.668        2172.209
  -6595238.361 8  -5100257.84045  23628358.817    23628359.8954   23628366.2804
      5095.840        3970.784
   6899309.442 9   5365994.98146  23526942.755    23526943.6334   23526950.1104
     -1907.119       -1486.067
  -6685107.645 9  -5190265.25947  23212475.735    23212476.7264   23212481.5624
       604.993         471.423
 -11299348.337 9  -8417255.99346  23484644.140    23484644.3944   23484649.3694
      4643.155        3618.043
   1948287.594 9   1519017.17548  20910412.940    20910414.2484   20910419.3464
     -1209.140        -942.187
  -2466389.828 9  -1910300.75846  23228458.330    23228459.6594   23228464.6004
      -493.084        -384.221
 -13454630.001 9 -10456244.74249  19983487.159    19983488.3894   19983492.1764
      2879.263        2243.582
   2789631.610 9   2174408.68947  21614973.924    21614974.8714   21614980.4434
     -1552.827       -1209.995
 94  3 17  9 36 19.9960000  0  9  2  9 19 31 23 27 17 26 16         -0.003066636
 -13075433.453 9 -10166077.57948  20397441.035    20397441.8824   20397446.9614
      2775.400        2162.649
  -6697123.594 8  -5179648.86745  23608970.825    23608971.5014   23608978.1154
      5093.519        3968.976
   6937483.974 9   5395741.34846  23534206.382    23534208.0064   23534214.5194
     -1909.665       -1488.051
  -6697068.966 9  -5199585.75946  23210199.484    23210200.5244   23210205.5224
       591.734         461.091
 -11392137.998 9  -8489559.60846  23466986.712    23466987.1314   23466992.1214
      4636.492        3612.851
   1972546.713 9   1537920.35548  20915029.402    20915030.6574   20915035.7584
     -1216.047        -947.569
  -2456406.953 9  -1902521.92146  23230358.119    23230359.3774   23230364.3434
      -504.563        -393.166
 -13512117.068 9 -10501039.86649  19972547.848    19972548.9954   19972552.7564
      2870.144        2236.476
   2820774.576 9   2198675.87547  21620900.284    21620901.1884   21620906.7924
     -1560.888       -1216.276
 94  3 17  9 36 39.9960000  0  9  2  9 19 31 23 27 17 26 16         -0.003086615
 -13130828.132 9 -10209242.26248  20386899.844    20386900.6294   20386905.7144
      2763.978        2153.749
  -6798969.686 8  -5259009.37945  23589591.132    23589590.6754   23589597.3554
      5090.937        3966.964
   6975698.279 9   5425518.69246  23541478.780    23541480.0894   23541486.5594
     -1911.919       -1489.807
  -6708777.589 9  -5208709.36746  23207971.216    23207972.3674   23207977.4274
       578.944         451.125
 -11484801.802 9  -8561765.17746  23449353.596    23449353.8114   23449358.7044
      4629.822        3607.654
   1996930.676 9   1556920.81048  20919669.661    20919670.8074   20919675.9344
     -1222.599        -952.675
  -2446210.447 9  -1894576.60746  23232298.962    23232299.8214   23232304.6264
      -515.255        -401.497
 -13569433.179 9 -10545701.77749  19961641.071    19961642.1404   19961645.8764
      2861.359        2229.630
   2852070.234 9   2223062.04747  21626855.618    21626856.5924   21626862.2484
     -1568.850       -1222.481
 94  3 17  9 36 59.9960000  0  9  2  9 19 31 23 27 17 26 16         -0.003106584
 -13185989.644 9 -10252225.25448  20376402.920    20376403.7174   20376408.8004
      2752.423        2144.745
  -6900759.732 9  -5338326.27245  23570220.659    23570220.5874   23570227.1374
      5088.340        3964.940
   7013962.609 9   5455335.03146  23548760.678    23548761.5294   23548768.0384
     -1914.083       -1491.493
  -6720230.616 9  -5217633.80346  23205791.898    23205792.8774   23205797.9084
       566.552         441.469
 -11577327.685 9  -8633863.25846  23431746.532    23431746.7024   23431751.4714
      4622.986        3602.327
   2021451.052 9   1576027.56248  20924335.830    20924336.8834   20924342.0614
     -1229.110        -957.748
  -2435796.257 9  -1886461.65745  23234280.781    23234281.6454   23234286.4464
      -525.870        -409.769
 -13626567.131 9 -10590221.74549  19950768.896    19950769.9234   19950773.6564
      2852.318        2222.585
   2883527.442 9   2247574.10347  21632841.876    21632842.7594   21632848.3954
     -1576.591       -1228.512
 94  3 17  9 37 19.9960000  0  9  2  9 19 31 23 27 17 26 16         -0.003126550
 -13240923.273 9 -10295030.68148  20365949.355    20365950.1814   20365955.2524
      2740.979        2135.828
  -7002501.486 9  -5417605.60945  23550859.234    23550859.8874   23550866.0854
      5085.714        3962.894
   7052266.330 9   5485182.04346  23556049.785    23556050.5374   23556057.0164
     -1916.325       -1493.240
  -6731438.207 9  -5226366.98147  23203659.273    23203660.2044   23203665.2114
       554.250         431.883
 -11669716.955 9  -8705854.87046  23414165.067    23414165.5744   23414170.3904
      4615.911        3596.814
   2046097.052 9   1595232.20548  20929025.825    20929026.9004   20929032.1024
     -1235.578        -962.788
  -2425172.689 9  -1878183.56745  23236302.287    23236303.1044   23236308.1174
      -536.359        -417.942
 -13683524.224 9 -10634603.89749  19939930.454    19939931.3384   19939935.0954
      2843.377        2215.618
   2915138.360 9   2272205.93347  21638857.415    21638858.1544   21638863.7954
     -1584.554       -1234.717
 94  3 17  9 37 39.9960000  0  9  2  9 19 31 23 27 17 26 16         -0.003146513
 -13295634.692 9 -10337662.95748  20355538.177    20355538.9584   20355543.9674
      2730.255        2127.471
  -7104198.231 9  -5496849.86845  23531507.006    23531507.7964   23531513.4904
      5084.040        3961.590
   7090607.349 9   5515058.10446  23563345.425    23563346.6694   23563353.1234
     -1917.692       -1494.305
  -6742404.176 9  -5234911.89047  23201572.677    23201573.4404   23201578.5514
       542.327         422.592
 -11761974.934 9  -8777744.17746  23396608.941    23396609.4994   23396614.2644
      4609.838        3592.082
   2070866.963 9   1614533.40648  20933739.496    20933740.4924   20933745.7024
     -1241.355        -967.290
  -2414348.354 9  -1869749.04645  23238362.168    23238362.8664   23238367.8534
      -545.958        -425.422
 -13740307.731 9 -10678850.79149  19929124.803    19929125.7564   19929129.5274
      2834.984        2209.078
   2946901.113 9   2296956.07047  21644901.879    21644902.4404   21644908.1264
     -1591.733       -1240.311
 94  3 17  9 37 59.9960000  0  9  2  9 19 31 23 27 17 26 16         -0.003166477
 -13350126.448 9 -10380124.05948  20345168.890    20345169.5334   20345174.4864
      2718.965        2118.674
  -7205857.332 9  -5576064.71845  23512162.237    23512162.6954   23512168.4024
      5081.819        3959.859
   7128979.436 9   5544958.40246  23570646.927    23570648.5834   23570655.1844
     -1919.387       -1495.626
  -6753120.737 9  -5243262.44746  23199533.481    23199534.2214   23199539.2564
       529.261         412.411
 -11854101.397 9  -8849531.02046  23379077.832    23379078.4364   23379083.0914
      4602.820        3586.613
   2095759.292 9   1633929.99648  20938476.396    20938477.3804   20938482.6074
     -1247.849        -972.350
  -2403330.897 9  -1861164.03945  23240458.722    23240459.4824   23240464.3724
      -555.777        -433.073
 -13796914.820 9 -10722960.21249  19918352.718    19918353.7984   19918357.5674
      2825.719        2201.859
   2978812.765 9   2321822.24047  21650974.783    21650975.1094   21650980.7434
     -1599.424       -1246.304
 94  3 17  9 38 19.9960000  0  9  2  9 19 31 23 27 17 26 16         -0.003186441
 -13404400.626 9 -10422415.62248  20334840.939    20334841.5194   20334846.3834
      2708.610        2110.605
  -7307476.004 9  -5655248.06645  23492824.741    23492825.1824   23492831.0134
      5080.331        3958.699
   7167376.271 9   5574877.94646  23577953.648    23577955.2644   23577961.8924
     -1920.188       -1496.250
  -6763576.857 9  -5251410.05547  23197543.775    23197544.5204   23197549.4874
       516.453         402.431
 -11946090.743 9  -8921211.00446  23361573.137    23361573.4094   23361578.0704
      4596.304        3581.535
   2120777.874 9   1653424.96848  20943237.486    20943238.2964   20943243.5194
     -1253.887        -977.055
  -2392119.163 9  -1852427.63345  23242592.482    23242592.9504   23242597.9214
      -565.302        -440.495
 -13853340.288 9 -10766928.11749  19907615.380    19907616.4184   19907620.1774
      2816.997        2195.062
   3010875.291 9   2346805.96747  21657076.234    21657076.4564   21657082.0524
     -1606.789       -1252.043
 94  3 17  9 38 39.9960000  0  9  2  9 19 31 23 27 17 26 16         -0.003206405
 -13458458.602 9 -10464538.72148  20324554.126    20324554.6624   20324559.4614
      2697.123        2101.654
  -7409058.514 9  -5734403.20245  23473494.394    23473494.6114   23473500.5324
      5077.888        3956.796
   7205796.200 9   5604815.51946  23585265.036    23585266.3854   23585272.9384
     -1921.848       -1497.544
  -6773770.884 9  -5259353.45147  23195603.744    23195604.6624   23195609.6624
       502.935         391.897
 -12037943.179 9  -8992784.33146  23344094.504    23344094.5014   23344099.1174
      4588.908        3575.772
   2145925.283 9   1673020.32048  20948022.894    20948023.7014   20948028.9204
     -1260.911        -982.528
  -2380710.459 9  -1843537.74945  23244763.258    23244763.9354   23244768.9494
      -575.705        -448.601
 -13909582.015 9 -10810752.84549  19896912.919    19896913.9894   19896917.7304
      2807.130        2187.374
   3043094.320 9   2371911.64847  21663207.392    21663207.5954   21663213.1014
     -1615.122       -1258.537
 94  3 17  9 38 59.9960000  0  9  2  9 19 31 23 27 17 26 16         -0.003226359
 -13512272.629 9 -10506471.72748  20314313.700    20314314.2174   20314318.9824
      2684.443        2091.774
  -7510585.433 9  -5813515.01345  23454174.184    23454174.4934   23454180.7294
      5075.244        3954.736
   7244256.071 9   5634784.21246  23592584.153    23592585.1764   23592591.5734
     -1923.891       -1499.136
  -6783687.564 9  -5267080.72146  23193716.701    23193717.5424   23193722.4674
       489.031         381.063
 -12129640.172 9  -9064236.51546  23326645.069    23326645.1424   23326649.7584
      4581.001        3569.611
   2171222.888 9   1692732.71148  20952836.830    20952837.7204   20952842.9294
     -1268.538        -988.471
  -2369082.875 9  -1834477.30845  23246976.047    23246976.6154   23246981.6634
      -586.835        -457.274
 -13965616.496 9 -10854416.08149  19886249.806    19886250.9954   19886254.7264
      2796.618        2179.183
   3075484.431 9   2397150.63847  21669370.643    21669371.2974   21669376.7284
     -1623.577       -1265.125
 94  3 17  9 39 19.9960000  0  9  2  9 19 31 23 27 17 26 16         -0.003246314
 -13565850.956 9 -10548221.07248  20304118.144    20304118.5834   20304123.3524
      2673.437        2083.198
  -7612079.696 9  -5892601.40745  23434860.301    23434860.6904   23434867.0064
      5074.161        3953.892
   7282736.568 9   5664768.99746  23599906.984    23599907.9004   23599914.1244
     -1924.147       -1499.335
  -6793346.444 9  -5274607.11146  23191878.810    23191879.5134   23191884.4714
       476.855         371.575
 -12221197.215 9  -9135579.65046  23309222.189    23309222.4164   23309227.0794
      4574.627        3564.644
   2196654.413 9   1712549.45148  20957676.297    20957677.2434   20957682.3684
     -1274.642        -993.228
  -2357251.058 9  -1825257.72946  23249227.413    23249228.0754   23249233.2404
      -596.374        -464.707
 -14021461.104 9 -10897931.36449  19875622.761    19875624.1264   19875627.8444
      2787.873        2172.369
   3108024.527 9   2422506.49947  21675563.152    21675563.5104   21675568.9454
     -1630.356       -1270.407
 94  3 17  9 39 39.9960000  0  9  2  9 19 31 23 27 17 26 16         -0.003266284
 -13619213.693 9 -10589802.42748  20293963.493    20293963.9644   20293968.7574
      2662.521        2074.692
  -7713553.533 9  -5971671.89045  23415550.392    23415550.9114   23415557.1914
      5073.057        3953.031
   7321219.424 9   5694755.61346  23607229.880    23607230.9564   23607237.1694
     -1924.333       -1499.480
  -6802765.008 9  -5281946.25846  23190086.286    23190087.1824   23190092.1474
       464.792         362.175
 -12312628.714 9  -9206824.97746  23291823.709    23291823.6274   23291828.2074
      4568.199        3559.636
   2222203.484 9   1732457.78948  20962538.132    20962539.1204   20962544.1754
     -1280.428        -997.736
  -2345232.009 9  -1815892.25045  23251514.399    23251515.2084   23251520.5214
      -605.789        -472.043
 -14077134.323 9 -10941313.09649  19865028.357    19865029.8514   19865033.5684
      2779.213        2165.620
   3140692.894 9   2447962.30847  21681779.511    21681780.0844   21681785.5734
     -1636.620       -1275.288
 94  3 17  9 39 59.9960000  0  9  2  9 19 31 23 27 17 26 16         -0.003286265
 -13672353.102 9 -10631209.75748  20283851.440    20283851.8874   20283856.6574
      2651.453        2066.067
  -7815004.561 9  -6050724.62445  23396245.042    23396245.5644   23396251.4564
      5072.021        3952.224
   7359703.987 9   5724743.56846  23614553.206    23614554.2984   23614560.5644
     -1924.174       -1499.356
  -6811941.140 9  -5289096.49046  23188339.955    23188340.9604   23188345.8804
       452.822         352.848
 -12403924.738 9  -9277964.75046  23274450.747    23274450.5544   23274455.2354
      4561.401        3554.338
   2247867.098 9   1752455.38348  20967421.836    20967422.7864   20967427.7904
     -1285.902       -1002.002
  -2333020.143 9  -1806376.52145  23253838.145    23253839.0674   23253844.4534
      -615.384        -479.520
 -14132632.620 9 -10984558.52849  19854467.403    19854468.8674   19854472.5824
      2770.656        2158.953
   3173486.545 9   2473515.74147  21688019.764    21688020.5664   21688026.0404
     -1642.670       -1280.003
 94  3 17  9 40 19.9960000  0  9  2  9 19 31 23 27 17 26 16         -0.003306253
 -13725258.775 9 -10672434.95248  20273783.842    20273784.2954   20273789.0184
      2639.252        2056.560
  -7916418.856 9  -6129748.76045  23376946.639    23376947.1494   23376952.5144
      5069.606        3950.342
   7398199.402 9   5754739.99145  23621878.725    23621879.7734   23621886.0084
     -1925.231       -1500.180
  -6820871.387 9  -5296055.12646  23186640.719    23186641.6114   23186646.4834
       440.282         343.077
 -12495075.291 9  -9348991.15746  23257105.332    23257105.2134   23257109.8704
      4553.800        3548.416
   2273649.138 9   1772545.25848  20972328.042    20972328.9904   20972333.9754
     -1292.124       -1006.850
  -2320601.552 9  -1796699.70745  23256201.260    23256202.2134   23256207.6164
      -626.271        -488.003
 -14187949.686 9 -11027662.74049  19843940.910    19843942.3614   19843946.0674
      2761.245        2151.619
   3206410.704 9   2499170.87147  21694284.961    21694285.9084   21694291.3634
     -1649.508       -1285.331
 94  3 17  9 40 39.9960000  0  9  2  9 19 31 23 27 17 26 16         -0.003326243
 -13777917.575 9 -10713467.77948  20263763.336    20263763.6834   20263768.3874
      2626.900        2046.935
  -8017786.769 9  -6208736.77245  23357656.895    23357657.4794   23357662.5534
      5067.374        3948.603
   7436720.468 9   5784756.38845  23629209.204    23629210.0784   23629216.3374
     -1926.621       -1501.263
  -6829552.726 9  -5302819.79846  23184988.703    23184989.5204   23184994.4824
       428.118         333.598
 -12586073.600 9  -9419898.93246  23239788.465    23239788.8264   23239793.5394
      4546.308        3542.578
   2299556.591 9   1792732.85448  20977257.953    20977259.0514   20977264.0104
     -1298.380       -1011.725
  -2307970.015 9  -1786856.97445  23258604.777    23258605.8964   23258611.3254
      -636.418        -495.910
 -14243075.315 9 -11070617.78349  19833450.861    19833452.2724   19833455.9784
      2751.571        2144.081
   3239470.087 9   2524931.35747  21700575.796    21700576.9294   21700582.5234
     -1656.092       -1290.461
 94  3 17  9 40 59.9960000  0  9  2  9 19 31 23 27 17 26 16         -0.003346238
 -13830329.730 9 -10754308.41348  20253789.611    20253789.9904   20253794.7044
      2614.316        2037.129
  -8119104.617 9  -6287685.74045  23338376.893    23338377.3704   23338382.5204
      5064.420        3946.301
   7475269.558 9   5814794.60945  23636545.100    23636545.7694   23636552.0074
     -1928.295       -1502.568
  -6837988.447 9  -5309393.10646  23183383.456    23183384.1684   23183389.2814
       415.344         323.645
 -12676922.004 9  -9490689.90846  23222500.507    23222500.9704   23222505.7314
      4538.500        3536.494
   2325589.905 9   1813018.52548  20982211.871    20982213.0724   20982217.9974
     -1304.967       -1016.857
  -2295139.703 9  -1776859.33746  23261046.589    23261047.4894   23261052.8414
      -646.564        -503.816
 -14298006.104 9 -11113421.00449  19822997.966    19822999.2894   19823002.9784
      2741.601        2136.312
   3272659.242 9   2550792.97047  21706891.723    21706892.6224   21706898.2874
     -1662.880       -1295.751
 94  3 17  9 41 19.9960000  0  9  2  9 19 31 23 27 17 26 16         -0.003366235
 -13882497.222 9 -10794958.40248  20243862.412    20243862.8314   20243867.5764
      2602.415        2027.856
  -8220365.406 8  -6366590.18945  23319107.339    23319107.9904   23319113.4674
      5061.352        3943.911
   7513846.791 9   5844854.78045  23643886.154    23643886.7954   23643893.1144
     -1929.599       -1503.584
  -6846168.353 9  -5315767.05946  23181826.644    23181827.4834   23181832.6064
       402.470         313.613
 -12767617.642 9  -9561361.84346  23205241.440    23205242.1884   23205246.9764
      4530.932        3530.596
   2351751.625 9   1833404.25148  20987190.425    20987191.5154   20987196.4034
     -1311.418       -1021.884
  -2282111.656 9  -1766707.63345  23263525.618    23263526.6334   23263531.8824
      -656.463        -511.530
 -14352744.763 9 -11156074.51349  19812581.637    19812582.8974   19812586.5784
      2732.095        2128.905
   3305982.302 9   2576758.93047  21713233.006    21713233.9014   21713239.5084
     -1669.644       -1301.021
 94  3 17  9 41 39.9960000  0  9  2  9 19 31 23 27 17 26 16         -0.003386230
 -13934428.254 9 -10835424.13648  20233980.264    20233980.6944   20233985.4164
      2590.930        2018.906
  -8321560.599 8  -6445443.46745  23299849.494    23299850.8874   23299856.7784
      5058.482        3941.674
   7552449.382 9   5874934.70245  23651231.177    23651232.5624   23651239.0344
     -1930.463       -1504.257
  -6854086.563 9  -5321937.10946  23180319.791    23180320.6954   23180325.8584
       389.585         303.573
 -12858164.368 9  -9631917.74246  23188010.822    23188011.6974   23188016.5524
      4524.110        3525.281
   2378039.937 9   1853888.62048  20992193.037    20992194.0554   20992198.9124
     -1317.098       -1026.310
  -2268882.632 9  -1756399.30245  23266042.762    23266044.0154   23266049.3534
      -666.142        -519.072
 -14407292.788 9 -11198579.47649  19802201.428    19802202.7914   19802206.4624
      2723.039        2121.849
   3339440.550 9   2602830.22147  21719600.001    21719600.8174   21719606.4924
     -1675.931       -1305.920
 94  3 17  9 41 59.9960000  0  9  2  9 19 31 23 27 17 26 16         -0.003406227
 -13986133.822 9 -10875714.18248  20224140.908    20224141.4584   20224146.1714
      2579.800        2010.234
  -8422702.924 9  -6524255.56745  23280602.746    23280604.0274   23280610.0974
      5055.961        3939.710
   7591068.975 9   5905027.87045  23658580.439    23658581.6024   23658588.1604
     -1931.389       -1504.978
  -6861748.813 9  -5327907.68146  23178861.601    23178862.5354   23178867.6984
       376.845         293.645
 -12948580.590 9  -9702371.92046  23170805.460    23170806.0504   23170811.0154
      4517.745        3520.321
   2404440.280 9   1874460.28747  20997216.979    20997217.9014   20997222.7304
     -1322.872       -1030.809
  -2255466.701 9  -1745945.34345  23268595.707    23268596.9274   23268602.3504
      -675.365        -526.258
 -14461662.218 9 -11240945.27149  19791855.295    19791856.6894   19791860.3184
      2714.070        2114.860
   3373023.488 9   2628998.67547  21725990.909    21725991.4724   21725997.2424
     -1682.192       -1310.799
 94  3 17  9 42 19.9960000  0  9  2  9 19 31 23 27 17 26 16         -0.003426225
 -14037616.237 9 -10915830.34548  20214344.180    20214344.7054   20214349.4324
      2568.680        2001.569
  -8523786.926 9  -6603022.27146  23261367.354    23261368.4124   23261374.5714
      5052.670        3937.145
   7629712.694 8   5935139.81945  23665933.909    23665935.3454   23665941.8554
     -1932.933       -1506.182
  -6869153.943 9  -5333677.90346  23177452.770    23177453.4624   23177458.6014
       363.843         283.514
 -13038868.690 9  -9772726.27946  23153623.991    23153624.7834   23153629.7514
      4511.370        3515.353
   2430961.811 9   1895126.38347  21002263.957    21002264.7934   21002269.6294
     -1329.110       -1035.670
  -2241867.333 9  -1735348.45045  23271184.092    23271184.8824   23271190.2514
      -684.237        -533.172
 -14515849.671 9 -11283169.27149  19781543.928    19781545.2164   19781548.8094
      2704.970        2107.769
   3406736.629 9   2655268.59747  21732406.150    21732406.9444   21732412.6234
     -1688.846       -1315.984
 94  3 17  9 42 39.9960000  0  8  2  9 31 23 27 17 26 16            -0.003446241
 -14088877.706 9 -10955774.34248  20204589.428    20204589.9844   20204594.7424
      2557.517        1992.870
  -8624809.550 9  -6681741.16546  23242143.993    23242144.5774   23242150.6824
      5049.687        3934.821
  -6876303.087 9  -5339248.68046  23176092.289    23176092.8754   23176098.1894
       351.062         273.555
 -13129028.364 9  -9842980.56546  23136467.396    23136468.0044   23136472.9774
      4504.644        3510.112
   2457606.976 9   1915888.81647  21007334.305    21007335.2004   21007340.0724
     -1335.440       -1040.602
  -2228098.124 9  -1724619.20045  23273804.293    23273805.1484   23273810.4124
      -692.594        -539.684
 -14569859.114 9 -11325254.55749  19771266.261    19771267.5894   19771271.1904
      2696.020        2100.795
   3440579.595 9   2681639.66347  21738846.047    21738847.0554   21738852.8034
     -1695.383       -1321.078
 94  3 17  9 42 59.9960000  0  8  2  9 31 23 27 17 26 16            -0.003466235
 -14139912.139 9 -10995541.42448  20194877.875    20194878.4364   20194883.2344
      2546.178        1984.035
  -8725769.677 9  -6760411.37346  23222931.726    23222932.5794   23222938.5324
      5046.597        3932.413
  -6883194.100 9  -5344618.32346  23174780.612    23174781.4904   23174786.8794
       338.278         263.593
 -13219054.205 9  -9913130.56446  23119336.117    23119336.5984   23119341.5704
      4498.147        3505.050
   2484380.431 9   1936751.21547  21012429.166    21012430.0234   21012434.9354
     -1341.635       -1045.430
  -2214158.774 9  -1713757.39745  23276456.788    23276457.6494   23276462.9114
      -701.162        -546.360
 -14623688.980 9 -11367199.91349  19761022.675    19761024.1184   19761027.7394
      2687.273        2093.979
   3474557.436 9   2708115.84647  21745312.083    21745312.8954   21745318.6434
     -1702.128       -1326.333
 94  3 17  9 43 19.9960000  0  8  2  9 31 23 27 17 26 16            -0.003486223
 -14190720.455 9 -11035132.31748  20185209.291    20185209.9274   20185214.7584
      2534.864        1975.219
  -8826669.390 9  -6839034.53045  23203731.565    23203731.9914   23203737.6264
      5043.569        3930.054
  -6889831.539 9  -5349790.39546  23173517.603    23173518.4854   23173523.8184
       325.731         253.816
 -13308949.215 9  -9983178.61746  23102229.792    23102230.1424   23102235.0914
      4491.555        3499.913
   2511271.728 9   1957705.44447  21017546.530    21017547.2784   21017552.2494
     -1347.355       -1049.887
  -2200041.271 9  -1702756.77545  23279143.169    23279144.1554   23279149.3984
      -710.419        -553.573
 -14677348.503 9 -11409012.53349  19750811.672    19750813.0834   19750816.6794
      2678.785        2087.365
   3508665.388 9   2734693.39947  21751802.871    21751803.4614   21751809.2484
     -1708.472       -1331.277
 94  3 17  9 43 39.9960000  0  8  2  9 31 23 27 17 26 16            -0.003506218
 -14241309.285 9 -11074552.18248  20175582.619    20175583.2244   20175588.0564
      2523.740        1966.551
  -8927517.583 8  -6917617.54145  23184541.280    23184541.2064   23184546.5514
      5041.146        3928.166
  -6896228.042 9  -5354774.68546  23172300.467    23172301.3694   23172306.5974
       313.808         244.526
 -13398716.965 9 -10053127.50946  23085147.462    23085147.9184   23085152.9094
      4485.049        3494.843
   2538269.953 9   1978742.98747  21022684.132    21022684.8564   21022689.8824
     -1352.633       -1054.000
  -2185745.982 9  -1691617.60645  23281863.847    23281864.5894   23281869.7194
      -719.310        -560.501
 -14730837.962 9 -11450692.63549  19740632.935    19740634.3744   19740637.9654
      2669.934        2080.468
   3542890.567 9   2761362.31147  21758315.817    21758316.3784   21758322.0824
     -1714.219       -1335.755
 94  3 17  9 43 59.9960000  0  8  2  9 31 23 27 17 26 16            -0.003526216
 -14291661.725 9 -11113787.84148  20166000.917    20166001.4804   20166006.3084
      2511.688        1957.159
  -9028310.517 8  -6996157.43145  23165360.853    23165360.7944   23165366.2214
      5038.307        3925.954
  -6902375.191 9  -5359564.66746  23171130.533    23171131.5004   23171136.7904
       301.171         234.679
 -13488340.246 9 -10122963.83046  23068092.659    23068093.1464   23068098.1944
      4477.343        3488.839
   2565385.669 9   1999872.07947  21027844.082    21027844.8184   21027849.8784
     -1358.896       -1058.880
  -2171265.000 9  -1680333.73045  23284619.738    23284620.2474   23284625.2884
      -728.737        -567.847
 -14784135.841 9 -11492223.45449  19730490.627    19730492.1114   19730495.7514
      2659.940        2072.680
   3577244.117 9   2788131.24347  21764853.320    21764853.7044   21764859.4524
     -1721.004       -1341.042
 94  3 17  9 44 19.9960000  0  8  2  9 31 23 27 17 26 16            -0.003546217
 -14341770.268 9 -11152833.44848  20156465.665    20156466.1224   20156470.9804
      2499.222        1947.446
  -9129044.573 9  -7074651.41245  23146190.207    23146191.7084   23146197.4314
      5035.149        3923.493
  -6908269.005 9  -5364157.24746  23170009.071    23170010.1274   23170015.2274
       288.433         224.753
 -13577802.785 9 -10192674.89746  23051068.498    23051068.9254   23051073.9824
      4468.954        3482.302
   2592627.945 9   2021099.78947  21033027.982    21033028.8554   21033033.9454
     -1365.126       -1063.735
  -2156593.931 9  -1668901.75845  23287411.504    23287412.0944   23287417.0944
      -738.343        -575.332
 -14837231.029 9 -11533596.33049  19720386.884    19720388.4324   19720392.0934
      2649.709        2064.708
   3611733.584 9   2815006.07847  21771416.778    21771416.8814   21771422.6924
     -1727.866       -1346.389
 94  3 17  9 44 39.9960000  0  8  2  9 31 23 27 17 26 16            -0.003566218
 -14391631.839 9 -11191686.61448  20146977.287    20146977.7654   20146982.6604
      2487.022        1937.939
  -9229722.880 9  -7153101.97246  23127031.810    23127033.2174   23127039.1654
      5032.853        3921.704
  -6913912.738 9  -5368554.99346  23168935.092    23168936.1284   23168941.2824
       276.112         215.152
 -13667098.705 9 -10262256.10646  23034075.437    23034076.4214   23034081.5714
      4460.851        3475.988
   2619989.896 9   2042420.75247  21038234.586    21038235.6934   21038240.7874
     -1370.919       -1068.249
  -2141730.112 9  -1657319.58645  23290239.828    23290240.5304   23290245.4974
      -748.024        -582.876
 -14890124.559 9 -11574812.07349  19710321.522    19710323.1434   19710326.7774
      2639.657        2056.876
   3646357.205 9   2841985.44947  21778005.467    21778005.5444   21778011.4384
     -1734.230       -1351.348
 94  3 17  9 44 59.9960000  0  8  2  9 31 23 27 17 26 16            -0.003586230
 -14441252.178 9 -11230351.80848  20137534.790    20137535.2954   20137540.2264
      2474.850        1928.455
  -9330362.811 9  -7231522.66746  23107880.811    23107882.1914   23107888.1324
      5030.951        3920.222
  -6919313.577 9  -5372763.46846  23167907.445    23167908.4524   23167913.5144
       263.816         205.571
 -13756237.722 9 -10331715.07546  23017113.081    23017113.8324   23017118.9134
      4452.977        3469.852
   2647464.484 9   2063829.48847  21043462.780    21043463.9924   21043469.0444
     -1376.714       -1072.764
  -2126669.698 9  -1645584.20245  23293105.683    23293106.4394   23293111.4044
      -758.250        -590.844
 -14942817.123 9 -11615871.21649  19700294.520    19700296.0714   19700299.7074
      2629.438        2048.913
   3681101.236 9   2869058.65847  21784616.853    21784617.1634   21784622.9864
     -1740.268       -1356.053
 94  3 17  9 45 19.9960000  0  8  2  9 31 23 27 17 26 16            -0.003606252
 -14490633.175 9 -11268830.50448  20128137.823    20128138.3714   20128143.3474
      2463.091        1919.292
  -9430964.720 9  -7309913.75046  23088737.315    23088738.3954   23088744.3044
      5029.045        3918.736
  -6924467.618 9  -5376779.59946  23166926.780    23166927.8254   23166932.7024
       251.385         195.884
 -13845221.785 9 -10401053.28946  23000179.712    23000180.7704   23000185.7624
      4445.200        3463.792
   2675053.445 9   2085327.34347  21048712.802    21048714.0524   21048719.0624
     -1382.364       -1077.167
  -2111405.209 9  -1633689.81745  23296010.078    23296011.0744   23296016.2984
      -768.238        -598.627
 -14995307.093 9 -11656772.49549  19690305.873    19690307.5494   19690311.1734
      2619.387        2041.081
   3715960.681 9   2896221.78247  21791250.640    21791250.7314   21791256.6354
     -1745.840       -1360.395
 94  3 17  9 45 39.9960000  0  8  2  9 31 23 27 17 26 16            -0.003626282
 -14539775.428 9 -11307123.16648  20118786.296    20118786.8934   20118791.9084
      2451.568        1910.313
  -9531525.953 9  -7388273.13046  23069601.066    23069602.2854   23069608.1284
      5027.613        3917.620
  -6929368.849 9  -5380598.72646  23165994.117    23165995.1124   23165999.9884
       239.112         186.321
 -13934045.958 9 -10470266.92646  22983277.079    22983278.1034   22983283.0634
      4437.643        3457.904
   2702761.327 9   2106917.86347  21053985.674    21053986.7524   21053991.7644
     -1388.067       -1081.611
  -2095941.907 9  -1621640.50245  23298952.787    23298953.7054   23298958.9434
      -777.550        -605.883
 -15047591.866 9 -11697513.87949  19680356.443    19680358.0854   19680361.6944
      2609.493        2033.371
   3750938.562 9   2923477.20947  21797906.898    21797906.8884   21797912.7304
     -1751.526       -1364.825
 94  3 17  9 45 59.9960000  0  8  2  9 31 23 27 17 26 16            -0.003646326
 -14588690.203 9 -11345238.57048  20109478.091    20109478.7094   20109483.7744
      2439.743        1901.098
  -9632062.368 8  -7466613.16245  23050469.132    23050470.7834   23050476.5624
      5025.805        3916.212
  -6934028.851 9  -5384229.89546  23165107.379    23165108.3734   23165113.2214
       226.525         176.513
 -14022724.287 9 -10539366.90246  22966402.207    22966403.1534   22966408.1514
      4429.916        3451.883
   2730582.373 9   2128596.55547  21059279.766    21059280.9714   21059285.9854
     -1394.246       -1086.425
  -2080303.258 9  -1609454.56545  23301928.883    23301929.7484   23301934.8464
      -786.536        -612.885
 -15099687.002 9 -11738107.49649  19670443.110    19670444.6974   19670448.3344
      2599.894        2025.891
   3786029.970 9   2950821.09247  21804584.407    21804584.5814   21804590.4934
     -1757.814       -1369.725
 94  3 17  9 46 19.9960000  0  8  2  9 31 23 27 17 26 16            -0.003666373
 -14637372.694 9 -11383172.97648  20100214.044    20100214.7464   20100219.8234
      2428.550        1892.377
  -9732562.941 8  -7544925.23645  23031343.963    23031345.9214   23031351.6464
      5024.226        3914.981
  -6938443.855 9  -5387670.16046  23164267.331    23164268.3204   23164273.0514
       214.897         167.452
 -14111250.369 9 -10608348.25046  22949556.258    22949557.1994   22949562.1824
      4422.623        3446.200
   2758524.020 9   2150369.22647  21064596.662    21064598.1474   21064603.1384
     -1399.794       -1090.749
  -2064488.307 9  -1597131.24245  23304938.282    23304939.3464   23304944.3044
      -794.920        -619.418
 -15151600.125 9 -11778559.28249  19660564.455    19660565.9774   19660569.6134
      2591.449        2019.311
   3821237.882 9   2978255.76847  21811283.963    21811284.4674   21811290.3474
     -1763.012       -1373.775
 94  3 17  9 46 39.9960000  0  8  2  9 31 23 27 17 26 16            -0.003686420
 -14685820.421 9 -11420924.45248  20090994.789    20090995.4244   20091000.5154
      2416.033        1882.623
  -9833020.623 9  -7623203.90145  23012227.204    23012229.2464   23012234.9824
      5021.302        3912.703
  -6942614.558 9  -5390920.07546  23163473.656    23163474.6194   23163479.3574
       201.807         157.252
 -14199620.802 9 -10677208.32446  22932740.050    22932740.8624   22932745.7914
      4414.187        3439.626
   2786587.666 9   2172236.96347  21069937.114    21069938.5254   21069943.5134
     -1406.879       -1096.269
  -2048491.846 8  -1584666.48545  23307982.290    23307983.3094   23307988.3494
      -804.883        -627.182
 -15203331.156 9 -11818869.17949  19650720.521    19650721.9094   19650725.5404
      2581.402        2011.482
   3856563.089 9   3005781.83147  21818006.062    21818006.6614   21818012.6284
     -1769.798       -1379.063
 94  3 17  9 46 59.9960000  0  8  2  9 31 23 27 17 26 16            -0.003706466
 -14734037.013 9 -11458495.81748  20081819.443    20081820.1034   20081825.2034
      2405.174        1874.162
  -9933438.134 9  -7701451.31846  22993119.094    22993120.5014   22993126.0824
      5019.999        3911.688
  -6946540.533 9  -5393979.30646  23162726.620    23162727.5544   23162732.1934
       190.299         148.285
 -14287843.477 9 -10745953.25746  22915951.718    22915952.6214   22915957.5554
      4407.589        3434.485
   2814773.960 9   2194200.27447  21075301.054    21075302.2604   21075307.1944
     -1412.210       -1100.423
  -2032319.826 9  -1572064.93345  23311059.682    23311060.6684   23311065.8324
      -812.656        -633.238
 -15254879.060 9 -11859036.38049  19640911.262    19640912.6634   19640916.2994
      2572.989        2004.926
   3892003.658 9   3033397.79147  21824750.032    21824750.7894   21824756.7794
     -1774.835       -1382.988
 94  3 17  9 47 19.9960000  0  8  2  9 31 23 27 17 26 16            -0.003726518
 -14782030.689 9 -11495893.48048  20072686.500    20072687.2094   20072692.3254
      2393.789        1865.290
 -10033818.737 9  -7779669.97346  22974017.575    22974018.8404   22974024.3414
      5017.527        3909.761
  -6950226.988 9  -5396851.90646  23162025.303    23162026.0754   23162030.6414
       177.917         138.637
 -14375924.132 9 -10814587.52746  22899190.183    22899191.4324   22899196.3324
      4399.977        3428.553
   2843073.158 9   2216251.55647  21080686.317    21080687.4674   21080692.3754
     -1418.100       -1105.013
  -2015988.873 9  -1559339.53845  23314167.595    23314168.4154   23314173.5384
      -820.699        -639.506
 -15306252.002 9 -11899067.24749  19631135.372    19631136.7054   19631140.3624
      2563.843        1997.800
   3927556.996 9   3061101.62147  21831515.752    21831516.4514   21831522.4554
     -1781.023       -1387.810
 94  3 17  9 47 39.9960000  0  8  2  9 31 23 27 17 26 16            -0.003746570
 -14829796.996 9 -11533113.97248  20063596.815    20063597.5854   20063602.6884
      2382.239        1856.290
 -10134149.833 9  -7857850.02446  22954925.357    22954926.5414   22954932.0524
      5014.963        3907.763
  -6953670.302 9  -5399535.02246  23161370.030    23161370.7654   23161375.2774
       165.912         129.282
 -14463849.396 9 -10883100.72546  22882458.613    22882459.7854   22882464.7134
      4391.946        3422.296
   2871486.584 9   2238391.84847  21086093.184    21086094.3864   21086099.2794
     -1423.879       -1109.516
  -1999501.630 9  -1546492.35245  23317304.555    23317305.9124   23317310.9004
      -828.659        -645.708
 -15357439.803 9 -11938953.84549  19621394.610    19621395.9844   19621399.6674
      2554.226        1990.306
   3963237.158 9   3088904.28247  21838305.630    21838306.2074   21838312.1774
     -1787.629       -1392.958
 94  3 17  9 47 59.9960000  0  8  2  9 31 23 27 17 26 16            -0.003766623
 -14877333.234 9 -11570155.19048  20054551.017    20054551.7234   20054556.8574
      2371.055        1847.575
 -10234427.334 9  -7935988.30046  22935843.110    22935844.4594   22935850.0614
      5012.441        3905.798
  -6956873.116 9  -5402030.71546  23160760.703    23160761.2904   23160765.7864
       154.033         120.026
 -14551612.011 9 -10951487.18246  22865757.994    22865759.0624   22865763.9694
      4384.092        3416.176
   2900018.794 9   2260624.70047  21091522.693    21091523.9174   21091528.8344
     -1429.542       -1113.929
  -1982852.972 9  -1533519.41345  23320472.480    23320473.9794   23320479.0344
      -836.572        -651.874
 -15408432.414 9 -11978688.35149  19611691.046    19611692.3774   19611696.0884
      2544.746        1982.919
   3999047.571 9   3116808.41947  21845119.988    21845120.7334   21845126.8414
     -1793.595       -1397.606
 94  3 17  9 48 19.9960000  0  8  2  9 31 23 27 17 26 16            -0.003786678
 -14924641.765 9 -11607018.97348  20045548.452    20045549.2034   20045554.3414
      2359.592        1838.643
 -10334648.390 9  -8014082.57046  22916771.991    22916772.9784   22916778.7404
      5009.471        3903.484
  -6959834.078 9  -5404337.94846  23160197.228    23160197.8524   23160202.3834
       142.020         110.665
 -14639212.419 9 -11019747.23946  22849088.294    22849089.2784   22849094.1034
      4375.789        3409.706
   2928665.266 9   2282946.58847  21096973.979    21096975.1754   21096980.1124
     -1435.211       -1118.346
  -1966037.436 8  -1520416.39945  23323672.133    23323673.9484   23323678.9504
      -845.092        -658.513
 -15459229.335 9 -12018270.36749  19602024.517    19602026.0154   19602029.7724
      2534.662        1975.061
   4034975.686 9   3144804.30047  21851956.833    21851957.7534   21851963.7814
     -1799.389       -1402.121
 94  3 17  9 48 39.9960000  0  8  2  9 31 23 27 17 26 16            -0.003806738
 -14971717.295 9 -11643701.20148  20036590.176    20036590.9794   20036596.1424
      2347.921        1829.549
 -10434808.249 8  -8092129.11846  22897712.720    22897712.9464   22897718.9414
      5006.491        3901.162
  -6962548.726 9  -5406453.27546  23159680.619    23159681.2734   23159685.7504
       129.386         100.820
 -14726648.711 9 -11087879.41046  22832449.929    22832450.7494   22832455.5344
      4367.796        3403.477
   2957426.995 9   2305358.28947  21102447.242    21102448.3934   21102453.2924
     -1441.061       -1122.905
  -1949046.110 9  -1507176.44445  23326905.357    23326907.2984   23326912.3014
      -853.974        -665.434
 -15509818.203 9 -12057690.26449  19592397.828    19592399.2654   19592403.0594
      2524.181        1966.894
   4071023.908 9   3172893.73647  21858816.506    21858817.5514   21858823.6994
     -1805.460       -1406.852
 94  3 17  9 48 59.9960000  0  8  2  9 31 23 27 17 26 16            -0.003826803
 -15018552.696 9 -11680196.31648  20027677.660    20027678.4534   20027683.6294
      2335.921        1820.198
 -10534903.938 9  -8170125.66346  22878663.677    22878665.2804   22878671.3334
      5003.329        3898.698
  -6965007.853 9  -5408369.49846  23159212.523    23159213.3564   23159217.6954
       116.676          90.916
 -14813924.317 9 -11155886.37046  22815842.070    22815842.7734   22815847.5404
      4359.987        3397.392
   2986308.041 9   2327862.96747  21107943.187    21107944.3034   21107949.2014
     -1446.726       -1127.319
  -1931878.866 9  -1493799.38645  23330172.228    23330174.2264   23330179.0604
      -862.402        -672.002
 -15560194.367 9 -12096944.42049  19582811.645    19582812.9824   19582816.7824
      2513.727        1958.748
   4107192.714 9   3201077.16347  21865699.436    21865700.3264   21865706.3594
     -1811.116       -1411.259
 94  3 17  9 49 19.9960000  0  8  2  9 31 23 27 17 26 16            -0.003846873
 -15065150.669 9 -11716506.42148  20018810.338    20018811.1264   20018816.3214
      2323.915        1810.843
 -10634937.098 9  -8248073.58446  22859628.050    22859629.7694   22859635.3134
      4999.889        3896.017
  -6967215.681 9  -5410089.90846  23158792.545    23158793.3124   23158797.6974
       104.105          81.121
 -14901040.789 9 -11223769.32346  22799264.323    22799265.1044   22799269.8414
      4351.664        3390.907
   3015299.357 9   2350453.57047  21113460.091    21113461.2034   21113466.1104
     -1452.403       -1131.743
  -1914541.247 9  -1480289.57545  23333471.541    23333473.5064   23333478.3404
      -871.444        -679.047
 -15610364.913 9 -12136038.35149  19573264.544    19573265.8544   19573269.6574
      2503.343        1950.657
   4143471.819 9   3229346.52447  21872603.277    21872604.1344   21872610.1414
     -1816.785       -1415.677
 94  3 17  9 49 39.9960000  0  8  2  9 31 23 27 17 26 16            -0.003866943
 -15111508.711 9 -11752629.56748  20009988.714    20009989.4584   20009994.6874
      2311.358        1801.058
 -10734899.857 9  -8325966.64946  22840606.114    22840607.6364   22840612.7834
      4995.931        3892.933
  -6969174.317 9  -5411616.14046  23158419.835    23158420.6504   23158424.9144
        91.246          71.101
 -14987989.054 9 -11291521.23046  22782718.759    22782719.4314   22782724.0944
      4342.718        3383.936
   3044404.544 9   2373132.89947  21118998.828    21118999.7814   21119004.6984
     -1458.631       -1136.596
  -1897018.737 9  -1466635.68845  23336806.333    23336807.9784   23336812.8554
      -881.323        -686.745
 -15660332.375 9 -12174974.03849  19563756.024    19563757.3804   19563761.1934
      2492.948        1942.557
   4179861.922 9   3257702.37447  21879527.846    21879528.9584   21879534.9384
     -1822.691       -1420.279
 94  3 17  9 49 59.9960000  0  8  2  9 31 23 27 17 26 16            -0.003887008
 -15157618.330 9 -11788559.13648  20001214.318    20001215.0974   20001220.3154
      2299.435        1791.768
 -10834792.387 9  -8403804.98456  22821597.612    22821598.7425   22821603.8235
      4993.195        3890.801
  -6970879.810 9  -5412945.13246  23158095.260    23158096.1164   23158100.4164
        79.061          61.606
 -15074767.569 9 -11359140.84246  22766205.468    22766206.0944   22766210.7174
      4335.027        3377.943
   3073629.840 9   2395905.81947  21124560.190    21124561.1974   21124566.1504
     -1464.138       -1140.887
  -1879300.969 9  -1452829.65145  23340178.053    23340179.5534   23340184.4444
      -890.561        -693.944
 -15710098.648 9 -12213752.95549  19554285.952    19554287.1764   19554291.0034
      2483.546        1935.231
   4216360.855 9   3286143.03247  21886473.822    21886474.6044   21886480.5504
     -1827.412       -1423.957
 94  3 17  9 50 19.9960000  0  8  2  9 31 23 27 17 26 16            -0.003907071
 -15203475.022 9 -11824291.62148  19992488.301    19992488.8844   19992494.0844
      2286.305        1781.536
 -10934620.160 9  -8481592.80546  22802600.939    22802602.1354   22802607.3114
      4989.737        3888.107
  -6972327.262 9  -5414072.99846  23157819.784    23157820.7714   23157825.0204
        65.865          51.323
 -15161381.909 9 -11426632.51946  22749723.088    22749723.9674   22749728.5654
      4326.399        3371.220
   3102977.086 9   2418773.76947  21130144.509    21130145.8244   21130150.8264
     -1470.423       -1145.784
  -1861386.655 9  -1438870.45145  23343586.886    23343588.6034   23343593.4604
      -900.736        -701.872
 -15759667.467 9 -12252378.01249  19544853.302    19544854.5854   19544858.4064
      2473.447        1927.361
   4252966.482 9   3314666.83747  21893439.366    21893440.4834   21893446.3684
     -1833.196       -1428.464
 94  3 17  9 50 39.9960000  0  8  2  9 31 23 27 17 26 16            -0.003927128
 -15249078.954 9 -11859827.15048  19983810.256    19983810.7854   19983815.9344
      2274.238        1772.134
 -11034389.490 9  -8559335.06846  22783615.001    22783616.5554   22783621.9244
      4987.353        3886.249
  -6973523.712 9  -5415005.26956  23157592.006    23157593.1355   23157597.1965
        53.930          42.023
 -15247831.529 9 -11493995.84946  22733272.416    22733273.1754   22733277.7414
      4318.744        3365.255
   3132439.743 9   2441731.64447  21135750.928    21135752.3894   21135757.4564
     -1475.587       -1149.808
  -1843279.998 9  -1424761.39045  23347032.855    23347034.1574   23347039.0704
      -909.753        -708.898
 -15809043.637 9 -12290852.95549  19535457.245    19535458.6384   19535462.4484
      2464.417        1920.325
   4289685.553 9   3343279.01047  21900426.855    21900427.9214   21900433.9424
     -1838.523       -1432.615
 94  3 17  9 50 59.9960000  0  8  2  9 31 23 27 17 26 16            -0.003947181
 -15294433.242 9 -11895168.15148  19975179.576    19975180.1714   19975185.2984
      2261.249        1762.012
 -11134103.553 9  -8637034.24246  22764640.410    22764641.4224   22764647.0014
      4984.109        3883.721
  -6974474.980 9  -5415746.48156  23157411.024           0.0005          0.0005
        41.237          32.133
 -15334117.474 9 -11561231.64146  22716852.745    22716853.5754   22716858.1034
      4309.875        3358.344
   3162011.146 9   2464774.26347  21141378.201    21141379.6514   21141384.7934
     -1481.469       -1154.391
  -1824986.233 9  -1410506.52045  23350514.077    23350515.4004   23350520.2604
      -919.553        -716.535
 -15858232.559 9 -12329181.98649  19526096.967    19526098.3204   19526102.1094
      2454.445        1912.555
   4326518.665 9   3371980.07847  21907436.159    21907437.1654   21907443.0604
     -1844.797       -1437.504
 94  3 17  9 51 19.9960000  0  8  2  9 31 23 27 17 26 16            -0.003967231
 -15339541.726 9 -11930317.61348  19966595.665    19966596.3224   19966601.4234
      2249.244        1752.658
 -11233767.171 9  -8714694.11146  22745674.781    22745675.9094   22745681.6894
      4981.931        3882.024
  -6975184.332 9  -5416299.24256  23157276.242    23157277.1075   23157281.2055
        29.391          22.902
 -15420233.417 9 -11628334.97846  22700465.397    22700466.2874   22700470.7934
      4301.287        3351.652
   3191687.444 9   2487898.61547  21147025.544    21147026.8804   21147032.0824
     -1486.723       -1158.485
  -1806506.073 9  -1396106.41045  23354030.667    23354032.0484   23354036.9294
      -928.999        -723.895
 -15907229.788 9 -12367361.65149  19516773.267    19516774.5014   19516778.2554
      2444.954        1905.159
   4363470.986 9   3400774.00847  21914467.950    21914468.9674   21914474.9804
     -1850.880       -1442.244
 94  3 17  9 51 39.9960000  0  8  2  9 31 23 27 17 26 16            -0.003987273
 -15384399.158 9 -11965271.44648  19958059.574    19958060.2384   19958065.3194
      2236.135        1742.443
 -11333375.265 9  -8792310.77346  22726719.709    22726721.2624   22726726.8614
      4978.518        3879.365
  -6975649.598 9  -5416661.79856  23157187.670    23157188.4705   23157192.6135
        16.769          13.067
 -15506169.354 9 -11695298.02946  22684112.428    22684113.2404   22684117.7214
      4292.021        3344.432
   3221482.204 9   2511115.26947  21152695.291    21152696.6514   21152701.9134
     -1493.109       -1163.462
  -1787827.825 9  -1381551.95045  23357584.996    23357586.4494   23357591.1684
      -939.104        -731.769
 -15956024.700 9 -12405383.66349  19507487.893    19507489.1524   19507492.8814
      2434.160        1896.748
   4400555.634 9   3429671.06947  21921524.980    21921525.9874   21921531.9244
     -1857.970       -1447.769
 94  3 17  9 51 59.9960000  0  8  2  9 31 23 27 17 26 16            -0.004007309
 -15429001.917 9 -12000026.83848  19949571.972    19949572.6294   19949577.6654
      2224.227        1733.164
 -11432927.067 9  -8869883.59146  22707775.892    22707777.2724   22707782.6544
      4976.656        3877.914
  -6975867.190 9  -5416831.35056  23157146.139    23157146.9395   23157151.0725
         4.999           3.895
 -15591931.610 9 -11762125.75546  22667792.696    22667793.2104   22667797.7284
      4284.346        3338.451
   3251395.281 9   2534424.12147  21158387.550    21158388.9084   21158394.2474
     -1498.153       -1167.392
  -1768961.944 9  -1366851.28145  23361174.846    23361176.4574   23361181.1994
      -947.380        -738.218
 -16004607.727 9 -12443240.57049  19498242.782    19498244.1224   19498247.8164
      2424.093        1888.904
   4437772.656 9   3458671.26547  21928607.331    21928608.2374   21928614.2264
     -1863.712       -1452.243
 94  3 17  9 52 19.9950000  0  7  2  9 31 23 27 26 16               -0.004027340
 -15473356.106 9 -12034588.54048  19941131.581    19941132.3324   19941137.3194
      2211.798        1723.479
 -11532423.084 9  -8947412.94146  22688842.242    22688843.8014   22688848.9364
      4973.700        3875.610
  -6975839.317 9  -5416809.61346  23157151.558    23157152.2744   23157156.3974
        -7.324          -5.707
 -15677525.058 9 -11828821.92446  22651504.832    22651505.2864   22651509.8104
      4275.677        3331.696
   3281416.700 9   2557817.39047  21164100.259    21164101.7754   21164107.1814
     -1503.783       -1171.779
 -16052974.054 9 -12480928.61849  19489038.958    19489040.3364   19489043.9884
      2413.123        1880.356
   4475115.376 9   3487769.41147  21935713.522    21935714.3464   21935720.3514
     -1870.458       -1457.500
 94  3 17  9 52 39.9950000  0  7  2  9 31 23 27 26 16               -0.004047394
 -15517475.956 9 -12068967.64048  19932735.996    19932736.6174   19932741.5744
      2199.847        1714.166
 -11631873.335 9  -9024906.61046  22669917.242    22669918.9344   22669924.0814
      4970.832        3873.376
  -6975578.872 9  -5416606.67246  23157201.191    23157201.8454   23157206.0034
       -18.971         -14.783
 -15762957.668 9 -11895392.77546  22635247.625    22635247.9274   22635252.5164
      4267.218        3325.105
   3311537.160 9   2581287.84047  21169832.037    21169833.4634   21169838.9144
     -1508.647       -1175.569
 -16101134.044 9 -12518455.88449  19479874.512    19479875.7794   19479879.4264
      2402.484        1872.065
   4512582.837 9   3516964.76047  21942843.847    21942844.2604   21942850.3424
     -1876.674       -1462.343
 94  3 17  9 52 59.9950000  0  7  2  9 31 23 27 26 16               -0.004067448
 -15561345.365 9 -12103151.59148  19924387.960    19924388.5344   19924393.4744
      2187.487        1704.535
 -11731252.409 9  -9102344.77346  22651006.626    22651007.4834   22651012.9134
      4967.451        3870.741
  -6975072.371 9  -5416211.99856  23157297.612    23157298.2944   23157302.4875
       -31.202         -24.313
 -15848211.129 9 -11961824.03946  22619024.346    22619024.6884   22619029.3924
      4258.462        3318.282
   3341766.749 9   2604843.33147  21175584.484    21175585.9754   21175591.4364
     -1514.023       -1179.758
 -16149067.562 9 -12555806.68049  19470752.982    19470754.3514   19470757.9824
      2391.284        1863.338
   4550182.792 9   3546263.35147  21949998.708    21949999.3344   21950005.4744
     -1882.948       -1467.232
 94  3 17  9 53 19.9950000  0  7  2  9 31 23 27 26 16               -0.004087504
 -15604970.230 9 -12137144.98848  19916086.403    19916087.0104   19916091.9174
      2175.098        1694.882
 -11830564.906 9  -9179731.04546  22632107.607    22632108.7844   22632114.4454
      4963.808        3867.902
  -6974323.398 9  -5415628.37446  23157439.923    23157440.6884   23157445.0714
       -43.626         -33.994
 -15933290.766 9 -12028119.85246  22602834.326    22602834.5224   22602839.2484
      4249.592        3311.370
   3372107.699 9   2628485.59247  21181358.380    21181359.6594   21181365.1704
     -1520.045       -1184.451
 -16196777.637 9 -12592983.36049  19461674.125    19461675.4304   19461679.0534
      2379.883        1854.454
   4587909.953 9   3575661.06747  21957177.912    21957178.6394   21957184.8204
     -1889.559       -1472.384
 94  3 17  9 53 39.9950000  0  7  2  9 31 23 27 26 16               -0.004107560
 -15648356.362 9 -12170952.35748  19907830.260    19907830.9194   19907835.7774
      2163.672        1685.978
 -11929809.112 9  -9257064.13146  22613221.999    22613223.2534   22613228.9364
      4960.792        3865.552
  -6973339.515 9  -5414861.72746  23157626.952    23157627.8564   23157632.3134
       -54.619         -42.560
 -16018202.770 9 -12094285.03646  22586676.038    22586676.2574   22586680.9854
      4241.834        3305.325
   3402559.706 9   2652214.39647  21187153.332    21187154.5014   21187160.0174
     -1524.850       -1188.195
 -16244276.865 9 -12629995.74649  19452635.309    19452636.6294   19452640.2704
      2370.219        1846.924
   4625754.190 9   3605150.02147  21964379.185    21964380.2334   21964386.3594
     -1894.698       -1476.388
 94  3 17  9 53 59.9950000  0  7  2  9 31 23 27 26 16               -0.004127619
 -15691508.283 9 -12204577.22548  19899618.760    19899619.3894   19899624.2014
      2152.177        1677.021
 -12028985.870 9  -9334344.68346  22594349.411    22594350.5734   22594356.2164
      4957.749        3863.181
  -6972126.043 9  -5413916.16046  23157857.645    23157858.6564   23157863.2724
       -65.907         -51.356
 -16102955.218 9 -12160325.89646  22570547.998    22570548.3304   22570553.1024
      4234.020        3299.236
   3433108.260 9   2676018.42247  21192966.462    21192967.6814   21192973.2604
     -1529.341       -1191.694
 -16291580.429 9 -12666855.66449  19443633.707    19443635.0414   19443638.6984
      2360.890        1839.655
   4663703.959 9   3634721.18647  21971600.698    21971601.8304   21971608.0864
     -1899.545       -1480.165
 94  3 17  9 54 19.9950000  0  7  2  9 31 23 27 26 16               -0.004147683
 -15734432.046 9 -12238024.30448  19891450.656    19891451.2374   19891456.0574
      2140.105        1667.614
 -12128105.837 9  -9411580.98546  22575487.294    22575488.6564   22575494.2364
      4954.134        3860.364
  -6970693.456 9  -5412799.88046  23158130.122    23158131.2324   23158135.9414
       -77.354         -60.276
 -16187549.095 9 -12226243.19346  22554450.622    22554450.5714   22554455.4104
      4225.165        3292.336
   3463745.581 9   2699891.62347  21198796.420    21198797.8044   21198803.3874
     -1534.559       -1195.760
 -16338704.114 9 -12703575.41649  19434666.344    19434667.6694   19434671.3714
      2351.475        1832.318
   4701750.107 9   3664367.46647  21978840.772    21978841.7724   21978848.0824
     -1905.099       -1484.493
 94  3 17  9 54 39.9950000  0  7  2  9 31 23 27 26 16               -0.004167741
 -15777115.857 9 -12271284.41048  19883328.238    19883328.7844   19883333.6074
      2127.833        1658.052
 -12227156.935 9  -9488763.61046  22556639.030    22556639.8614   22556645.3634
      4950.616        3857.623
  -6969034.338 9  -5411507.07546  23158445.926    23158447.0584   23158451.7374
       -88.890         -69.265
 -16271965.026 9 -12292021.84246  22538386.699    22538386.7304   22538391.5814
      4216.088        3285.263
   3494485.969 9   2723845.13547  21204646.072    21204647.5224   21204653.1254
     -1539.854       -1199.886
 -16385642.076 9 -12740150.44849  19425734.374    19425735.6504   19425739.3784
      2341.944        1824.891
   4739902.553 9   3694096.57347  21986101.636    21986101.9754   21986108.3234
     -1910.470       -1488.678
 94  3 17  9 54 59.9950000  0  7  2  9 31 23 27 26 16               -0.004187796
 -15819560.794 9 -12304358.38648  19875251.257    19875251.7834   19875256.5834
      2116.264        1649.037
 -12326142.371 9  -9565895.05146  22537802.442    22537803.4214   22537808.9464
      4947.619        3855.288
  -6967147.829 9  -5410037.10546  23158805.083    23158805.9924   23158810.8564
      -100.056         -77.966
 -16356207.626 9 -12357665.43346  22522355.959    22522355.8624   22522360.7484
      4207.792        3278.799
   3525330.036 9   2747879.43347  21210515.582    21210516.9874   21210522.6034
     -1544.995       -1203.892
 -16432395.423 9 -12776581.62649  19416837.469    19416838.7714   19416842.5344
      2333.064        1817.972
   4778157.100 9   3723905.23947  21993380.887    21993381.5854   21993387.9254
     -1915.272       -1492.420
 94  3 17  9 55 19.9950000  0  7  2  9 31 23 27 26 16               -0.004207842
 -15861762.442 9 -12337242.78248  19867220.446    19867221.0464   19867225.8684
      2103.997        1639.478
 -12425059.024 9  -9642972.93246  22518978.442    22518980.1714   22518985.5024
      4944.110        3852.553
  -6965025.951 9  -5408383.74746  23159208.699    23159209.7864   23159214.6404
      -112.054         -87.315
 -16440272.491 9 -12423170.51246  22506358.953    22506358.8254   22506363.7614
      4198.720        3271.730
   3556292.225 9   2772005.77547  21216407.670    21216408.9114   21216414.5124
     -1551.122       -1208.666
 -16478961.163 9 -12812866.61449  19407976.303    19407977.5784   19407981.3724
      2323.514        1810.530
   4816517.986 9   3753796.76947  22000680.625    22000681.4004   22000687.9154
     -1920.677       -1496.631
 94  3 17  9 55 39.9950000  0  7  2  9 31 23 27 26 16               -0.004227883
 -15903726.781 9 -12369942.26548  19859234.860    19859235.4944   19859240.3454
      2092.317        1630.377
 -12523914.817 9  -9720003.39246  22500167.275    22500168.5614   22500173.8764
      4941.354        3850.406
  -6962670.814 9  -5406548.61646  23159656.931    23159657.8544   23159662.8844
      -123.583         -96.298
 -16524162.286 9 -12488539.18446  22490395.037    22490395.1914   22490400.1024
      4190.135        3265.040
   3587364.314 9   2796217.75247  21222320.794    21222321.7414   21222327.3294
     -1556.118       -1212.559
 -16525342.057 9 -12849007.56849  19399150.296    19399151.6064   19399155.4034
      2314.508        1803.513
   4854972.793 9   3783761.46047  22007998.051    22007999.1774   22008005.7764
     -1924.903       -1499.924
 94  3 17  9 55 59.9950000  0  7  2  9 31 23 27 26 16               -0.004247928
 -15945456.041 9 -12402458.56848  19851294.004    19851294.6724   19851299.5544
      2080.608        1621.253
 -12622718.680 9  -9796993.36046  22481365.220    22481366.8634   22481372.2784
      4938.935        3848.521
  -6960083.077 9  -5404532.24646  23160149.483    23160150.3534   23160155.4044
      -135.377        -105.489
 -16607878.855 9 -12553772.87846  22474464.127    22474464.4534   22474469.3704
      4181.402        3258.235
   3618535.171 9   2820506.69847  21228252.384    21228253.4254   21228258.9644
     -1561.026       -1216.384
 -16571536.875 9 -12885003.53149  19390359.687    19390361.0344   19390364.8404
      2304.823        1795.966
   4893513.101 9   3813792.80947  22015332.011    22015333.2014   22015339.7714
     -1929.137       -1503.224
 94  3 17  9 56 19.9950000  0  7  2  9 31 23 27 26 16               -0.004267978
 -15986950.070 9 -12434791.57248  19843397.870    19843398.5914   19843403.5184
      2068.609        1611.903
 -12721472.199 9  -9873944.11046  22462573.756    22462574.7064   22462580.0504
      4936.069        3846.288
  -6957256.948 9  -5402330.07446  23160687.115    23160688.1174   23160693.3054
      -147.776        -115.150
 -16691414.315 9 -12618865.44546  22458567.569    22458568.1684   22458573.0834
      4171.954        3250.873
   3649811.510 9   2844877.83447  21234203.894    21234205.1774   21234210.6854
     -1566.736       -1220.833
 -16617530.220 9 -12920842.50049  19381607.464    19381608.7804   19381612.5814
      2294.081        1787.596
   4932138.905 9   3843890.73447  22022681.952    22022683.4644   22022690.1954
     -1933.784       -1506.845
 94  3 17  9 56 39.9950000  0  7  2  9 31 23 27 26 16               -0.004288029
 -16028203.250 9 -12466936.90148  19835547.736    19835548.3464   19835553.3104
      2056.937        1602.808
 -12820163.507 9  -9950846.38746  22443793.650    22443794.3034   22443799.6714
      4933.235        3844.079
  -6954178.487 9  -5399931.24746  23161272.837    23161273.9864   23161279.1734
      -159.997        -124.673
 -16774760.504 9 -12683810.52546  22442707.502    22442707.9104   22442712.7834
      4162.876        3243.799
   3681201.712 9   2869337.69247  21240177.300    21240178.5794   21240184.0544
     -1572.040       -1224.966
 -16663301.940 9 -12956508.77849  19372897.329    19372898.7194   19372902.5294
      2283.247        1779.154
   4970863.357 9   3874065.56647  22030051.123    22030052.5074   22030059.2004
     -1938.464       -1510.491
 94  3 17  9 56 59.9950000  0  7  2  9 31 23 27 26 16               -0.004308086
 -16069225.159 9 -12498902.02348  19827741.418    19827742.1084   19827747.0984
      2045.141        1593.616
 -12918800.023 9 -10027705.95846  22425023.620    22425024.2864   22425029.6764
      4930.304        3841.795
  -6950857.411 9  -5397343.41646  23161905.237    23161906.1174   23161911.2454
      -172.126        -134.124
 -16857930.043 9 -12748617.96646  22426880.745    22426881.2664   22426886.1184
      4153.950        3236.844
   3712693.908 9   2893877.02247  21246170.296    21246171.4044   21246176.8664
     -1577.328       -1229.087
 -16708861.378 9 -12992009.64449  19364227.645    19364229.0644   19364232.8764
      2272.595        1770.853
   5009678.595 9   3904311.11147  22037437.859    22037438.9214   22037445.7614
     -1943.182       -1514.168
 94  3 17  9 57 19.9950000  0  7  2  9 31 23 27 26 16               -0.004328144
 -16110004.557 9 -12530678.17048  19819981.358    19819982.0184   19819987.0364
      2033.052        1584.196
 -13017372.070 9 -10104515.27946  22406266.064    22406266.4974   22406271.9584
      4927.072        3839.277
  -6947289.046 9  -5394562.88246  23162584.597    23162585.2794   23162590.3284
      -184.476        -143.748
 -16940913.946 9 -12813280.73846  22411089.174    22411089.9314   22411094.8714
      4144.580        3229.543
   3744297.132 9   2918502.87647  21252184.122    21252185.3194   21252190.7864
     -1582.696       -1233.270
 -16754203.457 9 -13027341.13549  19355599.334    19355600.7564   19355604.5814
      2261.806        1762.446
   5048593.172 9   3934634.08447  22044843.131    22044844.1674   22044850.8584
     -1947.976       -1517.903
 94  3 17  9 57 39.9950000  0  7  2  9 31 23 27 26 16               -0.004348210
 -16150551.912 9 -12562273.51048  19812265.456    19812266.1144   19812271.1434
      2021.603        1575.275
 -13115886.839 9 -10181280.00946  22387519.743    22387519.8154   22387525.2314
      4924.328        3837.139
  -6943483.203 9  -5391597.33846  23163308.907    23163309.6764   23163314.6594
      -196.090        -152.797
 -17023720.201 9 -12877805.08146  22395331.979    22395332.3914   22395337.3824
      4135.997        3222.855
   3775994.388 9   2943201.99647  21258215.812    21258217.1604   21258222.6474
     -1587.030       -1236.647
 -16799337.128 9 -13062510.23049  19347010.800    19347012.1234   19347015.9414
      2251.549        1754.454
   5087596.029 9   3965025.85347  22052264.986    22052266.3074   22052273.0404
     -1952.319       -1521.288
 94  3 17  9 57 59.9950000  0  7  2  9 31 23 27 26 16               -0.004368279
 -16190863.130 9 -12593684.84848  19804594.535    19804595.1544   19804600.1734
      2010.020        1566.249
 -13214337.800 9 -10257995.02346  22368784.976    22368785.2614   22368790.5884
      4921.238        3834.731
  -6939440.463 9  -5388447.14646  23164078.199    23164079.0004   23164083.9884
      -207.650        -161.805
 -17106348.983 9 -12942191.15746  22379608.480    22379608.7364   22379613.6304
      4127.423        3216.174
   3807785.566 9   2967974.30347  21264265.584    21264266.8424   21264272.3504
     -1591.629       -1240.230
 -16844262.313 9 -13097516.87449  19338461.779    19338463.1794   19338466.9834
      2241.452        1746.586
   5126694.922 9   3995492.43047  22059705.610    22059706.5804   22059713.3484
     -1957.107       -1525.018
 94  3 17  9 58 19.9950000  0  7  2  9 31 23 27 26 16               -0.004388352
 -16230943.232 9 -12624916.09448  19796967.632    19796968.1804   19796973.1954
      1998.457        1557.239
 -13312722.449 9 -10334658.35346  22350062.515    22350063.2384   22350068.5374
      4917.647        3831.933
  -6935167.725 9  -5385117.73046  23164891.176    23164892.0734   23164897.0724
      -218.959        -170.617
 -17188807.038 9 -13006444.18746  22363916.945    22363917.4694   22363922.3644
      4118.885        3209.521
   3839669.737 9   2992819.07747  21270332.771    21270334.2244   21270339.7304
     -1596.329       -1243.893
 -16888986.471 9 -13132366.87049  19329951.078    19329952.4754   19329956.2454
      2231.566        1738.883
   5165890.863 9   4026034.66647  22067164.392    22067165.4444   22067172.1974
     -1962.058       -1528.876
 94  3 17  9 58 39.9950000  0  7  2  9 31 23 27 26 16               -0.004408423
 -16270789.053 9 -12655964.78448  19789385.171    19789385.7754   19789390.7884
      1985.844        1547.411
 -13411036.747 9 -10411266.85246  22331353.527    22331354.6014   22331359.9314
      4913.568        3828.754
  -6930672.111 9  -5381614.67046  23165746.691    23165747.5004   23165752.5894
      -230.680        -179.751
 -17271095.834 9 -13070565.33047  22348257.899    22348258.4614   22348263.3444
      4109.798        3202.440
   3871647.433 9   3017736.72647  21276418.001    21276419.3994   21276424.9374
     -1601.685       -1248.066
 -16933516.317 9 -13167065.46249  19321477.402    19321478.7094   19321482.4664
      2221.279        1730.867
   5205188.358 9   4056656.00447  22074642.407    22074643.6074   22074650.3824
     -1967.860       -1533.397
 94  3 17  9 58 59.9950000  0  7  2  9 31 23 27 26 16               -0.004428487
 -16310388.758 9 -12686821.69348  19781849.612    19781850.1924   19781855.1984
      1973.404        1537.717
 -13509277.196 9 -10487817.79946  22312658.817    22312659.9374   22312665.4014
      4909.830        3825.841
  -6925953.208 9  -5377937.61247  23166644.797    23166645.4964   23166650.5794
      -241.960        -188.540
 -17353209.747 9 -13134550.18847  22332632.470    22332632.7154   22332637.6064
      4100.877        3195.488
   3903726.530 9   3042733.39247  21282522.613    21282523.8604   21282529.4084
     -1606.881       -1252.115
 -16977854.872 9 -13201614.99349  19313039.874    19313041.3394   19313045.0614
      2211.809        1723.488
   5244589.914 9   4087358.46247  22082140.403    22082141.4834   22082148.1374
     -1972.943       -1537.358
 94  3 17  9 59 19.9950000  0  7  2  9 31 23 27 26 16               -0.004448540
 -16349730.125 9 -12717477.30148  19774363.229    19774363.7924   19774368.7774
      1960.803        1527.898
 -13607435.161 9 -10564304.48246  22293980.261    22293980.9464   22293986.4474
      4906.029        3822.880
  -6921001.616 9  -5374079.26647  23167587.053    23167587.8284   23167592.7814
      -253.260        -197.345
 -17435137.977 9 -13198390.36247  22317042.069    22317042.3094   22317047.1904
      4091.914        3188.504
   3935916.740 9   3067816.64147  21288648.332    21288649.4654   21288655.0274
     -1612.065       -1256.155
 -17021992.891 9 -13236008.26049  19304640.679    19304642.1414   19304645.8724
      2202.023        1715.862
   5284098.316 9   4118144.11247  22089658.266    22089659.8314   22089666.7024
     -1977.819       -1541.158
 94  3 17  9 59 39.9950000  0  7  2  9 31 23 27 26 16               -0.004468592
 -16388825.265 9 -12747941.04348  19766923.556    19766924.2354   19766929.2274
      1949.114        1518.790
 -13705519.433 9 -10640733.75346  22275314.830    22275316.0514   22275321.5094
      4902.823        3820.381
  -6915822.843 9  -5370043.89547  23168572.497    23168573.3334   23168578.2564
      -264.238        -205.900
 -17516887.157 9 -13262091.01847  22301485.801    22301485.9494   22301490.8524
      4083.425        3181.890
   3968206.233 9   3092977.25947  21294792.646    21294793.9634   21294799.5484
     -1616.449       -1259.571
 -17065932.920 9 -13270247.24949  19296279.258    19296280.6424   19296284.3744
      2192.327        1708.307
   5323701.703 9   4149003.86546  22097194.397    22097196.1384   22097202.6754
     -1982.056       -1544.459
 94  3 17  9 59 59.9950000  0  7  2  9 31 23 27 26 16               -0.004488649
 -16427686.724 9 -12778222.69648  19759528.530    19759529.1634   19759534.1364
      1937.365        1509.635
 -13803541.475 9 -10717114.54546  22256661.702    22256663.0274   22256668.4414
      4899.689        3817.939
  -6910431.172 9  -5365842.56947  23169598.420    23169599.3454   23169604.2494
      -274.563        -213.945
 -17598467.100 9 -13325659.79746  22285961.698    22285961.8074   22285966.7024
      4074.793        3175.163
   4000581.938 9   3118205.05847  21300953.774    21300954.9224   21300960.5094
     -1620.828       -1262.983
 -17109680.809 9 -13304336.51749  19287954.334    19287955.6894   19287959.4184
      2182.794        1700.878
   5363386.077 9   4179926.67047  22104746.405    22104747.9754   22104754.6604
     -1986.050       -1547.571
 94  3 17 10  0 19.9950000  0  7  2  9 31 23 27 26 16               -0.004508708
 -16466301.589 9 -12808312.19648  19752180.351    19752181.0124   19752185.9534
      1924.431        1499.557
 -13901489.539 9 -10793437.68946  22238022.964    22238024.0894   22238029.4314
      4895.547        3814.712
  -6904818.970 9  -5361469.39846  23170666.386    23170667.3074   23170672.1734
      -286.145        -222.970
 -17679858.508 9 -13389081.66446  22270472.999    22270473.5594   22270478.3634
      4064.629        3167.243
   4033056.192 9   3143509.65247  21307133.204    21307134.6044   21307140.1764
     -1626.228       -1267.191
 -17153226.032 9 -13338267.86349  19279667.870    19279669.2964   19279673.0284
      2171.992        1692.461
   5403158.443 9   4210918.02646  22112314.433    22112316.3134   22112323.0944
     -1990.783       -1551.259
 94  3 17 10  0 39.9950000  0  7  2  9 31 23 27 26 16               -0.004528767
 -16504671.212 9 -12838210.60048  19744878.821    19744879.5024   19744884.4404
      1912.589        1490.329
 -13999368.342 9 -10869706.85346  22219397.596    22219398.3344   22219403.6994
      4892.498        3812.336
  -6898986.737 9  -5356924.77246  23171776.224    23171777.1444   23171781.9964
      -296.932        -231.376
 -17761058.393 9 -13452354.29646  22255020.853    22255021.7194   22255026.5394
      4055.412        3160.061
   4065625.553 9   3168888.35647  21313331.267    21313332.4054   21313337.9724
     -1630.604       -1270.601
 -17196566.986 9 -13372040.03949  19271420.336    19271421.7564   19271425.4844
      2162.123        1684.771
   5443011.705 9   4241972.46747  22119898.705    22119900.2064   22119906.9974
     -1994.449       -1554.116
 94  3 17 10  0 59.9950000  0  7  2  9 31 23 27 26 16               -0.004548841
 -16542810.373 9 -12867929.42048  19737621.178    19737621.8744   19737626.7784
      1901.407        1481.616
 -14097191.439 9 -10945932.60146  22200782.687    22200783.1774   22200788.6474
      4889.872        3810.290
  -6892944.239 9  -5352216.34246  23172926.123    23172926.9434   23172931.8364
      -307.278        -239.437
 -17842079.822 9 -13515487.86646  22239603.015    22239603.8474   22239608.6594
      4046.707        3153.278
   4098273.990 9   3194328.66547  21319544.194    21319545.2064   21319550.7424
     -1634.237       -1273.431
 -17239714.359 9 -13405661.37549  19263209.718    19263211.0834   19263214.8094
      2152.643        1677.384
   5482928.993 9   4273076.71246  22127494.788    22127496.1644   22127503.0734
     -1997.266       -1556.311
 94  3 17 10  1 19.9950000  0  7  2  9 31 23 27 26 16               -0.004568929
 -16580723.480 9 -12897472.09648  19730406.597    19730407.2664   19730412.1374
      1890.018        1472.741
 -14194953.716 9 -11022110.95646  22182178.782    22182179.6354   22182185.1244
      4886.497        3807.660
  -6886685.618 9  -5347339.54546  23174117.104    23174117.9154   23174122.7424
      -318.514        -248.193
 -17922919.446 9 -13578479.76846  22224219.617    22224220.5584   22224225.3764
      4037.335        3145.975
   4131001.635 9   3219830.70847  21325772.077    21325773.0884   21325778.6534
     -1638.484       -1276.741
 -17282660.796 9 -13439126.13649  19255037.289    19255038.6694   19255042.3914
      2141.963        1669.062
   5522910.008 9   4304230.75346  22135103.206    22135104.4654   22135110.9624
     -2000.833       -1559.091
 94  3 17 10  1 39.9950000  0  7  2  9 31 23 27 26 16               -0.004589026
 -16618411.364 9 -12926839.27648  19723234.824    19723235.4954   19723240.3754
      1878.641        1463.876
 -14292645.275 9 -11098234.22446  22163588.308    22163589.6204   22163595.0934
      4882.626        3804.644
  -6880201.483 9  -5342286.97746  23175350.867    23175351.8224   23175356.4964
      -329.932        -257.090
 -18003568.193 9 -13641322.94646  22208872.619    22208873.6044   22208878.4264
      4027.420        3138.249
   4163815.383 9   3245399.84247  21332016.572    21332017.3114   21332022.9574
     -1643.021       -1280.276
 -17325391.033 9 -13472422.42749  19246906.146    19246907.3894   19246911.1054
      2130.929        1660.464
   5562966.601 9   4335443.51246  22142725.193    22142726.9594   22142733.8934
     -2004.950       -1562.299
 94  3 17 10  1 59.9950000  0  7  2  9 31 23 27 26 16               -0.004609133
 -16655879.012 9 -12956034.84548  19716105.066    19716105.6544   19716110.5254
      1867.401        1455.118
 -14390271.582 9 -11174306.63246  22145010.573    22145011.9814   22145017.4734
      4879.464        3802.180
  -6873498.991 9  -5337064.29746  23176626.274    23176627.2354   23176631.8444
      -340.829        -265.581
 -18084031.174 9 -13704021.37146  22193561.392    22193561.9734   22193566.8334
      4018.277        3131.125
   4196710.078 9   3271032.05247  21338276.284    21338276.9584   21338282.6294
     -1647.143       -1283.488
 -17367911.648 9 -13505555.37649  19238814.788    19238816.0254   19238819.7014
      2120.653        1652.457
   5603094.521 9   4366711.99746  22150361.219    22150363.1904   22150369.7264
     -2008.454       -1565.029
 94  3 17 10  2 19.9950000  0  7  2  9 31 23 27 26 16               -0.004629240
 -16693107.384 9 -12985043.96648  19709020.795    19709021.3464   19709026.2154
      1855.928        1446.178
 -14487824.232 9 -11250321.66146  22126446.977    22126448.3784   22126453.7444
      4876.413        3799.802
  -6866567.048 9  -5331662.78146  23177945.301    23177946.3604   23177950.9224
      -351.958        -274.253
 -18164300.453 9 -13766568.86246  22178286.780    22178287.2424   22178292.1394
      4009.296        3124.127
   4229701.175 9   3296739.38947  21344554.388    21344554.9704   21344560.7164
     -1651.426       -1286.825
 -17410217.227 9 -13538520.76549  19230764.338    19230765.5604   19230769.2234
      2110.412        1644.477
   5643304.792 9   4398044.56146  22158013.411    22158015.0444   22158021.8044
     -2012.104       -1567.873
 94  3 17 10  2 39.9950000  0  7  2  9 31 23 27 26 16               -0.004649361
 -16730113.408 9 -13013879.82748  19701978.739    19701979.3564   19701984.2124
      1844.687        1437.418
 -14585323.991 9 -11326295.48146  22107893.565    22107894.7994   22107900.1114
      4873.494        3797.528
  -6859419.513 9  -5326093.27646  23179305.496    23179306.4684   23179311.1774
      -362.813        -282.711
 -18244401.692 9 -13828985.40846  22163043.863    22163044.5264   22163049.3884
      4000.862        3117.555
   4262770.149 9   3322507.38947  21350847.142    21350847.7694   21350853.5934
     -1655.541       -1290.032
 -17452325.168 9 -13571332.15449  19222751.379    19222752.6824   19222756.3384
      2100.368        1636.650
   5683581.618 9   4429429.02946  22165678.266    22165679.4774   22165686.0534
     -2015.690       -1570.668
 94  3 17 10  2 59.9950000  0  7  2  9 31 23 27 26 16               -0.004669490
 -16766891.007 9 -13042537.69648  19694980.119    19694980.8104   19694985.6724
      1833.158        1428.435
 -14682762.408 9 -11402221.48946  22089351.870    22089352.8474   22089358.1654
      4870.492        3795.189
  -6852052.687 9  -5320352.90646  23180707.387    23180708.3774   23180713.1864
      -373.739        -291.225
 -18324332.137 9 -13891268.88346  22147833.701    22147834.3134   22147839.1294
      3992.216        3110.818
   4295924.234 9   3348341.71747  21357156.239    21357156.8474   21357162.6704
     -1659.768       -1293.326
 -17494230.584 9 -13603985.73149  19214776.957    19214778.3334   19214781.9844
      2090.294        1628.801
   5723935.477 9   4460873.52647  22173357.555    22173358.7474   22173365.2454
     -2019.610       -1573.722
 94  3 17 10  3 19.9950000  0  7  2  9 31 23 27 26 16               -0.004689631
 -16803443.459 9 -13071020.12748  19688024.446    19688025.1054   19688029.9814
      1822.340        1420.005
 -14780147.362 9 -11478105.83646  22070819.967    22070821.1044   22070826.4144
      4868.261        3793.450
  -6844474.138 9  -5314447.59246  23182149.698    23182150.5374   23182155.4204
      -383.881        -299.128
 -18404094.979 9 -13953421.75046  22132655.527    22132655.9634   22132660.7954
      3984.266        3104.623
   4329158.360 9   3374238.41047  21363480.115    21363481.0774   21363486.9754
     -1663.353       -1296.119
 -17535939.933 9 -13636486.52749  19206839.950    19206841.3284   19206844.9334
      2080.903        1621.483
   5764362.570 9   4492375.01646  22181050.412    22181051.6904   22181058.5314
     -2022.933       -1576.311
 94  3 17 10  3 39.9950000  0  7  2  9 31 23 27 26 16               -0.004709786
 -16839773.729 9 -13099329.42848  19681111.091    19681111.6464   19681116.5564
      1811.077        1411.229
 -14877484.105 9 -11553952.63446  22052297.283    22052298.5824   22052303.8334
      4865.899        3791.610
  -6836689.271 9  -5308381.40645  23183631.042    23183631.8814   23183636.5754
      -394.080        -307.075
 -18483693.529 9 -14015446.60246  22117508.530    22117508.9014   22117513.6594
      3976.091        3098.253
   4362464.140 9   3400190.92847  21369817.736    21369818.9534   21369824.8934
     -1666.679       -1298.711
 -17577458.161 9 -13668838.39849  19198939.309    19198940.7114   19198944.2984
      2071.533        1614.182
   5804860.294 9   4523931.68046  22188757.017    22188758.2924   22188764.7084
     -2026.334       -1578.962
 94  3 17 10  3 59.9950000  0  7  2  9 31 23 27 26 16               -0.004729956
 -16875874.367 9 -13127459.79748  19674241.310    19674241.8794   19674246.8044
      1799.046        1401.854
 -14974776.789 9 -11629765.08846  22033783.090    22033784.3484   22033789.6114
      4863.452        3789.703
  -6828704.513 9  -5302159.46445  23185150.295    23185151.1894   23185156.0864
      -404.318        -315.053
 -18563129.883 9 -14077345.06846  22102392.215    22102392.6834   22102397.4514
      3967.586        3091.625
   4395833.480 9   3426192.97147  21376167.867    21376168.9574   21376174.9304
     -1670.188       -1301.445
 -17618795.069 9 -13701048.97649  19191073.135    19191074.5994   19191078.1994
      2062.249        1606.947
   5845424.795 9   4555540.21346  22196475.979    22196477.3354   22196484.2424
     -2029.926       -1581.761
 94  3 17 10  4 19.9950000  0  8  2  9 31 12 23 27 26 16            -0.004750124
 -16911726.727 9 -13155396.70548  19667418.869    19667419.3684   19667424.3034
      1786.607        1392.161
 -15072011.766 9 -11705532.57246  22015279.709    22015281.1224   22015286.3774
      4860.293        3787.241
  -6820506.865 9  -5295771.68045  23186710.061    23186711.0184   23186716.0804
      -415.208        -323.539
  -2993148.31419  -2297383.71617  22892779.314    22892780.4031   22892788.9131
      5319.113        4144.763
 -18642387.677 9 -14139104.39147  22087309.811    22087310.4204   22087315.2164
      3958.409        3084.475
   4429279.754 9   3452254.96747  21382532.284    21382533.6324   21382539.5834
     -1674.066       -1304.467
 -17659938.228 9 -13733108.58449  19183243.849    19183245.3294   19183248.9554
      2052.295        1599.191
   5886067.873 9   4587210.10546  22204210.631    22204211.6424   22204218.2054
     -2034.097       -1585.011
 94  3 17 10  4 39.9950000  0  8  2  9 31 12 23 27 26 16            -0.004770302
 -16947330.048 9 -13183139.55848  19660643.647    19660644.2534   19660649.1864
      1774.264        1382.543
 -15169177.319 9 -11781245.95746  21996790.162    21996791.0764   21996796.3924
      4856.712        3784.451
  -6812085.241 9  -5289209.36845  23188312.493    23188313.5754   23188318.5614
      -426.343        -332.215
  -3099490.388 9  -2380247.678 7  22872542.846    22872544.252    22872552.720
      5315.602        4142.028
 -18721452.856 9 -14200713.61847  22072264.452    22072264.8394   22072269.6464
      3948.509        3076.760
   4462806.155 9   3478379.39347  21388912.329    21388913.5084   21388919.4984
     -1678.056       -1307.576
 -17700875.422 9 -13765007.70349  19175453.876    19175455.2514   19175458.9044
      2041.838        1591.043
   5926799.314 9   4618948.75546  22211961.177    22211962.4374   22211969.3154
     -2038.586       -1588.509
 94  3 17 10  4 59.9950000  0  8  2  9  7 12 23 27 26 16            -0.004790460
 -16982698.993 9 -13210699.77848  19653913.163    19653913.7314   19653918.6794
      1762.670        1373.509
 -15266281.329 9 -11856911.39946  21978311.744    21978312.7514   21978317.9804
      4853.753        3782.145
  -1986446.85019  -1508092.92355  23402950.939    23402951.6385   23402959.6465
      4921.642        3835.046
  -3205771.970 9  -2463064.478 8  22852317.947    22852319.601    22852328.106
      5312.573        4139.667
 -18800326.133 9 -14262173.31447  22057255.348    22057255.7304   22057260.5754
      3938.828        3069.217
   4496402.238 9   3504558.12447  21395305.560    21395306.6794   21395312.6184
     -1681.508       -1310.266
 -17741613.205 9 -13796751.43249  19167701.943    19167703.1344   19167706.7954
      2031.957        1583.343
   5967609.122 9   4650748.51646  22219727.509    22219728.5734   22219735.3674
     -2042.381       -1591.466
 94  3 17 10  5 19.9950000  0  8  2  9  7 12 23 27 26 16            -0.004810660
 -17017833.953 9 -13238077.67548  19647227.042    19647227.7424   19647232.7224
      1751.033        1364.441
 -15363328.038 9 -11932532.18446  21959844.037    21959845.3314   21959850.5564
      4851.034        3780.026
  -2084854.481 9  -1584774.16645  23384224.617    23384225.1964   23384233.1794
      4919.148        3833.102
  -3311993.973 8  -2545834.822 8  22832104.555    22832106.190    22832114.854
      5309.683        4137.415
 -18879002.205 9 -14323479.34047  22042283.570    22042284.1484   22042289.0524
      3929.009        3061.565
   4530067.936 9   3530791.09247  21401711.915    21401713.0874   21401719.0284
     -1684.961       -1312.957
 -17782149.440 9 -13828338.11249  19159988.116    19159989.3404   19159993.0314
      2021.796        1575.425
   6008493.900 9   4682606.72446  22227507.568    22227508.6344   22227515.2504
     -2045.892       -1594.202
 94  3 17 10  5 39.9950000  0  8  2  9  7 12 23 27 26 16            -0.004830870
 -17052738.565 9 -13265276.08348  19640584.824    19640585.5894   19640590.6194
      1739.649        1355.571
 -15460320.283 9 -12008110.51446  21941387.397    21941388.2704   21941393.5174
      4848.477        3778.034
  -2183214.916 9  -1661418.61845  23365507.234    23365507.8934   23365515.9094
      4917.086        3831.495
  -3418157.005 8  -2628559.152 8  22811901.718    22811903.831    22811912.835
      5306.842        4135.202
 -18957486.307 9 -14384635.78947  22027348.579    22027349.1544   22027354.1104
      3919.560        3054.203
   4563803.668 9   3557078.63347  21408131.308    21408132.8154   21408138.7234
     -1688.399       -1315.636
 -17822483.698 9 -13859767.40449  19152312.953    19152313.9734   19152317.6954
      2011.811        1567.645
   6049446.529 9   4714517.74046  22235300.837    22235301.8724   22235308.7014
     -2049.057       -1596.668
 94  3 17 10  5 59.9950000  0  8  2  9  7 12 23 27 26 16            -0.004851085
 -17087409.354 9 -13292292.28948  19633987.278    19633987.9564   19633993.0074
      1727.510        1346.112
 -15557254.964 9 -12083644.00246  21922941.559    21922942.1924   21922947.3814
      4844.988        3775.315
  -2281529.214 9  -1738027.12745  23346798.687    23346799.2574   23346807.3044
      4914.384        3829.390
  -3524257.834 8  -2711234.968 8  22791710.888    22791713.212    22791722.606
      5303.209        4132.371
 -19035774.748 9 -14445639.76847  22012450.971    22012451.3734   22012456.3224
      3909.287        3046.198
   4597615.792 9   3583425.69547  21414565.504    21414567.0724   21414572.9624
     -1692.898       -1319.141
 -17862611.314 9 -13891035.68049  19144676.704    19144677.9254   19144681.6524
      2000.997        1559.218
   6090464.372 9   4746479.58846  22243106.469    22243107.2024   22243114.0434
     -2052.709       -1599.514
 94  3 17 10  6 19.9950000  0  8  2  9  7 12 23 27 26 16            -0.004871308
 -17121853.453 9 -13319131.85448  19627432.862    19627433.4934   19627438.5334
      1716.744        1337.723
 -15654133.586 9 -12159133.80246  21904506.073    21904506.7354   21904511.9944
      4842.583        3773.441
  -2379803.113 9  -1814604.16045  23328097.955    23328098.4104   23328106.3794
      4912.697        3828.076
  -3630297.197 9  -2793862.904 8  22771532.507    22771534.483    22771544.057
      5300.482        4130.246
 -19113870.105 9 -14506493.29147  21997589.784    21997590.3364   21997595.2564
      3900.086        3039.028
   4631509.007 9   3609835.94547  21421015.169    21421016.7674   21421022.6144
     -1696.667       -1322.078
 -17902533.975 9 -13922144.24849  19137079.680    19137080.8244   19137084.5954
      1990.985        1551.417
   6131542.519 9   4778488.50246  22250923.411    22250924.3744   22250930.9704
     -2055.340       -1601.564
 94  3 17 10  6 39.9950000  0  8  2  9  7 12 23 27 26 16            -0.004891541
 -17156081.959 9 -13345803.42548  19620919.430    19620920.0534   19620925.0764
      1706.075        1329.409
 -15750960.148 9 -12234583.03146  21886080.615    21886081.1504   21886086.5074
      4840.108        3771.513
  -2478040.180 9  -1891152.47245  23309403.817    23309404.6034   23309412.5774
      4910.976        3826.735
  -3736279.088 9  -2876446.124 8  22751364.892    22751366.875    22751376.406
      5297.717        4128.091
 -19191780.775 9 -14567202.91147  21982763.661    21982764.4084   21982769.3414
      3890.964        3031.920
   4665482.113 9   3636308.44747  21427479.901    21427481.7004   21427487.4784
     -1700.802       -1325.300
 -17942256.324 9 -13953096.73449  19129520.660    19129521.8634   19129525.6584
      1981.249        1543.830
   6172676.712 9   4810540.93146  22258751.020    22258751.8574   22258758.8894
     -2058.125       -1603.734
 94  3 17 10  6 59.9950000  0  8  2  9  7 12 23 27 26 16            -0.004911774
 -17190086.793 9 -13372300.70448  19614448.517    19614449.1844   19614454.1894
      1694.564        1320.439
 -15847726.986 9 -12309985.72946  21867666.182    21867666.9674   21867672.3054
      4836.731        3768.881
  -2576234.377 9  -1967667.38845  23290717.788    23290718.9484   23290726.7954
      4908.707        3824.966
  -3842194.939 9  -2958977.911 7  22731209.513    22731211.864    22731221.127
      5294.145        4125.308
 -19269499.550 9 -14627762.99547  21967974.025    21967974.9754   21967979.9874
      3881.148        3024.271
   4699551.597 9   3662856.04147  21433963.298    21433964.9174   21433970.6564
     -1705.917       -1329.286
 -17981774.949 9 -13983890.47149  19122000.428    19122001.7044   19122005.5084
      1970.814        1535.699
   6213874.285 9   4842642.92646  22266591.026    22266591.7304   22266598.3604
     -2061.485       -1606.352
 94  3 17 10  7 19.9950000  0  8  2  9  7 12 23 27 26 16            -0.004932015
 -17223873.847 9 -13398628.28348  19608019.052    19608019.7784   19608024.7604
      1683.873        1312.109
 -15944437.795 9 -12385344.78346  21849262.433    21849263.4404   21849268.7734
      4834.013        3766.763
  -2674400.402 9  -2044160.36945  23272037.490    23272038.5484   23272046.4354
      4907.696        3824.179
  -3948053.713 9  -3041465.218 7  22711065.863    22711067.620    22711076.513
      5291.527        4123.268
 -19347038.834 9 -14688183.21647  21953218.766    21953219.6944   21953224.7074
      3872.558        3017.578
   4733709.868 9   3689472.83747  21440463.625    21440465.0874   21440470.7704
     -1710.186       -1332.612
 -18021099.191 9 -14014532.74349  19114517.406    19114518.5604   19114522.3534
      1961.336        1528.314
   6255125.158 9   4874786.30546  22274441.238    22274441.4294   22274448.4964
     -2063.785       -1608.144
 94  3 17 10  7 39.9950000  0  8  2  9  7 12 23 27 26 16            -0.004952264
 -17257443.009 9 -13424786.07548  19601631.110    19601631.8364   19601636.8044
      1672.886        1303.548
 -16041088.610 9 -12460657.08346  21830870.534    21830871.3674   21830876.7144
      4830.849        3764.298
  -2772541.507 9  -2120633.92745  23253361.928    23253362.8344   23253370.7174
      4906.310        3823.099
  -4053856.149 8  -3123908.694 7  22690932.701    22690934.097    22690942.435
      5288.596        4120.984
 -19424404.260 9 -14748467.96447  21938496.838    21938497.5064   21938502.5354
      3863.740        3010.706
   4767954.068 9   3716156.57847  21446980.224    21446981.5614   21446987.2424
     -1714.344       -1335.852
 -18060232.918 9 -14045026.56249  19107070.490    19107071.6674   19107075.4794
      1951.859        1520.929
   6296425.876 9   4906968.59546  22282300.734    22282300.8624   22282307.8144
     -2066.467       -1610.234
 94  3 17 10  7 59.9950000  0  8  2  9  7 12 23 27 26 16            -0.004972519
 -17290786.656 9 -13450768.14548  19595286.144    19595286.7954   19595291.7474
      1661.349        1294.558
 -16137669.105 9 -12535914.58346  21812492.179    21812492.7374   21812498.0404
      4827.132        3761.402
  -2870653.183 9  -2197084.55345  23234691.957    23234692.7584   23234700.5304
      4904.711        3821.853
  -4159594.610 8  -3206302.235 7  22670810.642    22670812.609    22670820.871
      5285.235        4118.365
 -19501583.734 9 -14808607.82047  21923810.225    21923810.7314   21923815.7684
      3854.099        3003.194
   4802283.910 9   3742907.05847  21453513.212    21453514.3874   21453520.0134
     -1718.711       -1339.255
 -18099171.778 9 -14075368.53549  19099660.691    19099661.8284   19099665.6824
      1941.963        1513.218
   6337785.557 9   4939196.86346  22290170.998    22290171.3544   22290178.1384
     -2069.604       -1612.678
 94  3 17 10  8 19.9950000  0  8  2  9  7 12 23 27 26 16            -0.004992774
 -17323896.531 9 -13476568.05248  19588985.506    19588986.1864   19588991.1674
      1649.384        1285.234
 -16234173.426 9 -12611112.72746  21794128.141    21794128.6274   21794133.8574
      4823.123        3758.278
  -2968730.325 9  -2273508.24945  23216028.353    23216029.2494   23216037.0624
      4902.665        3820.258
  -4265265.753 8  -3288643.240 8  22650702.039    22650703.715    22650712.443
      5281.728        4115.632
 -19578570.264 9 -14868597.31647  21909160.166    21909160.6704   21909165.7134
      3844.318        2995.572
   4836702.877 9   3769726.99047  21460062.924    21460064.1354   21460069.7484
     -1723.422       -1342.926
 -18137915.548 9 -14105558.48749  19092287.880    19092289.0904   19092292.9824
      1932.157        1505.577
   6379210.535 9   4971475.91846  22298053.726    22298054.4954   22298061.6204
     -2073.125       -1615.422
 94  3 17 10  8 39.9940000  0  8  2  9  7 12 23 27 26 16            -0.005013023
 -17356761.023 9 -13502176.74948  19582731.745    19582732.2714   19582737.2754
      1637.170        1275.717
 -16330591.068 9 -12686243.33346  21775780.508    21775780.9744   21775786.0984
      4819.090        3755.135
  -3066757.160 8  -2349892.75445  23197374.405    23197375.3534   23197383.1844
      4900.525        3818.591
  -4370857.961 8  -3370922.679 8  22630609.320    22630609.822    22630619.139
      5278.151        4112.845
 -19655354.740 9 -14928429.38047  21894548.519    21894549.1154   21894554.1074
      3834.466        2987.896
   4871215.061 9   3796619.56247  21466630.744    21466631.6144   21466637.2734
     -1727.956       -1346.459
 -18176455.795 9 -14135589.85249  19084953.857    19084955.1424   19084959.0494
      1922.085        1497.729
   6420704.824 9   5003809.06046  22305949.876    22305950.5124   22305957.5044
     -2076.531       -1618.076
 94  3 17 10  8 59.9940000  0  8  2  9  7 12 23 27 26 16            -0.005033275
 -17389383.593 9 -13527596.93948  19576523.846    19576524.3944   19576529.4314
      1625.299        1266.467
 -16426937.819 9 -12761318.70046  21757446.310    21757446.8094   21757451.8534
      4815.741        3752.525
  -3164748.127 8  -2426249.30345  23178727.449    23178728.2364   23178736.1724
      4898.908        3817.331
  -4476386.201 9  -3453152.350 8  22610527.311    22610528.498    22610537.918
      5274.944        4110.346
 -19731945.333 9 -14988110.35947  21879973.577    21879974.4064   21879979.3574
      3824.905        2980.445
   4905812.470 9   3823578.53547  21473214.698    21473215.3294   21473220.9974
     -1731.469       -1349.197
 -18214797.296 9 -14165466.35249  19077657.711    19077659.0224   19077662.9484
      1912.235        1490.053
   6462263.253 9   5036192.19147  22313858.757    22313859.0554   22313865.9554
     -2079.136       -1620.106
 94  3 17 10  9 19.9940000  0  8  2  9  7 12 23 27 26 16            -0.005053540
 -17421763.304 9 -13552827.88648  19570362.033    19570362.7204   19570367.8104
      1612.862        1256.775
 -16523213.613 9 -12836338.76946  21739125.756    21739126.1204   21739131.0994
      4812.192        3749.760
  -3262704.707 9  -2502579.06345  23160086.590    23160087.6994   23160095.7254
      4897.014        3815.855
  -4581849.916 9  -3535331.791 8  22590458.254    22590459.634    22590468.945
      5271.596        4107.737
 -19808343.708 9 -15047641.55747  21865435.317    21865436.2994   21865441.1874
      3815.177        2972.865
   4940477.758 9   3850590.40647  21479811.108    21479811.9264   21479817.6314
     -1734.833       -1351.818
 -18252936.620 9 -14195185.31049  19070399.936    19070401.3314   19070405.3004
      1901.936        1482.028
   6503878.646 9   5068619.61446  22321777.854    22321778.2414   22321785.3784
     -2082.069       -1622.391
 94  3 17 10  9 39.9940000  0  8  2  9  7 12 23 27 26 16            -0.005073821
 -17453901.956 9 -13577870.99548  19564246.225    19564246.9274   19564252.0314
      1600.899        1247.454
 -16619428.646 9 -12911311.50146  21720816.471    21720817.0604   21720821.9014
      4809.266        3747.480
  -3360632.441 8  -2578886.35645  23141451.531    23141452.7784   23141460.6444
      4895.687        3814.821
  -4687254.134 9  -3617464.868 7  22570400.729    22570402.053    22570411.167
      5268.663        4105.452
 -19884554.389 9 -15107026.49047  21850933.162    21850933.8824   21850938.7224
      3805.743        2965.514
   4975203.594 9   3877649.45447  21486419.040    21486420.0704   21486425.7914
     -1737.776       -1354.111
 -18290878.203 9 -14224750.18449  19063179.899    19063181.2874   19063185.2614
      1892.157        1474.408
   6545542.012 9   5101084.58846  22329705.652    22329706.6734   22329713.3564
     -2084.441       -1624.240
 94  3 17 10  9 59.9940000  0  8  2  9  7 12 23 27 26 16            -0.005094118
 -17485802.609 9 -13602728.65048  19558175.872    19558176.4144   19558181.5274
      1589.068        1238.235
 -16715587.232 9 -12986240.23947  21702517.892    21702518.7174   21702523.5484
      4806.427        3745.268
  -3458530.052 8  -2655170.13445  23122822.051    23122823.2974   23122831.4134
      4894.022        3813.524
  -4792599.032 9  -3699551.806 7  22550354.219    22550355.700    22550364.374
      5265.667        4103.117
 -19960574.510 9 -15166262.94147  21836466.823    21836467.7354   21836472.5104
      3796.228        2958.100
   5009986.595 9   3904753.04647  21493038.157    21493039.0744   21493044.8614
     -1740.688       -1356.380
 -18328621.739 9 -14254160.73949  19055997.642    19055998.9654   19056002.9204
      1882.118        1466.585
   6587255.644 9   5133588.53246  22337643.680    22337644.4944   22337651.6914
     -2086.931       -1626.180
 94  3 17 10 10 19.9940000  0  8  2  9  7 12 23 27 26 16            -0.005114427
 -17517456.696 9 -13627394.17248  19552152.294    19552152.8104   19552157.9414
      1576.398        1228.362
 -16811677.153 9 -13061115.47547  21684232.527    21684233.4324   21684238.2224
      4802.482        3742.194
  -3556385.489 8  -2731421.08745  23104200.601    23104202.1234   23104210.1204
      4891.484        3811.546
  -4897875.571 8  -3781585.577 7  22530321.041    22530322.167    22530329.965
      5261.835        4100.131
 -20036398.024 9 -15225346.19547  21822038.038    21822039.0174   21822043.7074
      3786.163        2950.257
   5044839.306 9   3931910.96447  21499670.316    21499671.3644   21499677.0924
     -1744.611       -1359.437
 -18366153.843 9 -14283406.54049  19048855.485    19048856.8864   19048860.8014
      1871.041        1457.954
   6629026.635 9   5166137.30146  22345592.964    22345593.4724   22345600.2854
     -2090.181       -1628.712
 94  3 17 10 10 39.9940000  0  7  2  9  7 23 27 26 16               -0.005134760
 -17548855.639 9 -13651860.88148  19546177.252    19546177.7784   19546182.9104
      1564.036        1218.729
 -16907682.002 9 -13135924.42847  21665963.106    21665964.3644   21665969.0534
      4798.403        3739.015
  -3654181.573 9  -2807625.76145  23085590.550    23085591.9594   23085600.1064
      4888.581        3809.284
 -20112014.893 9 -15284268.43647  21807648.746    21807649.5884   21807654.2194
      3775.929        2942.282
   5079774.609 9   3959133.24346  21506318.190    21506319.3274   21506325.1024
     -1748.349       -1362.350
 -18403455.624 9 -14312472.86749  19041757.309    19041758.6214   19041762.5084
      1859.531        1448.985
   6670869.042 9   5198741.72446  22353555.592    22353555.7434   22353562.5384
     -2093.533       -1631.324
 94  3 17 10 10 59.9940000  0  8  2  9  7 12 23 27 26 16            -0.005155089
 -17580022.548 9 -13676146.78048  19540246.350    19540246.8974   19540252.0314
      1552.259        1209.552
 -17003614.049 9 -13210676.65647  21647708.385    21647709.1414   21647713.7664
      4794.350        3735.857
  -3751931.590 8  -2883794.57645  23066989.309    23066990.6544   23066998.8904
      4885.939        3807.225
    -45035.71219     -9212.21115  22490326.978           0.0001          0.0001
      5253.940        4093.979
 -20187436.580 9 -15343038.58047  21793296.561    21793297.3504   21793301.8774
      3765.761        2934.359
   5114770.819 9   3986402.96946  21512977.717    21512978.8954   21512984.7294
     -1751.787       -1365.029
 -18440538.793 9 -14341368.85149  19034700.709    19034701.9564   19034705.8274
      1848.422        1440.329
   6712768.245 9   5231390.26446  22361529.078    22361528.9684   22361536.2324
     -2096.851       -1633.910
 94  3 17 10 11 19.9940000  0  8  2  9  7 12 23 27 26 16            -0.005175418
 -17610950.784 9 -13700246.70148  19534360.827    19534361.4624   19534366.5904
      1540.188        1200.146
 -17099455.272 9 -13285358.11147  21629470.153    21629471.2214   21629475.7714
      4789.295        3731.918
  -3849619.751 9  -2959915.17245  23048399.878    23048401.0074   23048409.2914
      4882.459        3804.514
   -150072.741 9    -91059.11718  22470303.516    22470310.9461   22470320.0301
      5249.355        4090.406
 -20262648.898 9 -15401645.56947  21778984.122    21778984.9484   21778989.4024
      3755.126        2926.072
   5149844.733 9   4013733.25446  21519652.228    21519653.2774   21519659.0864
     -1756.025       -1368.331
 -18477395.255 9 -14370088.18049  19027687.118    19027688.4214   19027692.2724
      1836.932        1431.376
   6754741.636 9   5264096.76446  22369516.101    22369516.2754   22369523.2084
     -2100.852       -1637.028
 94  3 17 10 11 39.9940000  0  8  2  9  7 12 23 27 26 16            -0.005195735
 -17641631.307 9 -13724153.60148  19528522.529    19528523.1534   19528528.2734
      1527.974        1190.629
 -17195189.036 9 -13359955.82947  21611252.522    21611253.6564   21611258.1954
      4784.061        3727.840
  -3947228.076 9  -3035973.55045  23029825.892    23029826.7374   23029834.8994
      4878.305        3801.277
   -255011.953 9   -172829.877 8  22450334.295    22450340.849    22450350.796
      5244.554        4086.665
 -20337639.111 9 -15460079.50547  21764714.095    21764714.7904   21764719.1534
      3743.914        2917.336
   5185011.451 9   4041135.85746  21526344.172    21526345.3294   21526351.1184
     -1760.714       -1371.985
 -18514017.931 9 -14398625.34349  19020718.199    19020719.3984   19020723.2264
      1825.364        1422.361
   6796798.421 9   5296868.20246  22377519.109    22377519.4684   22377526.4804
     -2104.822       -1640.121
 94  3 17 10 11 59.9940000  0  8  2  9  7 12 23 27 26 16            -0.005216042
 -17672079.164 9 -13747879.19948  19522728.436    19522729.0844   19522734.2174
      1516.155        1181.419
 -17290821.970 9 -13434474.97747  21593054.013    21593055.2584   21593059.8174
      4778.656        3723.628
  -4044759.394 9  -3111971.93645  23011266.278    23011267.1204   23011275.3544
      4874.239        3798.108
   -359861.377 9   -254530.668 8  22430384.499    22430389.440    22430399.029
      5239.798        4082.959
 -20412413.133 9 -15518344.96647  21750485.164    21750485.7554   21750490.0724
      3732.886        2908.742
   5220263.253 9   4068604.76046  21533052.438    21533053.5324   21533059.3614
     -1765.090       -1375.395
 -18550416.911 9 -14426988.19049  19013791.631    19013792.9154   19013796.7424
      1813.909        1413.436
   6838928.617 9   5329696.76946  22385536.807    22385536.6024   22385543.8974
     -2108.741       -1643.175
 94  3 17 10 12 19.9940000  0  8  2  9  7 12 23 27 26 16            -0.005236343
 -17702293.161 9 -13771422.57048  19516978.913    19516979.5344   19516984.6624
      1505.246        1172.919
 -17386351.484 9 -13508913.54247  21574875.813    21574876.6094   21574881.1004
      4774.370        3720.288
  -4142214.685 9  -3187911.09245  22992721.457    22992721.9514   22992730.2614
      4871.322        3795.835
   -464619.868 8   -336160.594 7  22410451.473    22410454.919    22410464.244
      5235.985        4079.988
 -20486968.928 9 -15576440.38947  21736297.713    21736298.2734   21736302.4734
      3722.590        2900.719
   5255601.236 9   4096140.82046  21539776.641    21539778.1674   21539783.9914
     -1768.638       -1378.159
 -18586590.558 9 -14455175.45749  19006908.012    19006909.2974   19006913.0954
      1803.509        1405.332
   6881128.663 9   5362579.88746  22393566.995    22393567.0884   22393574.0324
     -2111.241       -1645.123
 94  3 17 10 12 39.9940000  0  8  2  9  7 12 23 27 26 16            -0.005256639
 -17732274.626 9 -13794784.74748  19511273.599    19511274.2074   19511279.3394
      1493.310        1163.618
 -17481787.216 9 -13583279.02647  21556714.916    21556715.7624   21556720.3084
      4769.639        3716.602
  -4239597.737 9  -3263793.94745  22974189.921    22974190.5454   22974198.8204
      4867.326        3792.722
   -569290.039 8   -417721.623 7  22390534.043    22390536.315    22390545.730
      5231.435        4076.443
 -20561301.663 9 -15634361.99847  21722152.594    21722153.2294   21722157.4394
      3711.003        2891.691
   5291023.734 9   4123742.72646  21546517.162    21546518.8804   21546524.6684
     -1773.203       -1381.717
 -18622545.261 9 -14483192.11849  19000066.119    19000067.3494   19000071.0954
      1792.424        1396.694
   6923393.379 9   5395513.29146  22401609.779    22401609.9534   22401617.1584
     -2114.839       -1647.926
 94  3 17 10 12 59.9940000  0  8  2  9  7 12 23 27 26 16            -0.005276928
 -17762022.749 9 -13817965.10148  19505612.624    19505613.3074   19505618.4424
      1481.265        1154.232
 -17577134.792 9 -13657575.82147  21538570.945    21538571.7064   21538576.2644
      4764.971        3712.964
  -4336907.134 9  -3339619.41545  22955672.505    22955673.1954   22955681.3534
      4863.429        3789.685
   -673871.600 9   -499213.739 7  22370633.189    22370635.199    22370644.131
      5226.698        4072.752
 -20635405.897 9 -15692105.54947  21708051.062    21708051.6334   21708055.9394
      3699.334        2882.598
   5326530.616 9   4151410.38246  21553273.946    21553275.5744   21553281.4594
     -1777.721       -1385.237
 -18658286.574 9 -14511042.50049  18993264.714    18993266.0204   18993269.7384
      1781.621        1388.276
   6965721.333 9   5428495.96146  22409664.330    22409664.7074   22409671.9604
     -2118.129       -1650.490
 94  3 17 10 13 19.9940000  0  8  2  9  7 12 23 27 26 16            -0.005297207
 -17791533.080 9 -13840960.16148  19499997.075    19499997.6924   19500002.8034
      1469.529        1145.088
 -17672396.825 9 -13731805.95947  21520443.555    21520443.9274   21520448.5404
      4761.124        3709.967
  -4434145.077 9  -3415389.20945  22937168.723    22937169.5054   22937177.5424
      4860.168        3787.144
   -778367.136 9   -580638.806 7  22350748.962    22350750.663    22350759.249
      5222.718        4069.650
 -20709283.742 9 -15749672.70647  21693992.517    21693993.1384   21693997.4724
      3688.298        2873.998
   5362122.769 9   4179144.49646  21560046.925    21560048.5544   21560054.4994
     -1781.643       -1388.293
 -18693820.011 9 -14538730.90149  18986502.920    18986504.2674   18986507.9424
      1771.560        1380.436
   7008108.849 9   5461525.18246  22417730.442    22417730.9284   22417737.8354
     -2120.737       -1652.522
 94  3 17 10 13 39.9940000  0  8  2  9  7 12 23 27 26 16            -0.005317484
 -17820806.100 9 -13863770.30348  19494426.633    19494427.2004   19494432.3154
      1457.739        1135.900
 -17767585.372 9 -13805978.82847  21502329.571    21502330.1544   21502334.8234
      4757.806        3707.381
  -4531319.461 9  -3491109.47545  22918677.087    22918677.8764   22918685.7584
      4857.193        3784.826
   -882784.527 9   -662002.953 8  22330878.542    22330880.861    22330889.356
      5219.015        4066.765
 -20782942.729 9 -15807069.33047  21679975.811    21679976.3044   21679980.6554
      3677.479        2865.568
   5397789.883 9   4206937.01546  21566834.375    21566835.7874   21566841.8014
     -1785.099       -1390.986
 -18729153.255 9 -14566263.30949  18979779.251    18979780.5924   18979784.2254
      1761.694        1372.749
   7050544.033 9   5494591.36346  22425805.762    22425806.0564   22425813.4864
     -2122.805       -1654.134
 94  3 17 10 13 59.9940000  0  8  2  9  7 12 23 27 26 16            -0.005337761
 -17849843.163 9 -13886396.58348  19488900.993    19488901.6394   19488906.7304
      1446.041        1126.785
 -17862707.865 9 -13880100.23447  21484228.294    21484228.9004   21484233.5584
      4754.466        3704.779
  -4628434.817 9  -3566783.73745  22900196.644    22900197.4084   22900205.2804
      4854.389        3782.641
   -987127.700 9   -743309.221 8  22311022.687    22311025.134    22311033.647
      5215.406        4063.953
 -20856383.345 9 -15864295.78147  21666000.568    21666000.9784   21666005.4024
      3666.742        2857.202
   5433528.852 9   4234785.54946  21573635.532    21573636.7134   21573642.7404
     -1788.634       -1393.741
 -18764287.782 9 -14593640.87249  18973093.382    18973094.7224   18973098.3044
      1751.791        1365.032
   7093020.359 9   5527689.72446  22433888.488    22433889.1494   22433896.4104
     -2124.824       -1655.707
 94  3 17 10 14 19.9940000  0  8  2  9  7 12 23 27 26 16            -0.005358040
 -17878643.346 9 -13908838.28248  19483420.445    19483421.1504   19483426.2204
      1433.772        1117.225
 -17957761.210 9 -13954167.76847  21466140.085    21466140.8264   21466145.4454
      4750.642        3701.799
  -4725492.574 9  -3642413.11945  22881727.409    22881727.9214   22881735.7084
      4851.050        3780.039
  -1091396.032 9   -824557.196 8  22291181.002    22291183.564    22291192.099
      5211.253        4060.717
 -20929607.027 9 -15921353.19547  21652066.286    21652066.9374   21652071.4804
      3655.428        2848.385
   5469339.741 9   4262690.11546  21580450.099    21580451.2964   21580457.3504
     -1792.757       -1396.954
 -18799222.006 9 -14620862.35349  18966445.570    18966446.9774   18966450.5464
      1741.413        1356.945
   7135540.226 9   5560821.97546  22441979.546    22441980.3954   22441987.7904
     -2127.397       -1657.712
 94  3 17 10 14 39.9940000  0  8  2  9  7 12 23 27 26 16            -0.005378308
 -17907192.321 9 -13931084.23748  19477987.857    19477988.4834   19477993.5184
      1421.141        1107.383
 -18052727.108 9 -14028167.15147  21448068.680    21448069.3624   21448074.0324
      4745.978        3698.165
  -4822471.464 9  -3717981.03545  22863273.010    22863273.4414   22863281.2084
      4846.806        3776.732
  -1195573.644 9   -905734.524 8  22271357.217    22271359.318    22271367.727
      5206.578        4057.074
 -21002600.588 9 -15978231.30547  21638175.942    21638176.7414   21638181.3344
      3644.072        2839.537
   5505240.180 9   4290664.45446  21587281.775    21587282.9434   21587289.0474
     -1797.332       -1400.518
 -18833941.477 9 -14647916.49549  18959838.771    18959840.1034   18959843.6644
      1730.594        1348.515
   7178121.344 9   5594001.92446  22450083.023    22450083.5414   22450091.0624
     -2130.730       -1660.309
 94  3 17 10 14 59.9940000  0  8  2  9  7 12 23 27 26 16            -0.005398567
 -17935492.363 9 -13953136.22048  19472602.591    19472603.1934   19472608.1894
      1409.014        1097.933
 -18147596.933 9 -14102091.67447  21430015.663    21430016.1324   21430020.8644
      4741.144        3694.398
  -4919366.977 9  -3793483.99046  22844834.066    22844834.8144   22844842.6044
      4842.960        3773.735
  -1299661.207 9   -986841.618 8  22251550.308    22251552.024    22251560.502
      5202.234        4053.689
 -21075376.290 9 -16034939.65447  21624327.174    21624327.9714   21624332.6334
      3633.674        2831.434
   5541227.241 9   4318706.29846  21594130.160    21594131.0364   21594137.2034
     -1801.275       -1403.591
 -18868448.297 9 -14674804.93449  18953272.421    18953273.6614   18953277.2494
      1720.122        1340.355
   7220764.618 9   5627230.37146  22458197.584    22458198.2214   22458205.5564
     -2133.462       -1662.438
 94  3 17 10 15 19.9940000  0  8  2  9  7 12 23 27 26 16            -0.005418828
 -17963550.144 9 -13974999.43148  19467263.403    19467263.9874   19467268.9784
      1396.534        1088.208
 -18242370.558 9 -14175941.23147  21411980.485    21411981.2854   21411985.9964
      4735.941        3690.344
  -5016186.823 9  -3868927.97045  22826409.668    22826410.6014   22826418.3644
      4838.718        3770.430
  -1403664.789 8  -1067883.263 8  22231758.915    22231760.680    22231769.236
      5197.679        4050.139
 -21147947.615 9 -16091488.74347  21610517.141    21610518.1194   21610522.8564
      3623.091        2823.188
   5577290.228 9   4346807.30446  21600992.607    21600993.5954   21600999.7794
     -1805.400       -1406.805
 -18902742.850 9 -14701527.96849  18946746.390    18946747.5914   18946751.2114
      1708.941        1331.642
   7263463.158 9   5660501.85746  22466322.703    22466323.6354   22466331.0444
     -2136.762       -1665.009
 94  3 17 10 15 39.9940000  0  8  2  9  7 12 23 27 26 16            -0.005439086
 -17991362.780 9 -13996671.62148  19461970.865    19461971.4324   19461976.4074
      1384.847        1079.101
 -18337045.193 9 -14249713.67047  21393964.634    21393965.2844   21393969.9704
      4731.684        3687.026
  -5112926.127 9  -3944309.19746  22808000.378    22808001.6504   22808009.4084
      4835.292        3767.760
  -1507578.791 9  -1148855.134 8  22211984.462    22211986.480    22211994.934
      5193.809        4047.124
 -21220307.685 9 -16147873.21647  21596747.452    21596748.4244   21596753.2504
      3613.057        2815.369
   5613434.236 9   4374971.44246  21607870.559    21607871.6414   21607877.8134
     -1808.912       -1409.542
 -18936813.802 9 -14728076.76849  18940262.943    18940264.1104   18940267.7254
      1698.286        1323.340
   7306223.268 9   5693821.21746  22474459.399    22474460.6064   22474468.3014
     -2139.178       -1666.892
 94  3 17 10 15 59.9940000  0  8  2  9  7 12 23 27 26 16            -0.005459352
 -18018947.321 9 -14018166.07248  19456721.597    19456722.2644   19456727.2344
      1373.735        1070.443
 -18431637.144 9 -14323421.67147  21375964.259    21375965.0104   21375969.6484
      4727.596        3683.841
  -5209601.363 9  -4019640.50746  22789603.761    22789604.9154   22789612.7714
      4832.285        3765.417
  -1611418.576 9  -1229769.218 8  22192224.791    22192226.566    22192234.778
      5190.214        4044.323
 -21292471.269 9 -16204104.58947  21583015.270    21583016.1074   21583020.9954
      3603.361        2807.814
   5649644.922 9   4403187.53546  21614760.979    21614762.3324   21614768.5204
     -1812.028       -1411.970
 -18970672.951 9 -14754460.52649  18933819.694    18933820.9134   18933824.5274
      1687.692        1315.085
   7349030.138 9   5727177.20146  22482605.795    22482606.7794   22482613.9604
     -2141.426       -1668.644
 94  3 17 10 16 19.9940000  0  8  2  9  7 12 23 27 26 16            -0.005479628
 -18046305.747 9 -14039484.33148  19451515.441    19451516.1524   19451521.0944
      1362.373        1061.589
 -18526143.302 9 -14397062.81747  21357980.096    21357981.0224   21357985.6994
      4723.404        3680.575
  -5306212.759 9  -4094922.07346  22771219.336    22771220.3964   22771228.2024
      4829.105        3762.939
  -1715182.136 9  -1310623.936 7  22172479.547    22172481.123    22172489.002
      5186.351        4041.312
 -21364438.159 9 -16260182.68547  21569320.531    21569321.2644   21569326.1684
      3593.530        2800.153
   5685921.768 9   4431455.18646  21621664.350    21621665.6234   21621671.7264
     -1815.231       -1414.466
 -19004314.818 9 -14780674.97449  18927417.721    18927419.0364   18927422.6934
      1676.801        1306.598
   7391888.969 9   5760573.51046  22490761.886    22490762.4764   22490770.0564
     -2144.112       -1670.737
 94  3 17 10 16 39.9940000  0  8  2  9  7 12 23 27 26 16            -0.005499915
 -18073432.951 9 -14060622.41748  19446353.333    19446354.0444   19446358.9954
      1350.522        1052.355
 -18620566.411 9 -14470639.24647  21340011.717    21340012.8004   21340017.5694
      4719.101        3677.222
  -5402758.918 9  -4170152.80446  22752847.450    22752848.2584   22752855.9944
      4825.755        3760.329
  -1818867.979 9  -1391418.073 8  22152748.990    22152750.365    22152758.217
      5182.354        4038.198
 -21436204.381 9 -16316104.42047  21555663.896    21555664.5854   21555669.5584
      3583.284        2792.169
   5722261.581 9   4459771.90346  21628579.701    21628580.9204   21628586.9524
     -1818.490       -1417.005
 -19037738.997 9 -14806719.79149  18921057.348    18921058.6454   18921062.2934
      1665.856        1298.070
   7434799.911 9   5794010.47446  22498927.579    22498928.3584   22498935.8734
     -2146.756       -1672.797
 94  3 17 10 16 59.9940000  0  8  2  9  7 12 23 27 26 16            -0.005520220
 -18100331.821 9 -14081582.58548  19441234.718    19441235.3944   19441240.3354
      1339.355        1043.653
 -18714917.607 9 -14544159.63547  21322056.989    21322058.2924   21322063.1564
      4716.013        3674.815
  -5499253.528 9  -4245343.37346  22734485.169    22734485.9204   22734493.6464
      4823.636        3758.677
  -1922484.751 9  -1472158.313 8  22133031.193    22133032.601    22133040.787
      5179.226        4035.761
 -21507773.986 9 -16371872.94047  21542044.414    21542045.3154   21542050.3204
      3573.576        2784.605
   5758650.544 9   4488126.91746  21635504.422    21635505.5034   21635511.5994
     -1820.458       -1418.539
 -19070954.980 9 -14832602.38149  18914736.602    18914737.8734   18914741.5184
      1655.738        1290.185
   7477750.922 9   5827478.76346  22507101.138    22507101.7934   22507109.1364
     -2148.293       -1673.995
