     2              OBSERVATION DATA    GPS                 RINEX VERSION / TYPE
TBIN                XXXXXXXXXXXX        96-09-09 22:06:36   PGM / RUN BY / DATE 
TOPCON-GEOCOMP RINEX Formatter-Version: 96.06.XX            COMMENT             
MODE : STATIC                                               COMMENT             
PTA                                                         COMMENT             
PTA1                                                        MARKER NAME         
CCG                                                         OBSERVER / AGENCY   
UNKNOWN                                                     REC# / TYPE / VERS  
UNKNOWN                                                     ANT # / TYPE        
   596915.9608 -4847845.5363  4088158.1628                  APPROX POSITION XYZ 
LATN  40 07 04.59551   LONE 277 01 10.22176    231.562(m)   COMMENT             
LATN  40 07 04.59551   LONW  82 58 49.77824    231.562(m)   COMMENT             
        1.6215        0.0000        0.0000                  ANTENNA: DELTA H/E/N
Original slant height(m) :   1.6230 Radius Used:0.0699      COMMENT             
   --> NO OFFSETS WERE ADDED TO ANTENNA: DELTA H/E/N <--    COMMENT             
                                                _______     COMMENT             
                                               /       \    COMMENT             
                                              |  TSII   |   COMMENT             
                                              | ANTENNA |   COMMENT             
HEIGHT MEASURED TO THIS POINT ______________\ |_________|   COMMENT             
                                            /   |__^__|     COMMENT             
Offset of preamp to circular base of antenna(m) : 0.0206    COMMENT             
Turbo SII antenna radius(m) :       0.0699                  COMMENT             
TurboRogue Choke ring radius(m) :   0.1896                  COMMENT             
Turbo SII antenna offsets(m) :      L1:  0.0530 L2:  0.0510 COMMENT             
TurboRogue Choke ring offsets(m) :  L1: -0.0064 L2:  0.0198 COMMENT             
     1     1                                                WAVELENGTH FACT L1/2
     5    C1    L1    L2    P1    P2                        # / TYPES OF OBSERV 
  1996     9     9    21    34   33.000000                  TIME OF FIRST OBS   
                                                            END OF HEADER       
                            3  4                                                
PTA1                                                        MARKER NAME         
USER COMMENT: PTA                                           COMMENT             
   596915.9608 -4847845.5363  4088158.1628                  APPROX POSITION XYZ 
LATN  40 07 04.59551   LONE 277 01 10.22176    231.562(m)   COMMENT             
LATN  40 07 04.59551   LONW  82 58 49.77824    231.562(m)   COMMENT             
        1.6215        0.0000        0.0000                  ANTENNA: DELTA H/E/N
        --> THIS IS A START OF A NEW SITE <--               COMMENT             
                 --> MODE: STATIC <--                       COMMENT             
 96  9  9 21 40  0.0000000  0  5 01 09 17 21 23
  21246869.91909   -545271.62609   -424885.74805         0.00000  21246872.87405
  21964001.55109    756270.06709    589301.32103         0.00000  21964004.54603
  23351785.35704   1382308.53304   1077123.01901         0.00000  23351792.12501
  20412175.87709   -494343.33609   -385202.58706         0.00000  20412179.12506
  20833595.09509    339090.56109    264226.46004         0.00000  20833599.51804
 96  9  9 21 40 15.0000000  0  5 01 09 17 21 23
  21242659.44209   -567397.26609   -442126.50505         0.00000  21242662.83305
  21970307.74909    789410.42209    615124.99003         0.00000  21970311.03503
  23362923.35304   1440839.87204   1122731.91701         0.00000  23362928.84601
  20408401.26409   -514178.52109   -400658.57405         0.00000  20408404.34905
  20836500.04809    354356.89809    276122.30205         0.00000  20836504.35905
 96  9  9 21 40 30.0000000  0  5 01 09 21 23 17
  21238459.84809   -589464.37709   -459321.62205         0.00000  21238462.83205
  21976632.59809    822650.34509    641026.22703         0.00000  21976634.96103
  20404639.66409   -533944.35909   -416060.51005         0.00000  20404642.77105
  20839419.08709    369694.11109    288073.34505         0.00000  20839423.30305
  23374066.30204   1499397.37804   1168361.06401         0.00000  23374069.73001
 96  9  9 21 40 45.0000000  0  5 01 09 21 23 17
  21234272.79609   -611471.55309   -476470.08405         0.00000  21234276.12205
  21982976.22309    855986.90209    667002.74503         0.00000  21982979.49203
  20400892.19109   -553636.13009   -431404.75605         0.00000  20400896.12005
  20842351.04609    385100.58409    300078.39905         0.00000  20842354.65805
  23385215.43004   1557981.76304   1214011.23601         0.00000  23385221.38601
 96  9  9 21 41  0.0000000  0  5 01 09 17 21 23
  21230094.33109   -633427.22209   -493578.38305         0.00000  21230097.70305
  21989336.68709    889410.37909    693047.01103         0.00000  21989340.14803
  23396366.51904   1616585.40004   1259676.24601         0.00000  23396373.36501
  20397158.03509   -573258.58909   -446694.98305         0.00000  20397161.29805
  20845294.89709    400569.35909    312131.98404         0.00000  20845298.26804
 96  9  9 21 41 15.0000000  0  5 01 09 17 21 23
  21225929.28809   -655315.53909   -510634.19804         0.00000  21225932.51204
  21995716.73609    922938.13909    719172.51503         0.00000  21995718.52503
  23407524.91704   1675223.05104   1305367.93601         0.00000  23407533.59001
  20393439.90709   -592795.43009   -461918.49005         0.00000  20393443.52905
  20848253.36109    416118.11909    324247.87905         0.00000  20848256.55705
 96  9  9 21 41 30.0000000  0  5 01 09 21 23 17
  21221778.03609   -677131.86609   -527633.94404         0.00000  21221781.21204
  22002118.20909    956575.50309    745383.42403         0.00000  22002119.63403
  20389739.88409   -612241.90209   -477071.58605         0.00000  20389743.05305
  20851228.18109    431752.09309    336430.19505         0.00000  20851231.55605
  23418690.88204   1733899.23404   1351089.57801         0.00000  23418693.70501
 96  9  9 21 41 45.0000000  0  5 01 09 21 23 17
  21217638.23609   -698883.28309   -544583.08604         0.00000  21217641.84004
  22008539.26109    990316.30909    771675.00603         0.00000  22008541.45903
  20386054.40409   -631607.50109   -492161.67905         0.00000  20386057.70105
  20854218.35609    447465.17309    348674.15105         0.00000  20854222.50305
  23429862.22504   1792608.62404   1396837.12701         0.00000  23429866.63301
 96  9  9 21 42  0.0000000  0  5 01 09 17 21 23
  21213510.75209   -720572.86609   -561484.04604         0.00000  21213514.51004
  22014978.98909   1024156.87109    798044.23803         0.00000  22014981.52103
  23441040.20005   1851346.32605   1442606.73902         0.00000  23441043.09302
  20382383.78909   -650897.30109   -507192.68406         0.00000  20382386.98106
  20857222.74809    463253.52009    360976.76505         0.00000  20857227.18605
 96  9  9 21 42 15.0000000  0  5 01 09 17 21 23
  21209394.93309   -742204.17609   -578339.60004         0.00000  21209398.41304
  22021437.32009   1058095.51809    824489.91903         0.00000  22021439.65503
  23452223.43805   1910109.45305   1488396.07901         0.00000  23452227.55601
  20378726.78309   -670116.07509   -522168.35305         0.00000  20378730.24405
  20860240.99609    479112.36709    373334.29104         0.00000  20860244.55704
 96  9  9 21 42 30.0000000  0  5 01 09 21 23 17
  21205290.52009   -763776.41909   -595149.14404         0.00000  21205293.83004
  22027913.70309   1092131.68209    851011.59803         0.00000  22027916.42403
  20375083.23109   -689261.38309   -537086.76806         0.00000  20375086.43406
  20863272.80509    495044.34509    385748.81405         0.00000  20863276.56905
  23463408.55604   1968898.21104   1534205.41001         0.00000  23463414.07101
 96  9  9 21 42 45.0000000  0  5 01 09 21 23 17
  21201196.01809   -785290.68209   -611913.49505         0.00000  21201199.32405
  22034409.39809   1126267.12309    877610.63503         0.00000  22034411.85703
  20371455.10909   -708328.42709   -551944.20806         0.00000  20371458.95406
  20866319.74709    511057.23109    398226.36104         0.00000  20866323.38804
  23474600.44705   2027711.04705   1580033.68301         0.00000  23474605.70501
 96  9  9 21 43  0.0000000  0  5 01 09 17 21 23
  21197166.74609   -806461.46309   -628410.21805         0.00000  21197170.91805
  22040978.50509   1160788.58909    904510.49903         0.00000  22040981.46503
  23485850.98605   2086834.03905   1626103.49001         0.00000  23485857.80601
  20367896.22209   -727030.45409   -566517.22506         0.00000  20367900.17606
  20869437.72109    527441.35909    410993.21905         0.00000  20869441.18505
 96  9  9 21 43 15.0000000  0  5 01 09 17 21 23
  21193150.54109   -827565.55609   -644854.97105         0.00000  21193154.83305
  22047567.32808   1195419.48408    931495.58503         0.00000  22047570.70803
  23497107.53304   2145988.02204   1672197.45001         0.00000  23497116.64101
  20364353.86109   -745646.81609   -581023.46705         0.00000  20364357.54405
  20872573.91409    543921.10009    423834.57505         0.00000  20872577.59305
 96  9  9 21 43 30.0000000  0  5 01 09 21 23 17
  21189143.75909   -848619.40709   -661260.54704         0.00000  21189148.36704
  22054174.71108   1230139.65708    958550.25102         0.00000  22054178.23702
  20360823.57809   -764199.74109   -595480.30206         0.00000  20360827.01206
  20875723.83609    560475.81209    436734.33105         0.00000  20875727.29105
  23508367.31205   2205153.75705   1718300.60101         0.00000  23508372.60101
 96  9  9 21 43 45.0000000  0  5 01 09 21 23 17
  21185147.27209   -869622.90809   -677626.93404         0.00000  21185150.81304
  22060799.04408   1264949.16708    985674.53603         0.00000  22060802.41703
  20357305.30409   -782689.44709   -609887.86405         0.00000  20357309.39805
  20878888.48509    577104.66309    449691.86404         0.00000  20878891.88004
  23519628.61704   2264332.91304   1764414.32501         0.00000  23519634.53301
 96  9  9 21 44  0.0000000  0  5 01 09 17 21 23
  21181153.57309   -890611.40309   -693981.59104         0.00000  21181156.63304
  22067432.64408   1299809.96908   1012838.78203         0.00000  22067436.98103
  23530884.32804   2323488.12804   1810509.14801         0.00000  23530890.29001
  20353790.68809   -801154.02009   -624275.84706         0.00000  20353794.69506
  20882059.88609    593770.58409    462678.30804         0.00000  20882063.69604
 96  9  9 21 44 15.0000000  0  5 01 09 17 21 23
  21177167.82809   -911554.76509   -710301.08304         0.00000  21177171.27304
  22074082.55308   1334753.63008   1040067.62303         0.00000  22074086.82703
  23542142.73104   2382650.00804   1856609.14001         0.00000  23542146.06401
  20350287.82809   -819561.06109   -638618.99505         0.00000  20350291.85705
  20885244.50509    610503.33209    475716.78505         0.00000  20885247.63605
 96  9  9 21 44 30.0000000  0  5 01 09 21 23 17
  21173190.42509   -932455.03309   -726587.00205         0.00000  21173194.16105
  22080747.62909   1369777.41209   1067358.86803         0.00000  22080751.89603
  20346796.61609   -837910.22409   -652917.04605         0.00000  20346800.01305
  20888441.41009    627301.05209    488805.93205         0.00000  20888443.86505
  23553401.31404   2441816.47804   1902712.94001         0.00000  23553408.61501
 96  9  9 21 44 45.0000000  0  5 01 09 21 23 17
  21169218.12309   -953329.24409   -742852.61704         0.00000  21169221.50004
  22087424.94709   1404864.76509   1094699.66503         0.00000  22087429.66003
  20343313.00009   -856213.87109   -667179.62205         0.00000  20343316.21705
  20891647.01209    644149.30809    501934.42805         0.00000  20891650.46805
  23564658.41004   2500971.18404   1948807.43301         0.00000  23564667.55601
 96  9  9 21 45  0.0000000  0  5 01 09 17 21 23
  21165247.16909   -974199.79209   -759115.38004         0.00000  21165250.23504
  22094108.99608   1439993.90908   1122073.01002         0.00000  22094112.45302
  23575908.73604   2560090.68104   1994874.72301         0.00000  23575914.86501
  20339833.71209   -874496.51509   -681425.83405         0.00000  20339838.06105
  20894857.54709    661022.71009    515082.52004         0.00000  20894861.40004
 96  9  9 21 45 15.0000000  0  6 01 09 05 21 23 17
  21161282.16909   -995038.51009   -775353.34405         0.00000  21161285.34405
  22100806.80409   1475190.73809   1149499.11103         0.00000  22100810.90703
  23960010.41203    -23622.50203    -18406.45501         0.00000  23960026.33401
  20336364.31009   -892732.00409   -695635.30205         0.00000  20336367.45805
  20898077.65709    677944.37909    528268.22605         0.00000  20898081.60905
  23587157.28704   2619202.64604   2040935.92600         0.00000  23587161.67800
 96  9  9 21 45 30.0000000  0  6 01 05 21 23 09 17
  21157323.39909  -1015839.15109   -791561.64105         0.00000  21157326.25105
  23954397.18402    -53102.20302    -41377.69801         0.00000  23954397.31501
  20332904.46109   -910915.39209   -709804.17005         0.00000  20332907.05905
  20901306.15309    694915.89609    541492.77904         0.00000  20901310.98104
  22107518.70809   1510460.78709   1176982.30803         0.00000  22107522.00603
  23598405.68904   2678313.11404   2086996.08801         0.00000  23598411.72101
 96  9  9 21 45 45.0000000  0  6 01 05 21 23 09 17
  21153368.42409  -1036624.33409   -807757.86905         0.00000  21153371.51405
  23948794.08303    -82560.34603    -64332.08101         0.00000  23948795.67001
  20329450.79609   -929064.35509   -723946.22205         0.00000  20329453.40805
  20904541.85209    711914.54509    554738.48205         0.00000  20904546.53505
  22114239.93308   1545783.03308   1204506.10803         0.00000  22114243.42503
  23609649.74604   2737401.74804   2133039.11601         0.00000  23609656.54001
 96  9  9 21 46  0.0000000  0  6 01 09 05 21 23 17
  21149412.16009  -1057407.37009   -823952.43805         0.00000  21149415.47305
  22120969.25608   1581144.42408   1232060.45103         0.00000  22120972.32703
  23943190.61403   -112011.19803    -87280.79601         0.00000  23943190.02601
  20326002.28009   -947187.95709   -738068.49205         0.00000  20326005.29205
  20907779.44109    728930.29309    567997.51104         0.00000  20907784.32804
  23620887.09003   2796454.69903   2179054.30101         0.00000  23620902.66401
 96  9  9 21 46 15.0000000  0  6 01 09 05 21 23 17
  21145475.47709  -1078098.09709   -840075.08205         0.00000  21145478.82705
  22127723.15209   1616633.75109   1259714.44103         0.00000  22127725.33603
  23937600.92102   -141362.27902   -110151.51501         0.00000  23937603.93701
  20322575.43609   -965193.51109   -752098.79405         0.00000  20322578.59405
  20911038.44909    746053.33909    581340.13105         0.00000  20911043.47205
  23632134.70203   2855560.39303   2225110.58201         0.00000  23632141.35401
 96  9  9 21 46 30.0000000  0  6 01 05 21 23 09 17
  21141558.51509  -1098684.66509   -856116.53504         0.00000  21141562.57204
  23932035.86402   -170599.27102   -132933.48901         0.00000  23932059.89001
  20319174.34609   -983065.48809   -766025.00206         0.00000  20319178.56206
  20914319.78909    763296.86009    594776.64405         0.00000  20914324.31905
  22134503.46209   1652263.04109   1287477.51503         0.00000  22134506.26503
  23643394.41603   2914731.10803   2271217.60601         0.00000  23643400.14101
 96  9  9 21 46 45.0000000  0  6 01 05 21 23 09 17
  21137658.90909  -1119174.11809   -872082.32604         0.00000  21137663.72704
  23926494.48202   -199730.62702   -155633.13001         0.00000  23926505.66101
  20315796.93609  -1000811.21109   -779852.83905         0.00000  20315800.67705
  20917622.57209    780654.60909    608302.15105         0.00000  20917626.35205
  22141309.44609   1688023.35909   1315342.70903         0.00000  22141312.23903
  23654666.56003   2973960.71103   2317370.39600         0.00000  23654677.63000
 96  9  9 21 47  0.0000000  0  6 01 09 05 21 23 17
  21133776.78909  -1139573.20309   -887977.71205         0.00000  21133781.44105
  22148138.37609   1723908.84809   1343305.43704         0.00000  22148140.63804
  23920968.20403   -228763.88503   -178256.75500         0.00000  23920971.03400
  20312443.60009  -1018438.67109   -793588.52805         0.00000  20312446.87505
  20920946.20009    798118.78209    621910.59205         0.00000  20920950.43005
  23665947.17103   3033242.48703   2363563.83501         0.00000  23665954.87901
 96  9  9 21 47 15.0000000  0  6 01 09 05 21 23 17
  21129911.76609  -1159888.48609   -903807.80204         0.00000  21129915.75404
  22154988.28509   1759908.78809   1371357.30704         0.00000  22154990.61604
  23915462.52603   -257708.86203   -200811.25800         0.00000  23915465.83000
  20309108.89509  -1035958.38809   -807240.25105         0.00000  20309112.49905
  20924287.18109    815677.81409    635592.97004         0.00000  20924291.57604
  23677236.10903   3092568.11603   2409791.75501         0.00000  23677244.69401
 96  9  9 21 47 30.0000000  0  6 01 05 21 23 09 17
  21126057.89609  -1180138.09609   -919586.70004         0.00000  21126061.63304
  23909968.84303   -286581.53103   -223309.43401         0.00000  23909971.04701
  20305792.31809  -1053386.98509   -820820.97505         0.00000  20305795.63805
  20927643.14609    833310.87909    649332.98805         0.00000  20927646.69405
  22161856.54809   1796004.52409   1399483.88003         0.00000  22161859.68003
  23688530.95304   3151917.31904   2456037.72101         0.00000  23688541.36601
 96  9  9 21 47 45.0000000  0  6 01 05 21 23 09 17
  21122213.61409  -1200342.62509   -935330.46505         0.00000  21122217.19205
  23904487.63404   -315401.58204   -245766.52101         0.00000  23904485.81701
  20302489.65409  -1070745.64409   -834347.19005         0.00000  20302493.11305
  20931008.41309    850996.79509    663114.21705         0.00000  20931011.70605
  22168739.28509   1832174.92909   1427668.60303         0.00000  22168742.65203
  23699825.29904   3211266.58704   2502284.01101         0.00000  23699832.32301
 96  9  9 21 48  0.0000000  0  6 01 09 05 21 23 17
  21118395.75309  -1220406.95309   -950964.99905         0.00000  21118398.94705
  22175655.15909   1868516.96809   1455987.04004         0.00000  22175658.07804
  23899029.84704   -344071.06604   -268106.45101         0.00000  23899033.37701
  20299217.66809  -1087937.48509   -847743.42205         0.00000  20299221.26405
  20934402.96909    868835.72409    677014.68205         0.00000  20934406.43805
  23711137.28704   3270710.32204   2548603.68001         0.00000  23711142.00801
 96  9  9 21 48 15.0000000  0  6 01 09 05 21 23 17
  21114588.58909  -1240413.95109   -966554.87005         0.00000  21114591.96605
  22182587.44409   1904945.40209   1484372.83004         0.00000  22182590.54504
  23893587.09804   -372670.75304   -290391.92501         0.00000  23893587.34601
  20295961.72809  -1105047.90209   -861076.22405         0.00000  20295964.95305
  20937811.78609    886747.99809    690972.30504         0.00000  20937815.58404
  23722451.48204   3330163.57004   2594931.00901         0.00000  23722460.90401
 96  9  9 21 48 30.0000000  0  6 01 05 21 23 09 17
  21110796.45209  -1260341.30809   -982082.67205         0.00000  21110800.09805
  23888161.73704   -401176.12804   -312603.93501         0.00000  23888171.04901
  20292725.09009  -1122054.52409   -874328.13205         0.00000  20292728.35705
  20941238.25309    904756.07709    705004.56804         0.00000  20941242.24304
  22189540.54709   1941482.70409   1512843.46203         0.00000  22189543.77703
  23733771.51604   3389650.91504   2641284.62201         0.00000  23733776.35301
 96  9  9 21 48 45.0000000  0  6 01 05 21 23 09 17
  21107022.42309  -1280174.63009   -997537.19405         0.00000  21107025.89405
  23882757.14904   -429574.98104   -334732.74701         0.00000  23882761.87201
  20289511.42109  -1138946.20909   -887490.48405         0.00000  20289514.47305
  20944685.93609    922874.04409    719122.44505         0.00000  20944690.37505
  22196515.26208   1978141.19408   1541408.49303         0.00000  22196518.13803
  23745101.15104   3449187.55404   2687676.79501         0.00000  23745104.94601
 96  9  9 21 49  0.0000000  0  6 01 09 05 21 23 17
  21103257.98409  -1299953.47009  -1012949.27104         0.00000  21103261.43004
  22203506.19908   2014878.87308   1570035.22403         0.00000  22203510.40303
  23877364.25403   -457907.71903   -356810.30201         0.00000  23877371.41701
  20286310.49009  -1155765.66809   -900596.54705         0.00000  20286313.73305
  20948146.42809    941058.98409    733292.53504         0.00000  20948150.10804
  23756431.21404   3508730.86704   2734074.14801         0.00000  23756432.73901
 96  9  9 21 49 15.0000000  0  6 01 09 05 21 23 17
  21099508.18509  -1319657.92709  -1028303.38105         0.00000  21099511.59105
  22210516.23408   2051714.92908   1598738.61803         0.00000  22210520.07003
  23871990.69504   -486152.73604   -378819.35801         0.00000  23871997.09801
  20283126.86009  -1172493.18209   -913630.97705         0.00000  20283130.52905
  20951623.14009    959331.18209    747530.59204         0.00000  20951627.58604
  23767767.54204   3568299.98404   2780491.64201         0.00000  23767774.48201
 96  9  9 21 49 30.0000000  0  6 01 05 21 23 09 17
  21095773.15609  -1339283.31309  -1043595.88905         0.00000  21095777.00505
  23866633.43603   -514302.86403   -400754.47800         0.00000  23866640.72400
  20279962.67409  -1189120.89809   -926587.62905         0.00000  20279966.32905
  20955118.14008    977700.47608    761844.32804         0.00000  20955122.80604
  22217546.41908   2088655.97308   1627523.85203         0.00000  22217550.52703
  23779109.40905   3627901.28305   2826934.13101         0.00000  23779116.11801
 96  9  9 21 49 45.0000000  0  6 01 05 21 23 09 17
  21092051.23309  -1358844.05309  -1058838.02405         0.00000  21092055.64505
  23861292.63504   -542370.86704   -422625.54401         0.00000  23861298.17301
  20276814.53109  -1205663.33109   -939477.83405         0.00000  20276818.54705
  20958630.95309    996158.35909    776227.09304         0.00000  20958635.76204
  22224592.67508   2125690.50608   1656381.95103         0.00000  22224596.47703
  23790453.84404   3687521.82004   2873391.56701         0.00000  23790457.03901
 96  9  9 21 50  0.0000000  0  6 01 09 05 21 23 17
  21088340.80209  -1378345.91409  -1074034.25405         0.00000  21088344.46805
  22231656.34407   2162814.71707   1685309.85902         0.00000  22231660.56702
  23855966.44004   -570361.67804   -444436.44501         0.00000  23855970.53901
  20273681.33309  -1222125.63009   -952305.59705         0.00000  20273685.61105
  20962159.90208   1014705.80808    790679.62904         0.00000  20962164.41904
  23801803.08505   3747160.15805   2919862.93801         0.00000  23801806.51401
 96  9  9 21 50 15.0000000  0  6 01 09 05 21 23 17
  21084643.86609  -1397772.32509  -1089171.71905         0.00000  21084647.83105
  22238741.72707   2200045.06307   1714320.50203         0.00000  22238745.41603
  23850659.52504   -598259.69404   -466175.26901         0.00000  23850662.71401
  20270567.84709  -1238491.54109   -965058.25905         0.00000  20270571.69305
  20965710.77209   1033361.53809    805216.56104         0.00000  20965715.31504
  23813159.01605   3806833.95605   2966362.00701         0.00000  23813165.51201
 96  9  9 21 50 30.0000000  0  6 01 05 21 23 09 17
  21080960.42909  -1417126.59709  -1104252.94905         0.00000  21080964.14105
  23845364.16703   -626070.17003   -487845.64701         0.00000  23845366.32501
  20267471.05009  -1254765.08009   -977738.94205         0.00000  20267474.78805
  20969280.37709   1052119.26209    819832.94304         0.00000  20969284.49304
  22245845.74607   2237379.09207   1743411.96102         0.00000  22245849.50402
  23824521.96205   3866541.52905   3012887.32601         0.00000  23824527.28201
 96  9  9 21 50 45.0000000  0  6 01 05 21 23 09 17
  21077288.68909  -1436423.94509  -1119289.85105         0.00000  21077291.97905
  23840087.29103   -653808.75803   -509460.23001         0.00000  23840087.42801
  20264389.04209  -1270961.11809   -990359.23005         0.00000  20264392.82705
  20972865.93109   1070960.44609    834514.38204         0.00000  20972870.44804
  22252967.46007   2274802.99307   1772573.41903         0.00000  22252970.96503
  23835887.47405   3926267.27905   3059426.96501         0.00000  23835890.67701
 96  9  9 21 51  0.0000000  0  6 01 09 05 21 23 17
  21073630.90909  -1455646.50609  -1134268.46305         0.00000  21073634.46005
  22260110.33207   2312336.36407   1801820.21802         0.00000  22260112.14102
  23834825.86103   -681458.97103   -531005.84101         0.00000  23834831.68101
  20261325.29309  -1287062.84909  -1002906.02305         0.00000  20261328.88905
  20976471.07609   1089902.42809    849274.35004         0.00000  20976474.31104
  23847257.63104   3986025.51604   3105991.78101         0.00000  23847259.56201
 96  9  9 21 51 15.0000000  0  6 01 09 05 21 23 17
  21069988.22609  -1474787.13009  -1149183.21105         0.00000  21069991.58505
  22267277.11408   2349992.45808   1831162.60702         0.00000  22267280.27902
  23829578.46303   -709009.09203   -552473.57501         0.00000  23829583.42401
  20258281.48509  -1303056.39409  -1015368.52505         0.00000  20258284.92305
  20980097.35909   1108956.86809    864121.97005         0.00000  20980100.47505
  23858635.06204   4045822.67804   3152586.80701         0.00000  23858638.24301
 96  9  9 21 51 30.0000000  0  6 01 05 21 23 09 17
  21066358.43309  -1493862.71309  -1164047.27805         0.00000  21066362.02105
  23824356.45804   -736475.82404   -573876.16501         0.00000  23824363.01001
  20255256.08209  -1318955.53609  -1027757.44905         0.00000  20255259.21905
  20983741.81309   1128111.59409    879047.71605         0.00000  20983745.14805
  22274463.72908   2387758.66608   1860590.82902         0.00000  22274465.82602
  23870017.53403   4105643.63703   3199200.59101         0.00000  23870019.99401
 96  9  9 21 51 45.0000000  0  6 01 05 21 23 09 17
  21062741.66609  -1512868.78909  -1178857.22205         0.00000  21062745.16005
  23819145.92803   -763856.63303   -595211.61301         0.00000  23819147.62701
  20252249.15109  -1334757.69109  -1040070.82905         0.00000  20252252.34105
  20987406.50709   1147368.34509    894052.98904         0.00000  20987409.93604
  22281671.67508   2425637.36208   1890106.63702         0.00000  22281673.85402
  23881407.05503   4165487.92203   3245832.54101         0.00000  23881408.23101
 96  9  9 21 52  0.0000000  0  6 01 23 05 21 09 17
  21059140.87809  -1531795.78609  -1193605.53205         0.00000  21059144.81705
  20991090.63709   1166732.78409    909142.14204         0.00000  20991094.97604
  23813952.21103   -791142.78803   -616473.61800         0.00000  23813957.93800
  20249262.90109  -1350452.69909  -1052300.70105         0.00000  20249266.56205
  22288902.25508   2463634.36908   1919714.69502         0.00000  22288903.07702
  23892802.12103   4225364.07803   3292489.14201         0.00000  23892810.12801
 96  9  9 21 52 15.0000000  0  6 01 23 05 21 09 17
  21055551.38109  -1550653.77709  -1208300.05205         0.00000  21055555.05205
  20994793.92109   1186192.03309    924305.20204         0.00000  20994797.71704
  23808778.82303   -818344.43703   -637669.72301         0.00000  23808782.42101
  20246295.40109  -1366048.48509  -1064453.24906         0.00000  20246299.22406
  22296152.81308   2501737.74508   1949405.62902         0.00000  22296155.39202
  23904201.82704   4285259.41404   3339160.67501         0.00000  23904199.07701
 96  9  9 21 52 30.0000000  0  6 01 05 21 23 09 17
  21051976.58709  -1569438.57609  -1222937.54505         0.00000  21051979.95405
  23803615.70803   -845455.06903   -658794.86301         0.00000  23803622.34101
  20243346.55209  -1381541.03909  -1076525.39105         0.00000  20243349.97205
  20998514.81509   1205746.07609    939542.06804         0.00000  20998518.36004
  22303423.86708   2539948.46108   1979180.28203         0.00000  22303428.01003
  23915602.08903   4345176.26203   3385849.23601         0.00000  23915602.82801
 96  9  9 21 52 45.0000000  0  6 01 05 21 23 09 17
  21048418.75709  -1588134.06509  -1237505.45905         0.00000  21048423.18605
  23798475.39202   -872456.96002   -679835.01700         0.00000  23798493.95800
  20240421.20509  -1396914.00409  -1088504.32205         0.00000  20240425.02005
  21002256.50309   1225408.57509    954863.51704         0.00000  21002260.14704
  22310717.75508   2578279.51308   2009048.57402         0.00000  22310720.99602
  23927011.86003   4405130.81403   3432566.66501         0.00000  23927015.41501
 96  9  9 21 53  0.0000000  0  6 01 23 05 21 09 17
  21044876.79809  -1606750.04909  -1252011.42805         0.00000  21044880.36505
  21006017.00309   1245169.42609    970261.55404         0.00000  21006020.36704
  23793355.12802   -899360.37302   -700798.94700         0.00000  23793364.62900
  20237516.71809  -1412177.08709  -1100397.64005         0.00000  20237520.34205
  22318032.90108   2616718.87108   2039001.31902         0.00000  22318036.07102
  23938425.08503   4465111.29303   3479304.96601         0.00000  23938432.48101
 96  9  9 21 53 15.0000000  0  6 01 23 05 21 09 17
  21041348.66409  -1625292.06509  -1266459.75505         0.00000  21041352.05405
  21009794.73309   1265023.36609    985732.17704         0.00000  21009798.71504
  23788255.06202   -926171.04802   -721690.47301         0.00000  23788266.86301
  20234631.79409  -1427335.75109  -1112209.56606         0.00000  20234635.43606
  22325366.78708   2655260.45408   2069033.73102         0.00000  22325368.89002
  23949841.74503   4525112.97103   3526059.49401         0.00000  23949850.03501
 96  9  9 21 53 30.0000000  0  6 01 05 21 23 09 17
  21037833.11809  -1643762.36909  -1280852.15905         0.00000  21037836.86705
  23783171.84602   -952890.27302   -742510.53500         0.00000  23783178.66800
  20231766.46009  -1442394.06509  -1123943.29904         0.00000  20231769.80604
  21013590.07409   1284967.09209   1001272.71704         0.00000  21013594.18304
  22332720.06509   2693898.42709   2099141.25903         0.00000  22332723.29903
  23961264.34003   4585137.78603   3572832.07101         0.00000  23961267.23401
 96  9  9 21 53 45.0000000  0  6 01 05 21 23 09 17
  21034332.09809  -1662163.07909  -1295190.38005         0.00000  21034336.36905
  23778102.30702   -979523.15102   -763263.82801         0.00000  23778103.09901
  20228918.13909  -1457359.75909  -1135604.91105         0.00000  20228921.84905
  21017401.44709   1304991.13709   1016875.87604         0.00000  21017405.71004
  22340090.00309   2732625.80209   2129318.41003         0.00000  22340093.31703
  23972689.21003   4645182.21203   3619619.61201         0.00000  23972695.02601
 96  9  9 21 54  0.0000000  0  6 01 23 05 21 09 17
  21030830.26909  -1680566.78909  -1309530.93405         0.00000  21030834.18805
  21021212.03009   1325018.54909   1032481.65105         0.00000  21021215.44605
  23773039.29803  -1006143.71903   -784006.43701         0.00000  23773043.78801
  20226074.64609  -1472306.85909  -1147251.99805         0.00000  20226077.87405
  22347461.85709   2771364.98009   2159504.77603         0.00000  22347464.98503
  23984103.56002   4705172.04202   3666365.15301         0.00000  23984109.22701
 96  9  9 21 54 15.0000000  0  6 01 23 05 21 09 17
  21027347.56209  -1698864.24809  -1323788.67705         0.00000  21027351.49805
  21025044.45709   1345159.56309   1048175.93304         0.00000  21025048.85004
  23767995.87002  -1032642.52902   -804655.04601         0.00000  23768003.05501
  20223255.31709  -1487124.50009  -1158798.20905         0.00000  20223258.16505
  22354857.07509   2810227.07209   2189786.92203         0.00000  22354860.32503
  23995528.69602   4765218.20502   3713154.75700         0.00000  23995539.86200
 96  9  9 21 54 30.0000000  0  6 01 05 21 23 09 17
  21023887.97109  -1717043.71509  -1337954.48105         0.00000  21023891.95805
  23762980.31203  -1059004.04303   -825196.47101         0.00000  23762985.36301
  20220462.02609  -1501801.55609  -1170234.85705         0.00000  20220465.10105
  21028901.41709   1365427.53309   1063969.14504         0.00000  21028904.91204
  22362277.70008   2849225.42108   2220175.20903         0.00000  22362280.76903
  24006968.43002   4825331.56202   3759995.69501         0.00000  24006978.41101
 96  9  9 21 54 45.0000000  0  6 01 05 21 23 09 17
  21020453.90509  -1735095.29209  -1352020.64305         0.00000  21020456.92605
  23757992.70903  -1085217.91403   -845622.78801         0.00000  23757996.46101
  20217697.85209  -1516329.06609  -1181555.00904         0.00000  20217701.04704
  21032784.31209   1385833.98509   1079870.28104         0.00000  21032788.60204
  22369727.23609   2888370.14709   2250677.60003         0.00000  22369730.48603
  24018426.11903   4885522.79003   3806897.77401         0.00000  24018430.99801
 96  9  9 21 55  0.0000000  0  6 01 23 05 21 09 17
  21017026.02909  -1753107.21409  -1366055.91105         0.00000  21017029.24205
  21036678.33409   1406291.12609   1095810.91104         0.00000  21036682.58704
  23753016.64803  -1111373.99903   -866004.12201         0.00000  23753021.98801
  20214944.67209  -1530791.77709  -1192824.64005         0.00000  20214948.81105
  22377187.72809   2927575.24209   2281226.99303         0.00000  22377190.53303
  24029878.98103   4945702.67503   3853791.13100         0.00000  24029886.65800
 96  9  9 21 55 15.0000000  0  6 01 23 05 21 09 17
  21013609.62209  -1771057.49809  -1380043.12405         0.00000  21013612.81105
  21040585.00109   1426824.64909   1111811.07904         0.00000  21040588.71004
  23748054.38903  -1137450.13903   -886323.41801         0.00000  23748056.50001
  20212209.40709  -1545166.95009  -1204026.08305         0.00000  20212213.61505
  22384664.28409   2966865.22209   2311842.54703         0.00000  22384666.64903
  24041330.71103   5005894.39303   3900693.64500         0.00000  24041336.44100
 96  9  9 21 55 30.0000000  0  6 01 05 21 23 09 17
  21010206.64709  -1788940.37809  -1393977.82905         0.00000  21010209.91205
  23743105.82503  -1163440.12903   -906575.19701         0.00000  23743112.59701
  20209491.95209  -1559447.79209  -1215153.99305         0.00000  20209495.31705
  21044508.28109   1447442.40209   1127876.83904         0.00000  21044512.76504
  22392158.63009   3006244.91709   2342528.01103         0.00000  22392160.56503
  24052785.93303   5066102.78603   3947609.43801         0.00000  24052795.07601
 96  9  9 21 55 45.0000000  0  6 01 05 21 23 09 17
  21006814.19609  -1806769.40209  -1407870.56405         0.00000  21006818.39105
  23738173.53002  -1189359.79702   -926772.38401         0.00000  23738177.57401
  20206789.99309  -1573646.02809  -1226217.55605         0.00000  20206793.26105
  21048444.87709   1468132.21409   1143998.77704         0.00000  21048449.08004
  22399666.20709   3045699.27909   2373271.63803         0.00000  22399669.21203
  24064244.30903   5126309.95703   3994523.98701         0.00000  24064250.95301
 96  9  9 21 56  0.0000000  0  6 01 23 05 21 09 17
  21003433.90409  -1824532.02309  -1421711.57505         0.00000  21003438.44205
  21052399.34309   1488910.38509   1160189.52704         0.00000  21052403.22904
  23733257.55203  -1215196.17003   -946904.62801         0.00000  23733260.79001
  20204107.25109  -1587745.51309  -1237204.17605         0.00000  20204110.18105
  22407190.07308   3085240.86908   2404083.26002         0.00000  22407191.24102
  24075705.81103   5186526.52303   4041446.01501         0.00000  24075725.01501
 96  9  9 21 56 15.0000000  0  6 01 23 05 21 09 17
  21000065.22609  -1842232.54209  -1435504.17605         0.00000  21000070.03705
  21056370.98809   1509781.77909   1176452.97704         0.00000  21056374.56704
  23728357.73402  -1240950.02602   -966972.39800         0.00000  23728360.06500
  20201442.77609  -1601747.16909  -1248114.54605         0.00000  20201446.13405
  22414730.17208   3124867.42208   2434961.06402         0.00000  22414733.24602
  24087166.59203   5246751.63103   4088374.59101         0.00000  24087179.48701
 96  9  9 21 56 30.0000000  0  6 01 05 21 23 09 17
  20996708.79909  -1859871.44609  -1449248.79505         0.00000  20996713.00705
  23723473.16803  -1266615.44903   -986971.24700         0.00000  23723476.19700
  20198797.16209  -1615651.04209  -1258948.74005         0.00000  20198800.25205
  21060361.46209   1530749.96909   1192791.78604         0.00000  21060365.10104
  22422288.34708   3164583.83608   2465908.93002         0.00000  22422291.28402
  24098629.51004   5306989.90404   4135313.51701         0.00000  24098638.31901
 96  9  9 21 56 45.0000000  0  6 01 05 21 23 09 17
  20993367.94109  -1877430.87209  -1462931.44706         0.00000  20993372.12906
  23718609.34103  -1292174.92303  -1006887.95501         0.00000  23718608.93601
  20196172.63109  -1629439.67009  -1269693.11905         0.00000  20196175.87505
  21064372.49709   1551831.64909   1209219.06404         0.00000  21064376.12304
  22429866.08508   3204407.41008   2496940.27702         0.00000  22429869.28902
  24110098.18604   5367261.65204   4182278.29501         0.00000  24110105.77101
 96  9  9 21 57  0.0000000  0  6 01 23 05 21 09 17
  20990040.46609  -1894917.75909  -1476557.59506         0.00000  20990044.07606
  21068404.63109   1573017.77409   1225727.73204         0.00000  21068408.06604
  23713763.47403  -1317637.49903  -1026728.84401         0.00000  23713764.62301
  20193569.95709  -1643119.18609  -1280352.47105         0.00000  20193572.81205
  22437463.29808   3244330.93708   2528049.51503         0.00000  22437466.58703
  24121571.56803   5427559.87303   4229263.96301         0.00000  24121579.21601
 96  9  9 21 57 15.0000000  0  6 01 23 05 21 09 17
  20986723.38109  -1912351.51109  -1490142.35106         0.00000  20986726.75206
  21072452.81609   1594291.75509   1242304.85104         0.00000  21072456.66204
  23708934.42303  -1343018.73203  -1046506.31701         0.00000  23708934.99501
  20190984.32909  -1656705.83509  -1290939.47905         0.00000  20190987.56505
  22445076.48508   3284337.24908   2559223.24502         0.00000  22445079.46202
  24133048.27604   5487866.03504   4276255.72301         0.00000  24133052.28601
 96  9  9 21 57 30.0000000  0  6 23 05 01 21 09 17
  21076521.10209   1615669.31109   1258962.67005         0.00000  21076524.78105
  23704122.22103  -1368302.36503  -1066207.88701         0.00000  23704127.61901
  20983418.57509  -1929716.76409  -1503673.68606         0.00000  20983421.81806
  20188419.66209  -1670184.83209  -1301442.59005         0.00000  20188423.37705
  22452708.55608   3324441.36808   2590473.17602         0.00000  22452712.20602
  24144528.04603   5548195.65603   4323265.71401         0.00000  24144535.08701
 96  9  9 21 57 45.0000000  0  6 23 05 01 21 09 17
  21080608.82209   1637149.36209   1275700.38305         0.00000  21080612.72305
  23699331.80803  -1393485.40003  -1085831.09201         0.00000  23699336.72501
  20980127.20509  -1947013.53509  -1517151.68405         0.00000  20980130.32905
  20185874.73209  -1683557.52909  -1311862.86705         0.00000  20185878.48205
  22460358.94208   3364643.42008   2621799.43602         0.00000  22460362.16502
  24156013.51704   5608547.00204   4370292.68901         0.00000  24156018.87601
 96  9  9 21 58  0.0000000  0  6 23 09 05 01 21 17
  21084715.20909   1658732.25809   1292518.22104         0.00000  21084719.58304
  22468027.90708   3404944.98108   2653203.28602         0.00000  22468030.67702
  23694561.75504  -1418563.06504  -1105372.25000         0.00000  23694566.36500
  20976849.03009  -1964242.92709  -1530577.16106         0.00000  20976852.26406
  20183350.27209  -1696822.42509  -1322199.14105         0.00000  20183353.89305
  24167503.71404   5668922.95304   4417338.97801         0.00000  24167502.62401
 96  9  9 21 58 15.0000000  0  6 23 09 05 21 01 17
  21088837.49509   1680394.17009   1309397.60804         0.00000  21088841.40904
  22475711.37508   3445322.51408   2684666.28102         0.00000  22475714.54902
  23689803.53803  -1443555.87403  -1124846.74301         0.00000  23689811.11801
  20180841.73609  -1710003.13909  -1332469.84505         0.00000  20180845.89705
  20973578.72209  -1981427.63609  -1543967.83406         0.00000  20973581.28806
  24178993.85104   5729303.11404   4464388.24901         0.00000  24178996.53401
 96  9  9 21 58 30.0000000  0  6 23 05 01 21 09 17
  21092978.83709   1702152.30909   1326352.01304         0.00000  21092982.48704
  23685068.00303  -1468440.88603  -1144237.79701         0.00000  23685070.55701
  20970320.50909  -1998545.39209  -1557306.35906         0.00000  20970323.63806
  20178353.87209  -1723079.92609  -1342659.54505         0.00000  20178357.75605
  22483413.41408   3485797.58608   2716205.32102         0.00000  22483415.07202
  24190489.51104   5789706.66704   4511455.84401         0.00000  24190495.98601
 96  9  9 21 58 45.0000000  0  6 23 05 01 21 09 17
  21097141.09109   1724024.20709   1343395.04105         0.00000  21097144.83605
  23680357.76804  -1493195.90204  -1163527.27201         0.00000  23680362.51801
  20967080.51209  -2015570.35509  -1570572.56705         0.00000  20967084.53005
  20175890.16709  -1736027.91009  -1352748.89205         0.00000  20175893.38105
  22491138.20708   3526393.17408   2747838.18602         0.00000  22491141.32002
  24201992.60704   5850153.50004   4558557.29201         0.00000  24201995.44601
 96  9  9 21 59  0.0000000  0  6 23 09 05 01 21 17
  21101320.09709   1745985.79709   1360507.96204         0.00000  21101323.26604
  22498881.54708   3567082.66308   2779544.26702         0.00000  22498882.65302
  23675665.64304  -1517846.17204  -1182735.43401         0.00000  23675670.91101
  20963854.24609  -2032525.42609  -1583784.29905         0.00000  20963859.14605
  20173447.24109  -1748868.21809  -1362754.33306         0.00000  20173450.50106
  24213497.10803   5910613.68603   4605669.19601         0.00000  24213502.49301
 96  9  9 21 59 15.0000000  0  6 23 09 05 01 21 17
  21105513.95409   1768026.93209   1377682.87304         0.00000  21105517.75704
  22506639.15508   3607851.38108   2811312.09903         0.00000  22506641.62003
  23670990.42803  -1542402.72203  -1201870.37201         0.00000  23670997.34301
  20960637.13609  -2049424.89009  -1596952.72805         0.00000  20960642.30105
  20171022.14309  -1761611.34709  -1372684.04105         0.00000  20171025.27705
  24225001.21303   5971073.29903   4652780.31701         0.00000  24225013.00901
 96  9  9 21 59 30.0000000  0  6 23 05 01 21 09 17
  21109726.35409   1790167.75109   1394935.43604         0.00000  21109730.70004
  23666339.72104  -1566849.43104  -1220919.78001         0.00000  23666348.02601
  20957436.32809  -2066246.59409  -1610060.53205         0.00000  20957441.35705
  20168618.79209  -1774239.94209  -1382524.49205         0.00000  20168622.29405
  22514415.79907   3648716.50907   2843155.09302         0.00000  22514417.94802
  24236509.42403   6031551.14503   4699905.89601         0.00000  24236517.68101
 96  9  9 21 59 45.0000000  0  6 23 05 21 01 09 17
  21113956.93209   1812397.89809   1412257.61504         0.00000  21113961.22204
  23661708.33704  -1591194.26204  -1239889.80601         0.00000  23661712.16401
  20166235.46109  -1786764.12209  -1392283.58905         0.00000  20166238.97405
  20954249.34009  -2082996.18809  -1623112.16306         0.00000  20954253.49906
  22522209.36207   3689669.49007   2875066.46102         0.00000  22522213.03202
  24248019.83603   6092038.24103   4747039.11200         0.00000  24248020.09700
 96  9  9 22  0  0.0000000  0  6 23 09 05 01 21 17
  21118201.85309   1834704.56909   1429639.42604         0.00000  21118206.14604
  22530017.03707   3730696.79607   2907035.75702         0.00000  22530020.01902
  23657091.19604  -1615448.20004  -1258788.92601         0.00000  23657092.10301
  20951074.03909  -2099685.12209  -1636116.52206         0.00000  20951077.65506
  20163869.80409  -1799197.58509  -1401972.00305         0.00000  20163873.07705
  24259531.04403   6152521.18803   4794168.31400         0.00000  24259533.88300
 96  9  9 22  0 15.0000000  0  6 23 05 21 01 09 17
  21122465.87509   1857109.44109   1447097.78604         0.00000  21122470.06004
  23652497.68204  -1639592.27404  -1277602.62101         0.00000  23652501.31801
  20161525.21309  -1811516.76209  -1411571.37005         0.00000  20161529.13405
  20947915.17409  -2116288.85409  -1649054.48406         0.00000  20947919.37406
  22537842.51507   3771821.75007   2939081.17102         0.00000  22537847.13902
  24271043.57503   6213023.92003   4841313.18800         0.00000  24271046.87400
 96  9  9 22  0 30.0000000  0  6 23 05 01 21 09 17
  21126746.83409   1879608.52509   1464629.51204         0.00000  21126751.47304
  23647922.75104  -1663628.83104  -1296332.38501         0.00000  23647927.43101
  20944771.99409  -2132805.04009  -1661924.23306         0.00000  20944775.14506
  20159201.41209  -1823725.85409  -1421084.95406         0.00000  20159204.97606
  22545687.91008   3813045.85008   2971203.82102         0.00000  22545691.15102
  24282561.19503   6273543.67903   4888471.19300         0.00000  24282565.53100
 96  9  9 22  0 45.0000000  0  6 23 05 01 21 09 17
  21131038.12609   1902161.31909   1482203.10604         0.00000  21131042.92104
  23643360.61403  -1687596.20003  -1315008.13901         0.00000  23643366.79501
  20941638.34109  -2149273.27009  -1674756.63805         0.00000  20941640.73405
  20156892.16209  -1835863.26409  -1430542.67205         0.00000  20156895.62205
  22553544.07507   3854333.19307   3003375.78302         0.00000  22553547.50202
  24294070.50002   6334039.43302   4935610.72100         0.00000  24294080.89300
 96  9  9 22  1  0.0000000  0  6 23 09 05 01 21 17
  21135347.88909   1924808.20009   1499850.04904         0.00000  21135352.17204
  22561420.38407   3895720.66007   3035625.74003         0.00000  22561422.87403
  23638821.13904  -1711458.90904  -1333602.41401         0.00000  23638827.80801
  20938520.84409  -2165657.50609  -1687523.56005         0.00000  20938523.39905
  20154603.57709  -1847888.59409  -1439913.06605         0.00000  20154607.30005
  24305584.74402   6394550.20802   4982761.88201         0.00000  24305597.96501
 96  9  9 22  1 15.0000000  0  6 23 09 05 21 01 17
  21139672.71509   1947532.66109   1517557.40304         0.00000  21139676.85804
  22569310.79307   3937187.39107   3067937.49202         0.00000  22569314.10302
  23634296.89804  -1735236.00904  -1352130.05601         0.00000  23634304.45301
  20152332.72709  -1859822.86309  -1449212.49306         0.00000  20152336.09106
  20935415.09809  -2181978.87409  -1700241.51206         0.00000  20935417.99606
  24317100.42102   6455059.68602   5029912.18400         0.00000  24317106.56400
 96  9  9 22  1 30.0000000  0  6 23 05 01 21 09 17
  21144014.10309   1970345.02009   1535333.25504         0.00000  21144017.48004
  23629792.30705  -1758916.87105  -1370582.60001         0.00000  23629799.31501
  20932323.47809  -2198222.69609  -1712899.05905         0.00000  20932325.84605
  20150081.00709  -1871656.09009  -1458433.17205         0.00000  20150084.08905
  22577219.51107   3978746.84107   3100321.44603         0.00000  22577222.76403
  24328618.36902   6515580.90602   5077071.53001         0.00000  24328630.08401
 96  9  9 22  1 45.0000000  0  6 23 05 01 21 09 17
  21148375.56509   1993263.15809   1553191.55205         0.00000  21148379.22405
  23625308.74905  -1782480.31005  -1388943.72901         0.00000  23625311.81001
  20929250.45709  -2214369.42609  -1725480.90905         0.00000  20929253.48305
  20147851.76109  -1883370.37709  -1467561.21005         0.00000  20147855.51805
  22585149.84907   4020419.39607   3132793.55202         0.00000  22585153.14202
  24340142.19503   6576132.03603   5124254.24900         0.00000  24340148.21400
 96  9  9 22  2  0.0000000  0  6 23 09 05 01 21 17
  21152746.78109   2016240.26409   1571095.79804         0.00000  21152751.02004
  22593091.49307   4062158.32407   3165317.38402         0.00000  22593094.79502
  23620838.65305  -1805971.07605  -1407248.19701         0.00000  23620842.83001
  20926186.91609  -2230467.68809  -1738025.00205         0.00000  20926190.24105
  20145636.19309  -1895012.52409  -1476632.99805         0.00000  20145639.41105
  24351660.34502   6636666.78202   5171423.85601         0.00000  24351667.54401
 96  9  9 22  2 15.0000000  0  6 23 05 09 01 21 17
  21157133.93309   2039294.08109   1589059.79904         0.00000  21157138.43004
  23616383.25904  -1829372.96604  -1425483.50901         0.00000  23616386.46601
  22601049.83407   4103978.83807   3197904.74002         0.00000  22601052.78602
  20923136.28309  -2246501.12809  -1750518.59205         0.00000  20923139.50305
  20143438.47909  -1906562.62509  -1485633.08505         0.00000  20143442.25705
  24363177.83002   6697204.29502   5218596.03001         0.00000  24363181.04201
 96  9  9 22  2 30.0000000  0  6 23 05 01 21 09 17
  21161533.17808   2062416.85408   1607077.50604         0.00000  21161537.76804
  23611945.98004  -1852695.15604  -1443656.57501         0.00000  23611952.55401
  20920095.24609  -2262479.73809  -1762969.44805         0.00000  20920098.88505
  20141257.08609  -1918027.18109  -1494566.50606         0.00000  20141260.52406
  22609020.96707   4145870.74507   3230547.81803         0.00000  22609025.64103
  24374694.73802   6757736.15902   5265763.45800         0.00000  24374697.04500
 96  9  9 22  2 45.0000000  0  6 23 05 01 21 09 17
  21165942.93108   2085587.59508   1625132.63704         0.00000  21165948.67704
  23607519.64404  -1875958.40404  -1461783.87101         0.00000  23607523.40301
  20917060.65909  -2278428.49109  -1775397.04306         0.00000  20917064.07206
  20139088.18509  -1929425.53909  -1503448.35306         0.00000  20139091.43906
  22617000.89107   4187807.08207   3263225.44002         0.00000  22617004.58302
  24386206.68602   6818238.34702   5312908.28501         0.00000  24386210.44301
 96  9  9 22  3  0.0000000  0  6 23 09 05 01 21 17
  21170376.14809   2108883.33009   1643285.15304         0.00000  21170380.45004
  22625001.90206   4229856.21206   3295990.95402         0.00000  22625007.01902
  23603114.84103  -1899091.77403  -1479809.87201         0.00000  23603119.01801
  20914044.96209  -2294275.55409  -1787745.40005         0.00000  20914048.52005
  20136945.85909  -1940682.26909  -1512219.82106         0.00000  20136948.76706
  24397730.96602   6878784.89102   5360086.64900         0.00000  24397759.92700
 96  9  9 22  3 15.0000000  0  7 23 09 25 01 21 05 17
  21174825.60509   2132264.34809   1661504.11604         0.00000  21174829.82004
  22633016.66607   4271971.36007   3328807.98902         0.00000  22633021.16202
  24091512.49402    -42321.71502    -32977.358100         0.00000  24091519.07700
  20911039.99809  -2310063.12909  -1800047.39106         0.00000  20911043.67106
  20134822.31809  -1951842.33909  -1520915.96606         0.00000  20134825.52106
  23598727.64903  -1922138.45403  -1497768.18800         0.00000  23598732.19200
  24409253.55602   6939332.60302   5407266.79901         0.00000  24409259.70601
 96  9  9 22  3 30.0000000  0  7 23 25 21 01 05 09 17
  21179292.66109   2155734.52709   1679792.56104         0.00000  21179297.38204
  24081448.88902    -95197.53102    -74179.05100         0.00000  24081441.38900
  20132717.67509  -1962901.19009  -1529533.26205         0.00000  20132721.03705
  20908048.10809  -2325783.64209  -1812297.14106         0.00000  20908052.27406
  23594359.96803  -1945091.03803  -1515653.33801         0.00000  23594362.26801
  22641044.45107   4314159.59007   3361681.89302         0.00000  22641048.24302
  24420778.21703   6999885.61603   5454451.27501         0.00000  24420781.15201
 96  9  9 22  3 45.0000000  0  7 23 09 25 01 21 05 17
  21183778.55009   2179308.70309   1698162.03204         0.00000  21183781.95504
  22649090.08707   4356433.14207   3394622.31202         0.00000  22649094.18502
  24071396.97602   -148035.97802   -115351.45500         0.00000  24071374.95500
  20905072.15809  -2341424.54609  -1824484.84806         0.00000  20905076.64206
  20130634.62509  -1973844.14909  -1538060.24605         0.00000  20130639.00905
  23590013.82303  -1967934.15503  -1533453.37501         0.00000  23590022.37701
  24432303.88503   7060455.20803   5501648.22701         0.00000  24432306.23301
 96  9  9 22  4  0.0000000  0  7 23 09 25 01 21 05 17
  21188280.74809   2202971.96109   1716600.90704         0.00000  21188283.97904
  22657146.42307   4398775.48407   3427616.33802         0.00000  22657150.06202
  24061344.42002   -200854.62702   -156508.94500         0.00000  24061367.61000
  20902108.01409  -2357006.76709  -1836626.84006         0.00000  20902111.62806
  20128571.15809  -1984687.44209  -1546509.56805         0.00000  20128575.62205
  23585684.44502  -1990684.34902  -1551180.47901         0.00000  23585695.50301
  24443827.85203   7121026.28703   5548846.42301         0.00000  24443832.74701
 96  9  9 22  4 15.0000000  0  7 23 09 25 01 21 05 17
  21192804.37809   2226739.15609   1735120.80004         0.00000  21192807.55604
  22665220.58907   4441201.37607   3460675.43402         0.00000  22665225.43402
  24051299.12202   -253638.74902   -197639.46101         0.00000  24051297.27201
  20899156.66009  -2372517.95209  -1848713.47206         0.00000  20899160.15706
  20126530.49909  -1995414.66609  -1554868.43505         0.00000  20126534.75405
  23581377.77002  -2013328.04302  -1568824.89901         0.00000  23581379.94101
  24455356.97402   7181613.64502   5596057.41001         0.00000  24455371.89501
 96  9  9 22  4 30.0000000  0  7 23 25 01 21 05 09 17
  21197346.54409   2250609.60409   1753721.16504         0.00000  21197349.83104
  24041261.44102   -306390.15802   -238744.55301         0.00000  24041275.07501
  20896216.95809  -2387961.22309  -1860747.18806         0.00000  20896220.18306
  20124510.93409  -2006027.31209  -1563138.02006         0.00000  20124515.02406
  23577088.41702  -2035866.30102  -1586387.39701         0.00000  23577086.46801
  22673310.07707   4483709.02307   3493798.29602         0.00000  22673313.23002
  24466889.54702   7242212.82202   5643276.53500         0.00000  24466897.08400
 96  9  9 22  4 45.0000000  0  7 23 05 25 01 21 09 17
  21201908.90409   2274587.76009   1772405.41804         0.00000  21201912.02804
  23572819.11502  -2058297.11002  -1603865.71901         0.00000  23572829.49401
  24031227.64702   -359107.91702   -279823.75201         0.00000  24031256.72401
  20893291.51509  -2403334.19309  -1872726.12106         0.00000  20893295.66506
  20122513.91909  -2016523.56209  -1571316.92805         0.00000  20122517.08305
  22681415.19407   4526302.74807   3526988.17102         0.00000  22681417.79902
  24478425.21403   7302821.30903   5690504.67400         0.00000  24478429.55400
 96  9  9 22  5  0.0000000  0  7 23 09 25 01 21 05 17
  21206492.87509   2298674.46609   1791174.27904         0.00000  21206496.34704
  22689536.62907   4568982.59407   3560245.24802         0.00000  22689539.30902
  24021201.57602   -411795.97502   -320878.91001         0.00000  24021191.89701
  20890380.00009  -2418636.20809  -1884649.76306         0.00000  20890383.65706
  20120538.57109  -2026905.24909  -1579406.56205         0.00000  20120541.92705
  23568572.03503  -2080619.90503  -1621260.10101         0.00000  23568579.79901
  24489961.28903   7363437.36503   5737737.55900         0.00000  24489977.03500
 96  9  9 22  5 15.0000000  0  7 23 09 25 01 21 05 17
  21211095.67309   2322863.28509   1810022.68704         0.00000  21211099.22204
  22697675.24408   4611745.03008   3593566.61102         0.00000  22697677.95502
  24011182.39302   -464457.67602   -361914.02200         0.00000  24011174.97500
  20887480.39609  -2433874.20209  -1896523.49606         0.00000  20887484.11106
  20118581.96509  -2037181.32009  -1587413.88305         0.00000  20118585.61705
  23564344.94203  -2102839.77303  -1638574.29601         0.00000  23564348.95501
  24501496.45103   7424050.83103   5784969.13601         0.00000  24501510.19701
 96  9  9 22  5 30.0000000  0  7 23 25 21 01 05 09 17
  21215720.01509   2347162.27109   1828956.95204         0.00000  21215724.05604
  24001167.06702   -517079.09202   -402917.58201         0.00000  24001169.77901
  20116649.18709  -2047338.16109  -1595328.30205         0.00000  20116653.35105
  20884594.97409  -2449037.85109  -1908339.32206         0.00000  20884598.67306
  23560139.01503  -2124941.52103  -1655796.34401         0.00000  23560141.13101
  22705831.75608   4654605.75508   3626964.55502         0.00000  22705834.19902
  24513030.73803   7484673.32503   5832207.34001         0.00000  24513045.94601
 96  9  9 22  5 45.0000000  0  7 23 05 25 01 21 09 17
  21220361.21908   2371556.69408   1847965.56704         0.00000  21220365.57104
  23555953.31903  -2146937.30603  -1672936.04201         0.00000  23555955.12701
  23991160.08402   -569671.82802   -443898.79701         0.00000  23991152.99701
  20881720.81809  -2464140.26409  -1920107.41606         0.00000  20881724.16506
  20114736.82909  -2057387.82209  -1603159.19906         0.00000  20114741.24806
  22714003.13307   4697552.39107   3660429.47602         0.00000  22714006.34302
  24524564.15503   7545292.72103   5879443.21101         0.00000  24524568.61701
 96  9  9 22  6  0.0000000  0  7 23 09 25 01 21 05 17
  21225026.38408   2396073.66108   1867069.70904         0.00000  21225031.64704
  22722196.73607   4740613.51607   3693983.51102         0.00000  22722199.36702
  23981165.25902   -622205.16402   -484833.92501         0.00000  23981159.80901
  20878862.92909  -2479155.06809  -1931807.25905         0.00000  20878866.09905
  20112850.04409  -2067304.32509  -1610886.35105         0.00000  20112853.55605
  23551793.03303  -2168800.26003  -1689971.97801         0.00000  23551794.06801
  24536105.03403   7605936.70803   5926698.06301         0.00000  24536105.44101
 96  9  9 22  6 15.0000000  0  7 23 09 25 01 21 05 17
  21229707.96408   2420676.58708   1886240.80604         0.00000  21229713.68204
  22730406.30007   4783756.98307   3727601.81902         0.00000  22730409.83102
  23971172.01702   -674712.41502   -525748.31601         0.00000  23971178.94301
  20876016.99409  -2494113.17309  -1943462.93305         0.00000  20876020.60605
  20110982.28509  -2077121.12609  -1618535.79506         0.00000  20110986.03206
  23547649.50803  -2190564.90103  -1706931.32100         0.00000  23547651.47200
  24547643.00703   7666570.30703   5973945.09301         0.00000  24547650.37101
 96  9  9 22  6 30.0000000  0  7 23 25 21 01 05 09 17
  21234406.95308   2445367.04708   1905480.09904         0.00000  21234411.88504
  23961184.62603   -727194.13003   -566643.39900         0.00000  23961177.51800
  20109133.34409  -2086838.06409  -1626107.44506         0.00000  20109136.69806
  20873182.73709  -2509009.29209  -1955070.29706         0.00000  20873185.82406
  23543528.47704  -2212231.24804  -1723814.37701         0.00000  23543529.05301
  22738630.84106   4826980.54706   3761282.49402         0.00000  22738634.33002
  24559179.17703   7727193.20103   6021183.66501         0.00000  24559181.25001
 96  9  9 22  6 45.0000000  0  6 23 05 25 01 21 09
  21239122.57208   2470151.38308   1924792.58404         0.00000  21239126.91404
  23539423.28204  -2233792.39004  -1740615.27701         0.00000  23539427.52501
  23951205.74103   -779643.62603   -607513.13601         0.00000  23951200.74101
  20870361.58609  -2523832.16209  -1966620.58705         0.00000  20870364.15905
  20107305.07909  -2096446.62909  -1633594.63906         0.00000  20107309.06906
  22746873.20206   4870291.65406   3795031.39402         0.00000  22746878.16702
 96  9  9 22  7  0.0000000  0  6 23 25 21 01 05 09
  21243860.53108   2495042.63508   1944188.35504         0.00000  21243864.39704
  23941233.60003   -832044.65003   -648344.99901         0.00000  23941238.23901
  20105499.90109  -2105929.40909  -1640983.81506         0.00000  20105503.55606
  20867558.04209  -2538564.42009  -1978100.26505         0.00000  20867561.37505
  23535344.00204  -2255230.93104  -1757320.58401         0.00000  23535347.18001
  22755134.74306   4913705.09106   3828860.06302         0.00000  22755138.71502
 96  9  9 22  7 15.0000000  0  6 23 05 25 01 21 09
  21248611.72008   2520013.32408   1963646.01704         0.00000  21248616.03104
  23531284.04404  -2276569.60304  -1773948.15501         0.00000  23531287.19401
  23931266.65703   -884416.73503   -689154.68001         0.00000  23931271.77501
  20864766.67609  -2553230.43409  -1989528.32205         0.00000  20864770.18805
  20103714.88409  -2115311.72309  -1648294.70606         0.00000  20103718.30706
  22763411.44006   4957197.18206   3862750.03502         0.00000  22763417.11602
 96  9  9 22  7 30.0000000  0  6 23 25 21 01 05 09
  21253379.16708   2545065.27408   1983167.00504         0.00000  21253384.00004
  23921307.40303   -936751.15803   -729934.68601         0.00000  23921310.01901
  20101949.66609  -2124589.17209  -1655523.87806         0.00000  20101952.94906
  20861989.20409  -2567826.15009  -2000901.59806         0.00000  20861992.93106
  23527243.43804  -2297802.77204  -1790493.43701         0.00000  23527247.88001
  22771702.98106   5000773.03006   3896705.14502         0.00000  22771708.19002
 96  9  9 22  7 45.0000000  0  6 23 25 05 01 21 09
  21258164.33308   2570213.42608   2002762.96404         0.00000  21258168.57104
  23911355.90902   -989033.65202   -770673.93601         0.00000  23911370.56901
  23523227.31304  -2318915.55704  -1806944.84201         0.00000  23523235.61101
  20859228.35709  -2582336.80709  -2012208.59506         0.00000  20859232.10406
  20100207.34909  -2133746.50809  -1662659.46806         0.00000  20100210.65106
  22780013.32306   5044442.75206   3930733.46402         0.00000  22780019.00802
 96  9  9 22  8  0.0000000  0  6 23 25 21 01 05 09
  21262969.25308   2595462.59608   2022437.61904         0.00000  21262974.27104
  23901415.44702  -1041263.06902   -811372.18501         0.00000  23901418.69001
  20098487.33509  -2142785.16509  -1669702.57506         0.00000  20098490.57806
  20856482.99409  -2596762.19109  -2023449.15305         0.00000  20856486.93205
  23519232.33705  -2339910.17405  -1823304.28501         0.00000  23519238.55901
  22788340.34807   5088202.82107   3964832.21103         0.00000  22788345.19503
 96  9  9 22  8 15.0000000  0  6 23 05 25 01 21 09
  21267783.03209   2620757.91109   2042148.26703         0.00000  21267787.91403
  23515248.71904  -2360840.85204  -1839613.89801         0.00000  23515254.69401
  23891475.21002  -1093494.68502   -852072.11101         0.00000  23891488.47801
  20853743.76709  -2611157.14909  -2034665.98005         0.00000  20853747.48405
  20096779.96609  -2151756.58409  -1676693.28706         0.00000  20096783.60606
  22796675.00107   5131997.42907   3998957.87502         0.00000  22796678.88902
 96  9  9 22  8 30.0000000  0  6 23 25 21 01 05 09
  21272611.90808   2646134.34308   2061922.09904         0.00000  21272616.92604
  23881541.49102  -1145699.01202   -892751.31900         0.00000  23881547.26600
  20095091.83109  -2160627.46309  -1683605.66206         0.00000  20095095.28506
  20851015.79909  -2625490.37909  -2045834.73305         0.00000  20851019.57905
  23511282.12104  -2381674.37304  -1855847.88001         0.00000  23511286.24901
  22805021.61008   5175856.12008   4033133.49003         0.00000  22805024.70003
 96  9  9 22  8 45.0000000  0  6 23 25 21 01 05 09
  21277464.38208   2671635.69308   2081793.27904         0.00000  21277469.08504
  23871621.44703  -1197831.71003   -933373.81101         0.00000  23871626.03901
  20093431.59209  -2169353.26909  -1690404.98806         0.00000  20093434.74706
  20848308.80309  -2639720.12609  -2056922.84205         0.00000  20848312.83805
  23507346.83404  -2402364.69004  -1871970.17101         0.00000  23507353.50301
  22813387.62207   5219820.58907   4067391.46702         0.00000  22813391.32102
 96  9  9 22  9  0.0000000  0  6 23 25 21 01 05 09
  21282326.69008   2697183.46908   2101700.64004         0.00000  21282330.28504
  23861698.88702  -1249968.15102   -973999.95401         0.00000  23861705.14701
  20091783.44609  -2178011.73909  -1697151.84206         0.00000  20091786.31006
  20845605.67509  -2653927.31409  -2067993.36805         0.00000  20845609.37705
  23503422.29004  -2422988.15204  -1888040.41301         0.00000  23503426.08401
  22821758.53607   5263813.39807   4101671.56903         0.00000  22821761.76203
 96  9  9 22  9 15.0000000  0  7 23 09 25 01 21 05 15
  21287208.61908   2722838.27108   2121691.37004         0.00000  21287212.20304
  22830147.14507   5307891.15107   4136017.83003         0.00000  22830151.69703
  23851787.29303  -1302047.35203  -1014580.48701         0.00000  23851800.89501
  20842916.73409  -2668056.14909  -2079002.84105         0.00000  20842920.22405
  20090159.72309  -2186545.39509  -1703801.45206         0.00000  20090163.03106
  23499520.37004  -2443484.15504  -1904011.22801         0.00000  23499526.33301
  24878949.35802     -6527.15702     -5084.91600         0.00000  24878959.81500
 96  9  9 22  9 30.0000000  0  7 23 25 21 01 05 09 15
  21292111.68409   2748601.50609   2141766.62004         0.00000  21292114.88804
  23841889.48303  -1354070.40903  -1055118.36901         0.00000  23841902.01501
  20088559.46609  -2194953.06909  -1710352.88605         0.00000  20088562.92305
  20840242.90109  -2682108.09809  -2089952.41405         0.00000  20840246.11805
  23495644.77804  -2463852.86004  -1919882.97201         0.00000  23495652.88601
  22838550.15407   5352052.49907   4170429.23002         0.00000  22838554.53702
  24869675.07402    -32603.09302    -25403.89600         0.00000  24869693.72500
 96  9  9 22  9 45.0000000  0  6 23 25 05 01 21 09
  21297033.16409   2774466.58409   2161921.22104         0.00000  21297036.62904
  23831999.11303  -1406049.45803  -1095621.09901         0.00000  23832004.84701
  23491791.38004  -2484105.48604  -1935664.19501         0.00000  23491796.96701
  20837581.83809  -2696090.32609  -2100847.65405         0.00000  20837584.89305
  20086982.49909  -2203241.14209  -1716811.11405         0.00000  20086986.18105
  22846968.25908   5396285.73108   4204896.65203         0.00000  22846971.49403
 96  9  9 22 10  0.0000000  0  6 23 25 21 01 05 09
  21301968.20908   2800402.31908   2182130.85904         0.00000  21301971.77404
  23822110.08903  -1458018.41303  -1136116.37001         0.00000  23822114.67001
  20085422.55109  -2211440.62909  -1723200.32605         0.00000  20085426.28805
  20834928.16009  -2710032.97609  -2111712.03606         0.00000  20834931.39906
  23487953.55404  -2504275.78104  -1951381.38201         0.00000  23487958.14301
  22855392.44608   5440558.35808   4239394.77803         0.00000  22855395.81303
 96  9  9 22 10 15.0000000  0  7 23 09 25 01 21 05 15
  21306921.31108   2826430.56108   2202412.58804         0.00000  21306925.28704
  22863830.73308   5484897.37708   4273944.67602         0.00000  22863833.73802
  23812226.47103  -1509953.55903  -1176585.42201         0.00000  23812229.09601
  20832287.84009  -2723908.70409  -2122524.31606         0.00000  20832291.05806
  20083883.42209  -2219527.10909  -1729501.47406         0.00000  20083887.07506
  23484135.02204  -2524339.07504  -1967015.01701         0.00000  23484136.31101
  24841786.78202     -6492.75102     -5058.76301         0.00000  24841770.12801
 96  9  9 22 10 30.0000000  0  7 23 25 21 01 05 09 15
  21311892.40008   2852552.81408   2222767.59704         0.00000  21311896.48204
  23802350.22803  -1561849.64303  -1217023.58700         0.00000  23802355.66000
  20082366.84609  -2227496.16509  -1735711.12806         0.00000  20082370.35606
  20829661.92509  -2737711.70409  -2133279.89606         0.00000  20829665.30706
  23480340.09204  -2544287.70004  -1982559.44401         0.00000  23480342.16801
  22872281.72707   5529309.80907   4308551.74302         0.00000  22872284.96002
  24832564.45903    -55138.71003    -42964.31601         0.00000  24832569.11201
 96  9  9 22 10 45.0000000  0  7 23 25 21 01 05 09 15
  21316881.05708   2878768.21608   2243195.15604         0.00000  21316885.78204
  23792483.74103  -1613704.99703  -1257430.57101         0.00000  23792486.69001
  20080871.97709  -2235350.36709  -1741831.28906         0.00000  20080875.41106
  20827049.40509  -2751442.40209  -2143979.14406         0.00000  20827053.34406
  23476565.47004  -2564122.26304  -1998015.08501         0.00000  23476567.85901
  22880747.53307   5573795.74207   4343216.09502         0.00000  22880749.55102
  24823323.14802   -103706.89402    -80809.72701         0.00000  24823321.72101
 96  9  9 22 11  0.0000000  0  7 23 25 21 01 05 09 15
  21321884.45309   2905060.88609   2263682.95404         0.00000  21321889.22604
  23782621.72304  -1665531.28304  -1297814.68001         0.00000  23782628.57101
  20079396.61009  -2243101.35909  -1747871.03706         0.00000  20079400.32006
  20824447.82009  -2765111.93709  -2154630.72606         0.00000  20824451.57806
  23472810.20604  -2583854.87904  -2013391.01401         0.00000  23472812.36801
  22889223.62107   5618342.23207   4377927.63202         0.00000  22889225.51202
  24814092.58902   -152210.15302   -118604.60601         0.00000  24814080.70201
 96  9  9 22 11 15.0000000  0  7 23 09 25 01 21 05 15
  21326904.14109   2931438.78809   2284237.15804         0.00000  21326908.48204
  22897713.87307   5662959.86707   4412694.61902         0.00000  22897716.44902
  23772766.22104  -1717321.58104  -1338170.66901         0.00000  23772770.63101
  20821858.63309  -2778713.27509  -2165229.16605         0.00000  20821862.74605
  20077943.48909  -2250741.92709  -1753824.71205         0.00000  20077947.06105
  23469076.94604  -2603476.71904  -2028680.69001         0.00000  23469079.67801
  24804878.70502   -200639.96602   -156341.66301         0.00000  24804907.84601
 96  9  9 22 11 30.0000000  0  7 23 25 21 01 05 09 15
  21331943.29209   2957915.67809   2304868.48704         0.00000  21331946.62504
  23762918.37004  -1769065.08704  -1378490.37401         0.00000  23762921.39101
  20076513.84309  -2258256.67109  -1759680.35305         0.00000  20076517.64005
  20819286.35509  -2792231.43909  -2175762.80505         0.00000  20819289.98905
  23465366.64705  -2622974.17605  -2043873.61201         0.00000  23465370.57401
  22906221.68807   5707664.34207   4447529.20802         0.00000  22906224.81502
  24795681.30203   -248982.88503   -194011.74700         0.00000  24795702.55900
 96  9  9 22 11 45.0000000  0  7 23 25 21 01 05 09 15
  21336998.20309   2984479.32409   2325567.42804         0.00000  21337002.10504
  23753077.17604  -1820775.84204  -1418784.23901         0.00000  23753080.53601
  20075105.46409  -2265658.86809  -1765448.30505         0.00000  20075108.91305
  20816727.92909  -2805676.81309  -2186239.73205         0.00000  20816731.85505
  23461675.91504  -2642362.48704  -2058981.27101         0.00000  23461679.80401
  22914743.56006   5752446.07306   4482424.13401         0.00000  22914745.94801
  24786495.47403   -297250.38803   -231622.72900         0.00000  24786495.11400
 96  9  9 22 12  0.0000000  0  7 23 25 05 01 21 09 15
  21342069.21109   3011129.35509   2346333.69404         0.00000  21342072.71404
  23743244.31704  -1872453.38404  -1459052.39901         0.00000  23743251.06101
  23458007.62705  -2661642.55605  -2074004.90201         0.00000  23458011.09801
  20814183.80909  -2819049.71509  -2196660.15806         0.00000  20814187.58306
  20073717.71909  -2272950.42109  -1771130.03105         0.00000  20073720.92905
  22923279.74006   5797307.70406   4517381.18802         0.00000  22923282.59702
  24777324.56703   -345442.18903   -269174.77901         0.00000  24777336.27701
 96  9  9 22 12 15.0000000  0  7 23 09 25 01 21 05 15
  21347158.34309   3037871.87609   2367171.96904         0.00000  21347162.03704
  22931832.88006   5842256.31906   4552406.06402         0.00000  22931833.96902
  23733419.00704  -1924091.79504  -1499290.15601         0.00000  23733423.03801
  20811653.95709  -2832346.31909  -2207021.15006         0.00000  20811657.14106
  20072351.22309  -2280127.67709  -1776722.70005         0.00000  20072354.63105
  23454359.99704  -2680806.99404  -2088938.08401         0.00000  23454364.09001
  24768168.74503   -393553.60203   -306664.34201         0.00000  24768168.77201
 96  9  9 22 12 30.0000000  0  7 23 25 21 01 05 09 15
  21352262.02308   3064697.36608   2388074.95804         0.00000  21352266.28704
  23723597.92804  -1975699.92404  -1539504.32401         0.00000  23723604.71001
  20071005.89209  -2287198.10709  -1782232.13205         0.00000  20071009.51605
  20809135.76609  -2845578.52909  -2217331.95106         0.00000  20809139.00106
  23450733.08604  -2699864.36504  -2103787.95901         0.00000  23450737.61101
  22940401.20806   5887283.14606   4587491.84401         0.00000  22940403.65601
  24759027.16403   -441595.81003   -344099.89400         0.00000  24759031.24700
 96  9  9 22 12 45.0000000  0  7 23 25 21 01 05 09 15
  21357386.09008   3091627.24808   2409059.27803         0.00000  21357390.06503
  23713785.69204  -2027261.15904  -1579681.84201         0.00000  23713791.24101
  20069683.71609  -2294144.26509  -1787644.71506         0.00000  20069687.70306
  20806632.40109  -2858731.42609  -2227580.97406         0.00000  20806635.60106
  23447128.22604  -2718796.56604  -2118540.45301         0.00000  23447135.13401
  22948988.18806   5932405.47406   4622652.11201         0.00000  22948991.76701
  24749900.81103   -489551.24803   -381467.28501         0.00000  24749906.74001
 96  9  9 22 13  0.0000000  0  7 23 25 05 01 21 09 15
  21362525.68308   3118632.38508   2430102.22603         0.00000  21362529.44103
  23703976.63304  -2078807.90304  -1619848.10801         0.00000  23703982.78301
  23443545.94305  -2737636.27005  -2133220.69301         0.00000  23443551.02101
  20804137.85309  -2871835.15609  -2237791.66906         0.00000  20804141.15106
  20068380.50109  -2300995.10409  -1792983.02005         0.00000  20068383.84805
  22957586.61306   5977590.57506   4657861.25202         0.00000  22957589.09702
  24740784.54403   -537451.05703   -418792.13801         0.00000  24740797.70401
 96  9  9 22 13 15.0000000  0  7 23 25 05 01 21 09 15
  21367684.44808   3145742.98008   2451227.37303         0.00000  21367688.67003
  23694176.94405  -2130311.42505  -1659980.68601         0.00000  23694182.18801
  23439983.71805  -2756354.29505  -2147806.10301         0.00000  23439987.40401
  20801659.48109  -2884862.13009  -2247942.56705         0.00000  20801662.91105
  20067100.64309  -2307720.72509  -1798223.77606         0.00000  20067103.78806
  22966201.78406   6022867.54606   4693141.96402         0.00000  22966204.17402
  24731685.81303   -585265.22503   -456050.03301         0.00000  24731698.74701
 96  9  9 22 13 30.0000000  0  7 23 25 21 01 05 09 15
  21372856.79508   3172922.33208   2472406.11304         0.00000  21372860.46504
  23684376.64005  -2181810.06805  -1700109.44602         0.00000  23684380.30902
  20065836.97209  -2314360.44009  -1803397.56906         0.00000  20065839.41506
  20799187.73609  -2897851.90909  -2258064.45105         0.00000  20799190.87905
  23436437.38605  -2774994.02405  -2162330.63701         0.00000  23436442.33401
  22974827.27806   6068194.03006   4728461.33302         0.00000  22974831.60802
  24722595.54103   -633033.54403   -493272.00801         0.00000  24722598.98901
 96  9  9 22 13 45.0000000  0  7 23 25 21 01 05 09 15
  21378026.42408   3200090.43708   2493576.04203         0.00000  21378030.51503
  23674562.91305  -2233380.08205  -1740293.86501         0.00000  23674567.37001
  20064575.56109  -2320991.61409  -1808564.72505         0.00000  20064578.42805
  20796708.37409  -2910882.91809  -2268218.47905         0.00000  20796711.50205
  23432889.30305  -2793637.23605  -2176857.71201         0.00000  23432889.78401
  22983445.86906   6113487.16406   4763754.66801         0.00000  22983450.43101
  24713497.95803   -680835.07703   -530519.92701         0.00000  24713500.05501
 96  9  9 22 14  0.0000000  0  7 23 25 21 01 05 09 15
  21383196.54508   3227260.04708   2514747.19803         0.00000  21383200.61303
  23664739.34705  -2285003.24505  -1780519.63201         0.00000  23664742.98401
  20063318.20509  -2327598.68909  -1813713.09206         0.00000  20063321.26306
  20794223.78509  -2923941.42509  -2278393.93205         0.00000  20794227.10005
  23429344.17204  -2812266.01704  -2191373.76601         0.00000  23429348.90801
  22992059.51505   6158758.08905   4799030.64902         0.00000  22992065.32802
  24704398.21803   -728653.24803   -567780.77601         0.00000  24704405.05201
 96  9  9 22 14 15.0000000  0  7 23 25 05 01 21 09 15
  21388353.93008   3254363.11308   2535866.43503         0.00000  21388358.06903
  23654893.39405  -2336744.64405  -1820837.55101         0.00000  23654896.88601
  23425788.90603  -2830939.85603  -2205924.75601         0.00000  23425798.06601
  20791719.87309  -2937094.47609  -2288643.05805         0.00000  20791722.54005
  20062052.42709  -2334246.79009  -1818893.40906         0.00000  20062055.70506
  23000657.97706   6203936.60906   4834234.62402         0.00000  23000664.35002
  24695285.49404   -776553.55904   -605105.68001         0.00000  24695290.36001
 96  9  9 22 14 30.0000000  0  7 23 25 21 01 05 09 15
  21393488.27507   3281345.35807   2556891.55903         0.00000  21393491.89103
  23645014.92005  -2388657.61505  -1861289.20802         0.00000  23645020.86402
  20060769.91209  -2340988.49709  -1824146.68606         0.00000  20060773.33206
  20789188.61009  -2950395.41009  -2299007.41205         0.00000  20789191.32105
  23422216.02803  -2849709.52403  -2220550.42301         0.00000  23422220.20501
  23009226.14806   6248965.50906   4869322.12602         0.00000  23009229.69602
  24686144.44204   -824589.66404   -642536.54101         0.00000  24686156.26201
 96  9  9 22 14 45.0000000  0  7 23 25 21 01 05 09 15
  21398590.85008   3308154.78308   2577782.03603         0.00000  21398594.01803
  23635094.44306  -2440791.24906  -1901912.79501         0.00000  23635098.92901
  20059458.83309  -2347877.34709  -1829514.62406         0.00000  20059462.04806
  20786619.54209  -2963895.39209  -2309526.87006         0.00000  20786622.66206
  23418618.25203  -2868625.37703  -2235289.92001         0.00000  23418628.73201
  23017757.59707   6293793.49307   4904253.00502         0.00000  23017762.19802
  24676967.93704   -872811.00604   -680111.36201         0.00000  24676975.13401
 96  9  9 22 15  0.0000000  0  7 23 25 21 01 05 09 15
  21403650.10608   3334744.09708   2598500.96303         0.00000  21403653.48303
  23625123.30506  -2493191.08006  -1942743.72201         0.00000  23625127.43801
  20058111.43409  -2354960.43709  -1835033.90705         0.00000  20058114.56805
  20784003.91009  -2977641.40909  -2320238.04906         0.00000  20784006.27706
  23414980.12203  -2887736.29403  -2250181.63901         0.00000  23414992.17801
  23026240.69207   6338371.55907   4938989.19502         0.00000  23026243.85702
  24667747.09103   -921263.98803   -717866.88301         0.00000  24667751.84501
 96  9  9 22 15 15.0000000  0  7 23 25 05 01 21 09 15
  21408652.85308   3361032.47608   2618985.42503         0.00000  21408655.67203
  23615084.98705  -2545933.25905  -1983841.51901         0.00000  23615089.35001
  23411293.36003  -2907121.20103  -2265286.70201         0.00000  23411300.52001
  20781327.43609  -2991711.55409  -2331201.78606         0.00000  20781329.89806
  20056711.08409  -2362316.44809  -1840765.86606         0.00000  20056714.88906
  23034661.03207   6382620.48607   4973468.83402         0.00000  23034664.48102
  24658468.33304   -970026.58004   -755863.82401         0.00000  24658472.00601
 96  9  9 22 15 30.0000000  0  7 23 25 21 01 05 09 15
  21413587.17507   3386967.24107   2639194.32603         0.00000  21413589.95303
  23604973.69105  -2599069.40505  -2025246.21202         0.00000  23604976.79802
  20055249.28409  -2369998.05509  -1846751.52905         0.00000  20055252.87505
  20778577.70109  -3006160.63109  -2342460.78905         0.00000  20778580.45505
  23407543.16203  -2926830.71903  -2280644.76001         0.00000  23407544.86301
  23043007.94507   6426486.54807   5007650.16503         0.00000  23043012.05103
  24649119.40504  -1019151.13904   -794142.64201         0.00000  24649126.73701
 96  9  9 22 15 45.0000000  0  7 23 25 21 01 05 09 15
  21418446.10707   3412501.28807   2659090.95003         0.00000  21418449.92303
  23594778.64205  -2652644.27305  -2066992.88601         0.00000  23594781.04001
  20053717.28309  -2378051.16009  -1853026.66506         0.00000  20053720.45106
  20775746.97009  -3021033.03409  -2354049.68905         0.00000  20775750.21605
  23403722.19703  -2946906.77103  -2296288.43401         0.00000  23403724.42701
  23051275.43308   6469926.93108   5041499.75903         0.00000  23051279.23303
  24639694.70504  -1068682.29404   -832738.51001         0.00000  24639703.27101
 96  9  9 22 16  0.0000000  0  7 23 25 05 01 21 09 15
  21423231.23607   3437646.76907   2678684.84803         0.00000  21423235.41903
  23584503.40806  -2706645.42606  -2109071.73402         0.00000  23584505.41802
  23399836.79104  -2967332.00304  -2312204.22101         0.00000  23399847.21301
  20772838.14809  -3036315.95209  -2365958.44705         0.00000  20772841.78605
  20052116.17509  -2386464.96209  -1859582.88106         0.00000  20052119.01706
  23059463.67808   6512956.80208   5075029.55403         0.00000  23059465.83703
  24630195.79704  -1118605.36504   -871639.49801         0.00000  24630202.02101
 96  9  9 22 16 15.0000000  0  7 23 25 05 01 21 09 15
  21427941.15707   3462393.23807   2697967.79903         0.00000  21427945.32503
  23574142.29905  -2761089.56305  -2151495.65902         0.00000  23574144.27802
  23395880.28604  -2988119.99504  -2328402.57801         0.00000  23395886.28001
  20769849.70009  -3052021.08209  -2378196.19005         0.00000  20769853.15705
  20050443.26109  -2395254.97109  -1866432.23806         0.00000  20050446.43906
  23067571.78508   6555563.58808   5108229.65203         0.00000  23067574.08903
  24620617.28703  -1168933.42203   -910856.00701         0.00000  24620620.86301
 96  9  9 22 16 30.0000000  0  7 23 25 21 01 05 09 15
  21432585.99807   3486806.26007   2716990.97603         0.00000  21432590.74603
  23563709.02605  -2815916.66005  -2194218.04202         0.00000  23563711.94202
  20048710.82209  -2404360.76109  -1873527.65606         0.00000  20048713.57706
  20766793.07109  -3068085.15109  -2390713.64606         0.00000  20766795.52506
  23391865.89903  -3009213.08203  -2344838.79401         0.00000  23391872.35501
  23075612.03109   6597812.19509   5141150.62503         0.00000  23075613.30103
  24610974.71603  -1219606.00603   -950341.22701         0.00000  24610980.96001
 96  9  9 22 16 45.0000000  0  7 23 25 21 01 05 09 15
  21437175.95408   3510922.52508   2735782.82203         0.00000  21437179.59803
  23553210.56906  -2871092.95406  -2237212.50702         0.00000  23553212.98902
  20046924.70509  -2413747.79309  -1880842.21606         0.00000  20046927.37806
  20763674.85009  -3084472.13409  -2403482.71406         0.00000  20763676.91006
  23387800.25403  -3030581.94803  -2361490.21300         0.00000  23387806.66300
  23083590.53908   6639740.67508   5173822.18003         0.00000  23083593.76403
  24601274.20503  -1270587.92503   -990067.30701         0.00000  24601280.12101
 96  9  9 22 17  0.0000000  0  7 23 25 05 01 21 09 15
  21441720.03707   3534804.05407   2754391.80503         0.00000  21441724.14203
  23542655.54007  -2926558.30507  -2280432.21302         0.00000  23542657.10002
  23383692.75303  -3052167.87903  -2378309.88201         0.00000  23383696.48401
  20760507.50409  -3101121.60009  -2416456.32406         0.00000  20760509.47106
  20045096.74109  -2423352.41109  -1888326.33806         0.00000  20045099.49506
  23091520.02208   6681411.52708   5206292.96902         0.00000  23091520.99202
  24591525.23304  -1321816.54504  -1029985.93601         0.00000  24591527.12701
 96  9  9 22 17 15.0000000  0  7 23 25 05 01 21 09 15
  21446229.16708   3558494.30908   2772851.73103         0.00000  21446232.23503
  23532054.24606  -2982268.26006  -2323842.48802         0.00000  23532055.50702
  23379552.28604  -3073924.62504  -2395263.33301         0.00000  23379554.09301
  20757298.23009  -3117987.76909  -2429598.76406         0.00000  20757300.77706
  20043236.68409  -2433125.96709  -1895942.08406         0.00000  20043239.40206
  23099408.83807   6722867.05107   5238595.94802         0.00000  23099409.95202
  24581738.30603  -1373246.60903  -1070060.97801         0.00000  24581740.56001
 96  9  9 22 17 30.0000000  0  7 23 25 21 01 05 09 15
  21450706.70607   3582026.71507   2791188.71003         0.00000  21450710.45503
  23521413.02806  -3038190.15806  -2367418.01202         0.00000  23521415.83902
  20041350.15609  -2443036.32609  -1903664.45506         0.00000  20041353.25206
  20754054.32309  -3135037.45009  -2442884.22106         0.00000  20754056.78306
  23375384.84004  -3095815.40504  -2412321.01301         0.00000  23375388.63201
  23107262.34107   6764141.18007   5270757.55102         0.00000  23107264.13702
  24571917.74803  -1424843.72903  -1110266.67201         0.00000  24571925.41801
 96  9  9 22 17 45.0000000  0  7 23 25 21 01 05 09 15
  21455156.14107   3605412.49907   2809411.36603         0.00000  21455159.72803
  23510732.86706  -3094311.93806  -2411149.23102         0.00000  23510735.10802
  20039440.98309  -2453070.98909  -1911483.67306         0.00000  20039444.87506
  20750776.90609  -3152257.33009  -2456302.32406         0.00000  20750779.05906
  23371196.62404  -3117829.55004  -2429474.82201         0.00000  23371200.63001
  23115084.17507   6805248.70507   5302789.37402         0.00000  23115087.31702
  24562069.99403  -1476595.36403  -1150592.61401         0.00000  24562072.04201
 96  9  9 22 18  0.0000000  0  7 23 25 21 01 05 09 15
  21459607.26807   3628802.28807   2827637.15103         0.00000  21459611.19103
  23500044.51707  -3150483.64807  -2454919.33102         0.00000  23500046.72802
  20037536.47009  -2463078.88509  -1919282.01005         0.00000  20037540.06305
  20747496.11309  -3169496.00609  -2469735.03406         0.00000  20747497.91506
  23367012.98704  -3139818.20404  -2446608.86401         0.00000  23367016.74201
  23122904.13007   6846338.39407   5334807.32602         0.00000  23122907.24502
  24552223.77503  -1528351.57003  -1190922.00200         0.00000  24552227.51600
 96  9  9 22 18 15.0000000  0  7 23 25 05 01 21 09 15
  21464042.62307   3652113.57207   2845801.79203         0.00000  21464048.68603
  23489328.90007  -3206791.99007  -2498795.96602         0.00000  23489331.56902
  23362816.43204  -3161869.32304  -2463791.60501         0.00000  23362820.84801
  20744194.94109  -3186837.74409  -2483248.08405         0.00000  20744197.65505
  20035620.80709  -2473144.24709  -1927125.15805         0.00000  20035624.80905
  23130703.69307   6887322.16207   5366742.66903         0.00000  23130707.27803
  24542358.06704  -1580198.00504  -1231321.89300         0.00000  24542357.17500
 96  9  9 22 18 30.0000000  0  7 23 25 01 21 05 09 15
  21468468.31807   3675366.98007   2863921.30303         0.00000  21468473.24903
  23478591.91807  -3263213.38707  -2542760.61102         0.00000  23478593.28302
  20740878.97409  -3204261.38009  -2496824.92705         0.00000  20740881.91305
  20033699.84009  -2483242.49209  -1934993.91606         0.00000  20033702.84106
  23358613.35905  -3183960.38705  -2481005.43601         0.00000  23358618.15501
  23138486.82107   6928222.14207   5398612.82002         0.00000  23138489.83202
  24532480.31303  -1632112.68803  -1271774.85801         0.00000  24532480.85601
 96  9  9 22 18 45.0000000  0  7 23 25 21 01 05 09 15
  21472886.62907   3698583.16207   2882011.83103         0.00000  21472890.01503
  23467838.72007  -3319720.93207  -2586792.48103         0.00000  23467841.33803
  20031776.68609  -2493347.50209  -1942867.96206         0.00000  20031779.61406
  20737552.04409  -3221745.18509  -2510448.65905         0.00000  20737554.65905
  23354406.34104  -3206065.21004  -2498229.96301         0.00000  23354408.45801
  23146258.47506   6969063.02806   5430436.82701         0.00000  23146261.69901
  24522590.93003  -1684069.96103  -1312260.94901         0.00000  24522599.40101
 96  9  9 22 19  0.0000000  0  7 23 25 21 01 05 09 15
  21477304.59908   3721796.65208   2900100.27103         0.00000  21477307.59703
  23457077.06507  -3376276.04407  -2630861.34202         0.00000  23457082.04102
  20029859.62009  -2503419.85909  -1950716.54105         0.00000  20029862.38005
  20734221.27909  -3239254.30509  -2524092.13905         0.00000  20734224.37805
  23350204.43804  -3228144.45604  -2515434.57502         0.00000  23350208.92602
  23154025.09706   7009878.04606   5462240.74901         0.00000  23154026.82501
  24512701.87203  -1736031.43303  -1352750.69701         0.00000  24512706.23901
 96  9  9 22 19 15.0000000  0  7 23 25 05 01 21 09 15
  21481721.24508   3745007.45608   2918186.61603         0.00000  21481724.07503
  23446306.09306  -3432873.57206  -2674963.28603         0.00000  23446309.31903
  23346009.63305  -3250194.52805  -2532616.35402         0.00000  23346012.23102
  20730885.34509  -3256788.32609  -2537754.99105         0.00000  20730887.46905
  20027949.39709  -2513457.66009  -1958538.19306         0.00000  20027952.62906
  23161784.55205   7050663.24505   5494021.33202         0.00000  23161789.09902
  24502812.48002  -1787996.76302  -1393243.16900         0.00000  24502816.45000
 96  9  9 22 19 30.0000000  0  7 23 25 01 21 05 09 15
  21486225.86207   3768681.74707   2936634.09903         0.00000  21486229.08003
  23435616.82406  -3489044.78006  -2718733.00602         0.00000  23435621.66502
  20727633.44009  -3273879.90909  -2551073.11506         0.00000  20727634.84406
  20026134.60209  -2522999.27009  -1965973.22306         0.00000  20026137.83906
  23341908.69705  -3271747.54205  -2549410.93201         0.00000  23341913.60101
  23169628.68805   7091883.65005   5526141.23101         0.00000  23169631.58001
  24493012.03702  -1839500.71302  -1433375.94000         0.00000  24493016.22500
 96  9  9 22 19 45.0000000  0  7 23 25 21 01 05 09 15
  21490914.78607   3793328.84107   2955839.59304         0.00000  21490918.76304
  23425104.58506  -3544281.71406  -2761774.72803         0.00000  23425109.23303
  20024510.02009  -2531535.32909  -1972624.68305         0.00000  20024513.10305
  20724562.62809  -3290017.04109  -2563647.50106         0.00000  20724563.29206
  23337998.72805  -3292294.22205  -2565421.32501         0.00000  23338001.17701
  23177652.61205   7134051.17205   5558998.96001         0.00000  23177654.61901
  24483396.04602  -1890033.09202  -1472751.64201         0.00000  24483409.24801
 96  9  9 22 20  0.0000000  0  6 23 25 05 01 21 09
  21495860.08907   3819313.77007   2976087.59803         0.00000  21495864.11503
  23414841.22506  -3598218.83306  -2803803.65002         0.00000  23414845.25502
  23334349.80205  -3311468.99005  -2580362.73901         0.00000  23334353.21301
  20721742.34109  -3304833.70309  -2575192.93706         0.00000  20721743.45306
  20023147.02609  -2538698.22409  -1978206.17106         0.00000  20023150.03006
  23185926.11305   7177530.38805   5592878.91901         0.00000  23185929.92901
 96  9  9 22 20 15.0000000  0  6 23 25 21 01 05 09
  21500995.57507   3846303.35807   2997118.43103         0.00000  21500999.94603
  23404760.63706  -3651191.95906  -2845081.40303         0.00000  23404765.02703
  20021981.66309  -2544821.31209  -1982977.40506         0.00000  20021984.55506
  20719109.75909  -3318663.61709  -2585969.48606         0.00000  20719111.55306
  23330898.23405  -3329603.57505  -2594493.52101         0.00000  23330903.63701
  23194387.15705   7221983.97905   5627517.95001         0.00000  23194389.23101
 96  9  9 22 20 30.0000000  0  6 23 25 01 21 05 09
  21506317.66407   3874270.38207   3018910.91103         0.00000  21506321.80403
  23394859.23206  -3703226.32806  -2885627.63502         0.00000  23394864.08102
  20716660.59909  -3331534.06509  -2595998.39806         0.00000  20716663.63006
  20021008.74509  -2549932.90709  -1986960.48006         0.00000  20021011.86006
  23327640.31505  -3346723.28405  -2607833.56301         0.00000  23327643.61101
  23203026.04405   7267387.00405   5662897.01301         0.00000  23203029.34401
 96  9  9 22 20 45.0000000  0  6 23 25 21 01 05 09
  21511837.90908   3903276.70408   3041513.20403         0.00000  21511841.27903
  23385148.25205  -3754255.64105  -2925390.69002         0.00000  23385152.15602
  20020240.55209  -2553971.62909  -1990107.52306         0.00000  20020243.65506
  20714405.38509  -3343383.45009  -2605231.69205         0.00000  20714408.40205
  23324588.02205  -3362764.22905  -2620332.97802         0.00000  23324593.61602
  23211859.57504   7313801.97904   5699064.40901         0.00000  23211863.83301
 96  9  9 22 21  0.0000000  0  6 23 25 01 21 05 09
  21517630.82908   3933713.96708   3065230.56803         0.00000  21517634.20503
  23375703.93606  -3803889.60406  -2964066.49502         0.00000  23375707.80202
  20712419.24609  -3353821.65309  -2613365.35105         0.00000  20712421.80805
  20019749.95209  -2556549.05909  -1992115.89305         0.00000  20019752.07405
  23321813.75605  -3377338.90105  -2631689.82002         0.00000  23321818.82802
  23220957.74804   7361616.46204   5736322.42001         0.00000  23220963.59201
 96  9  9 22 21 15.0000000  0  6 23 25 21 01 05 09
  21523625.18507   3965219.35707   3089780.21403         0.00000  21523629.27803
  23366453.63305  -3852493.22005  -3001939.43101         0.00000  23366457.55201
  20019467.44009  -2558031.92709  -1993271.39605         0.00000  20019470.32505
  20710632.73509  -3363212.55109  -2620682.92605         0.00000  20710635.81305
  23319248.47205  -3390813.91705  -2642189.85601         0.00000  23319253.38201
  23230253.49305   7410465.17105   5774386.40101         0.00000  23230254.77701
 96  9  9 22 21 30.0000000  0  6 23 25 01 21 05 09
  21529819.37708   3997766.42208   3115141.56304         0.00000  21529822.88404
  23357394.70905  -3900092.53605  -3039029.73402         0.00000  23357398.47802
  20709039.62109  -3371580.90309  -2627203.71405         0.00000  20709042.38205
  20019388.18309  -2558448.54409  -1993596.02805         0.00000  20019391.23105
  23316889.23605  -3403214.43905  -2651852.65201         0.00000  23316894.73901
  23239741.17105   7460327.35705   5813240.07901         0.00000  23239745.20701
 96  9  9 22 21 45.0000000  0  6 23 25 21 01 05 09
  21536218.43008   4031393.06708   3141344.13103         0.00000  21536221.64703
  23348534.53604  -3946653.15004  -3075310.72302         0.00000  23348540.45302
  20019519.01209  -2557760.63309  -1993059.99606         0.00000  20019522.50406
  20707649.12609  -3378889.12009  -2632898.43005         0.00000  20707652.03805
  23314740.78604  -3414503.09304  -2660648.96801         0.00000  23314744.13201
  23249431.53205   7511244.87605   5852916.04601         0.00000  23249434.18901
 96  9  9 22 22  0.0000000  0  6 23 25 21 01 05 09
  21542893.17208   4066468.02408   3168675.26604         0.00000  21542896.35404
  23339942.22804  -3991808.04604  -3110496.30702         0.00000  23339949.36102
  20019930.68609  -2555596.73209  -1991373.84205         0.00000  20019933.96705
  20706529.62809  -3384772.59909  -2637482.96305         0.00000  20706532.44605
  23312874.27204  -3424314.75104  -2668294.44001         0.00000  23312877.82101
  23259392.31006   7563586.90706   5893702.04401         0.00000  23259395.80501
 96  9  9 22 22 15.0000000  0  6 23 25 21 01 05 09
  21549772.52108   4102620.32608   3196845.86804         0.00000  21549776.20304
  23331548.36005  -4035929.61105  -3144876.70802         0.00000  23331552.39102
  20020551.89709  -2552332.21309  -1988830.06705         0.00000  20020555.48305
  20705609.24309  -3389607.68209  -2641250.54706         0.00000  20705611.82906
  23311217.96405  -3433025.20305  -2675081.78401         0.00000  23311220.08501
  23269551.39305   7616975.67705   5935303.63901         0.00000  23269554.01301
 96  9  9 22 22 30.0000000  0  6 23 25 01 21 05 09
  21556855.50308   4139844.05008   3225851.36304         0.00000  21556859.59104
  23323347.61005  -4079023.31105  -3178456.18302         0.00000  23323350.88902
  20704886.85009  -3393402.07009  -2644207.21906         0.00000  20704890.77606
  20021380.94309  -2547977.35509  -1985436.67105         0.00000  20021384.61005
  23309767.95105  -3440642.81305  -2681017.51602         0.00000  23309770.85202
  23279907.63405   7671404.01705   5977715.31101         0.00000  23279910.54801
 96  9  9 22 22 45.0000000  0  6 23 25 21 01 05 09
  21564148.86908   4178170.37708   3255716.03604         0.00000  21564152.05004
  23315349.50504  -4121053.83604  -3211207.24802         0.00000  23315352.37602
  20022423.19409  -2542498.89709  -1981167.74305         0.00000  20022426.87705
  20704368.98409  -3396122.62709  -2646327.12706         0.00000  20704372.76206
  23308532.92805  -3447132.78905  -2686074.67101         0.00000  23308534.48501
  23290470.18305   7726906.75805   6020964.25601         0.00000  23290473.05901
 96  9  9 22 23  0.0000000  0  6 23 25 01 21 05 09
  21571721.48708   4217960.50008   3286721.30304         0.00000  21571724.29804
  23307622.65004  -4161661.82604  -3242849.78602         0.00000  23307626.50402
  20704123.86709  -3397406.51109  -2647327.54805         0.00000  20704128.05505
  20023749.34809  -2535532.78909  -1975739.60606         0.00000  20023752.59806
  23307582.91505  -3452134.07805  -2689971.65902         0.00000  23307586.31802
  23301304.91205   7783844.87205   6065331.47201         0.00000  23301307.84101
 96  9  9 22 23 15.0000000  0  6 23 25 21 01 05 09
  21579222.51108   4257382.15608   3317439.46804         0.00000  21579224.82604
  23299816.98704  -4202681.40004  -3274813.01201         0.00000  23299817.59801
  20025009.92509  -2528909.25509  -1970578.42406         0.00000  20025012.51106
  20703804.86109  -3399086.01109  -2648636.24605         0.00000  20703808.71205
  23306564.95405  -3457476.76405  -2694134.82602         0.00000  23306566.09902
  23312064.84106   7840387.17806   6109390.44002         0.00000  23312067.25802
 96  9  9 22 23 30.0000000  0  6 23 25 01 21 05 09
  21586610.50708   4296204.15508   3347690.37904         0.00000  21586614.35204
  23291887.62104  -4244344.65104  -3307277.87202         0.00000  23291890.65802
  20703366.77609  -3401392.58309  -2650433.55905         0.00000  20703370.08305
  20026161.52409  -2522858.39209  -1965863.45306         0.00000  20026164.23606
  23305439.89804  -3463386.77804  -2698740.07502         0.00000  23305442.64402
  23322705.64006   7896302.99806   6152961.15801         0.00000  23322708.31801
 96  9  9 22 23 45.0000000  0  6 23 25 21 01 05 09
  21593838.13408   4334187.03508   3377287.41804         0.00000  21593840.74504
  23283792.58804  -4286890.20204  -3340430.20401         0.00000  23283796.60501
  20027158.64409  -2517617.12309  -1961779.34706         0.00000  20027161.91606
  20702763.63509  -3404564.56509  -2652905.24006         0.00000  20702766.47906
  23304163.56304  -3470100.75704  -2703971.70501         0.00000  23304167.48001
  23333180.86206   7951351.56206   6195856.11402         0.00000  23333183.15102
 96  9  9 22 24  0.0000000  0  6 23 25 01 21 05 09
  21600839.10808   4370977.21008   3405955.06404         0.00000  21600842.08004
  23275462.30304  -4330671.88704  -3374545.80301         0.00000  23275465.46601
  20701927.90309  -3408957.61409  -2656328.39106         0.00000  20701930.88206
  20027934.58609  -2513537.44409  -1958600.37305         0.00000  20027937.54605
  23302663.96304  -3477972.07404  -2710105.18202         0.00000  23302668.38002
  23343422.40006   8005174.00606   6237795.73902         0.00000  23343425.11002
 96  9  9 22 24 15.0000000  0  6 23 25 21 01 05 09
  21607685.54008   4406950.08208   3433985.86303         0.00000  21607687.74203
  23266966.64604  -4375313.08004  -3409331.11201         0.00000  23266969.71401
  20028561.24709  -2510246.68209  -1956036.15905         0.00000  20028564.13605
  20700930.58609  -3414195.52109  -2660409.88306         0.00000  20700932.78606
  23301017.51404  -3486624.22004  -2716847.09202         0.00000  23301020.93002
  23353502.78406   8058140.74906   6279068.40902         0.00000  23353504.38902
 96  9  9 22 24 30.0000000  0  6 23 25 01 21 05 09
  21614382.89908   4442145.20408   3461410.62004         0.00000  21614385.49504
  23258316.47804  -4420772.24504  -3444753.77001         0.00000  23258321.30801
  20699780.51409  -3420237.16109  -2665117.62906         0.00000  20699783.58506
  20029045.07609  -2507704.80509  -1954055.47205         0.00000  20029047.60605
  23299230.44704  -3496013.85904  -2724163.76401         0.00000  23299234.68901
  23363426.90506   8110289.63906   6319703.94601         0.00000  23363428.82101
 96  9  9 22 24 45.0000000  0  6 23 25 21 01 05 09
  21620926.79608   4476537.71908   3488209.96703         0.00000  21620930.02003
  23249505.54904  -4467069.71804  -3480829.76301         0.00000  23249509.12201
  20029382.09509  -2505932.57509  -1952674.51505         0.00000  20029384.49805
  20698473.31109  -3427104.86409  -2670469.09305         0.00000  20698476.54705
  23297299.44804  -3506159.76804  -2732069.56801         0.00000  23297307.29301
  23373190.33606   8161600.82106   6359686.60202         0.00000  23373192.09602
 96  9  9 22 25  0.0000000  0  6 23 25 01 21 05 09
  21627332.37607   4510203.40107   3514442.94803         0.00000  21627335.64103
  23240548.85804  -4514133.15004  -3517502.60302         0.00000  23240555.85702
  20697023.01109  -3434725.88209  -2676407.55706         0.00000  20697026.62706
  20029587.45309  -2504852.90809  -1951833.21205         0.00000  20029589.53205
  23295238.32404  -3516988.66304  -2740507.79401         0.00000  23295245.49601
  23382809.54606   8212146.38706   6399072.75502         0.00000  23382812.29602
 96  9  9 22 25 15.0000000  0  6 23 25 21 01 05 09
  21633686.71707   4543597.45807   3540464.27703         0.00000  21633690.41503
  23231534.30204  -4561509.76604  -3554419.25501         0.00000  23231538.27101
  20029747.18809  -2504012.22009  -1951178.13605         0.00000  20029750.06605
  20695515.02109  -3442650.24609  -2682582.39206         0.00000  20695518.33906
  23293132.79504  -3528050.69604  -2749127.40601         0.00000  23293137.62301
  23392368.01006   8262378.33406   6438214.47902         0.00000  23392371.16702
 96  9  9 22 25 30.0000000  0  6 23 25 01 21 05 09
  21640007.41207   4576812.39507   3566346.04303         0.00000  21640010.75003
  23222476.49004  -4609106.46004  -3591507.48801         0.00000  23222482.44801
  20693967.33209  -3450786.69009  -2688922.47506         0.00000  20693970.45606
  20029878.81709  -2503319.53109  -1950638.37505         0.00000  20029881.26705
  23290999.48304  -3539255.23104  -2757858.18501         0.00000  23291005.47701
  23401884.17806   8312387.77006   6477182.88802         0.00000  23401886.50102
 96  9  9 22 25 45.0000000  0  7 23 25 01 21 05 09 15
  21646314.11507   4609950.04607   3592167.57503         0.00000  21646316.66403
  23213395.93804  -4656819.02904  -3628686.16301         0.00000  23213400.66301
  20692399.21509  -3459028.60209  -2695344.74306         0.00000  20692402.49906
  20030002.53009  -2502669.32509  -1950131.72305         0.00000  20030005.28205
  23288860.48604  -3550501.34904  -2766621.40501         0.00000  23288866.22901
  23411377.77106   8362278.16806   6516058.49302         0.00000  23411380.52202
  24295374.98602    -33325.24402    -25966.21101         0.00000  24295404.53401
 96  9  9 22 26  0.0000000  0  7 23 25 21 01 05 09 15
  21652649.16507   4643240.14007   3618107.90503         0.00000  21652652.28603
  23204338.69904  -4704416.93804  -3665775.43101         0.00000  23204345.15801
  20030161.86109  -2501831.72509  -1949479.03505         0.00000  20030164.61905
  20690854.45209  -3467144.87209  -2701669.11505         0.00000  20690857.50505
  23286756.85205  -3561563.74805  -2775241.43402         0.00000  23286762.88802
  23420892.57705   8412279.82305   6555020.79201         0.00000  23420896.05601
  24287399.81102    -74841.25002    -58316.17601         0.00000  24287406.52001
 96  9  9 22 26 15.0000000  0  7 23 25 21 01 05 09 15
  21658923.31808   4676208.92208   3643797.88403         0.00000  21658926.40303
  23195212.77405  -4752374.93705  -3703145.29101         0.00000  23195218.61201
  20030266.37809  -2501283.43209  -1949051.79705         0.00000  20030269.34605
  20689243.51609  -3475609.47309  -2708264.91706         0.00000  20689246.43506
  23284595.69005  -3572917.89905  -2784088.81302         0.00000  23284601.20902
  23430337.95805   8461919.23805   6593700.84802         0.00000  23430341.18402
  24279371.11502   -116676.94902    -90915.85801         0.00000  24279376.44001
 96  9  9 22 26 30.0000000  0  7 23 25 01 21 05 09 15
  21665119.17307   4708767.98807   3669168.55703         0.00000  21665122.06203
  23186000.03504  -4800781.11004  -3740864.37101         0.00000  23186005.66001
  20687549.76609  -3484509.18509  -2715199.74905         0.00000  20687552.89805
  20030299.34409  -2501111.40909  -1948917.74605         0.00000  20030301.93305
  23282363.94506  -3584653.16406  -2793233.18502         0.00000  23282366.20302
  23439699.28805   8511110.41505   6632031.64201         0.00000  23439702.96901
  24271249.16902   -158919.59302   -123832.10600         0.00000  24271278.77400
 96  9  9 22 26 45.0000000  0  7 23 25 01 21 05 09 15
  21671344.72407   4741486.23907   3694663.27103         0.00000  21671347.55803
  23176813.19805  -4849064.95605  -3778488.08801         0.00000  23176817.30701
  20685882.17109  -3493274.25009  -2722029.65105         0.00000  20685885.11605
  20030369.67709  -2500742.75409  -1948630.49105         0.00000  20030371.66805
  23280166.75606  -3596199.73206  -2802230.47302         0.00000  23280169.69402
  23449084.27205   8560427.94405   6670460.85702         0.00000  23449088.67902
  24263171.51303     -5650.69403     -4403.35801         0.00000  24263183.47601
 96  9  9 22 27  0.0000000  0  7 23 25 21 01 05 09 15
  21677580.58307   4774254.75907   3720197.20103         0.00000  21677583.92203
  23167627.41906  -4897339.47806  -3816104.66901         0.00000  23167630.47001
  20030456.08309  -2500289.04109  -1948276.94205         0.00000  20030457.97405
  20684219.76809  -3502011.53109  -2728837.93006         0.00000  20684222.85306
  23277984.25006  -3607670.39106  -2811168.64502         0.00000  23277988.85902
  23458472.51205   8609762.91005   6708903.63701         0.00000  23458476.87301
  24255105.32103    -48046.77703    -37439.59201         0.00000  24255108.91601
 96  9  9 22 27 15.0000000  0  7 23 25 21 01 05 09 15
  21683788.15907   4806879.11207   3745618.77403         0.00000  21683791.36103
  23158406.06206  -4945799.91006  -3853865.94402         0.00000  23158408.88102
  20030521.45409  -2499945.42309  -1948009.19105         0.00000  20030523.44705
  20682525.62109  -3510914.58309  -2735775.38106         0.00000  20682528.61606
  23275777.13606  -3619261.95006  -2820201.04402         0.00000  23275779.27002
  23467826.72105   8658920.17405   6747207.94701         0.00000  23467831.82101
  24247011.78003    -90582.30003    -70583.40000         0.00000  24247011.02100
 96  9  9 22 27 30.0000000  0  7 23 25 01 21 05 09 15
  21689995.06606   4839495.56806   3771034.15103         0.00000  21689999.95103
  23149175.47406  -4994304.14006  -3891661.37902         0.00000  23149180.08702
  20680827.29409  -3519840.11009  -2742730.34505         0.00000  20680830.05505
  20030592.10009  -2499574.54809  -1947720.19805         0.00000  20030594.26705
  23273576.71906  -3630830.39306  -2829215.38302         0.00000  23273579.97702
  23477173.59705   8708040.10505   6785483.25301         0.00000  23477176.07401
  24238918.32003   -133117.04003   -103728.04600         0.00000  24238920.02800
 96  9  9 22 27 45.0000000  0  7 23 25 01 21 05 09 15
  21696211.25806   4872161.47706   3796488.12103         0.00000  21696215.03103
  23139947.93906  -5042794.70506  -3929446.30502         0.00000  23139950.50702
  20679136.39109  -3528727.37109  -2749655.48306         0.00000  20679139.23106
  20030678.98409  -2499119.71909  -1947365.78605         0.00000  20030681.51805
  23271391.69406  -3642313.96306  -2838163.61701         0.00000  23271395.01201
  23486526.57404   8757181.10704   6823774.87501         0.00000  23486529.87601
  24230833.94202   -175591.35902   -136824.56201         0.00000  24230839.71301
 96  9  9 22 28  0.0000000  0  7 23 25 21 01 05 09 15
  21702433.05907   4904857.13607   3821965.22803         0.00000  21702436.56903
  23130719.45506  -5091289.53706  -3967234.44502         0.00000  23130723.39002
  20030777.36709  -2498601.83209  -1946962.23805         0.00000  20030779.56805
  20677447.82709  -3537597.05909  -2756566.93006         0.00000  20677450.91906
  23269218.54205  -3653730.33605  -2847059.46902         0.00000  23269221.73902
  23495877.49904   8806324.83904   6862068.69901         0.00000  23495882.90901
  24222761.39803   -218024.72103   -169889.59301         0.00000  24222766.44601
 96  9  9 22 28 15.0000000  0  7 23 25 21 01 05 09 15
  21708649.15807   4937522.83907   3847418.99903         0.00000  21708653.95603
  23121478.32807  -5139851.99907  -4005075.28602         0.00000  23121481.54102
  20030875.89409  -2498084.94209  -1946559.47706         0.00000  20030878.55106
  20675751.11209  -3546512.89609  -2763514.32606         0.00000  20675754.50706
  23267047.15606  -3665138.93806  -2855949.30101         0.00000  23267050.24101
  23505216.36604   8855407.54004   6900314.83701         0.00000  23505220.80701
  24214682.42603   -260478.55903   -202970.37501         0.00000  24214686.16101
 96  9  9 22 28 30.0000000  0  7 23 25 01 21 05 09 15
  21714892.96707   4970332.13407   3872984.69003         0.00000  21714897.08803
  23112258.00707  -5188308.02207  -4042833.23802         0.00000  23112261.16802
  20674078.19509  -3555303.28909  -2770363.97906         0.00000  20674081.48806
  20031007.79109  -2497392.40809  -1946019.85605         0.00000  20031010.32505
  23264911.50605  -3676364.28005  -2864696.30702         0.00000  23264915.12202
  23514579.97304   8904602.99104   6938648.85601         0.00000  23514585.45001
  24206631.42902   -302777.12802   -235930.29301         0.00000  24206635.07801
 96  9  9 22 28 45.0000000  0  7 23 25 01 21 05 09 15
  21721158.38107   5003259.40607   3898642.28003         0.00000  21721162.20903
  23103052.82307  -5236681.77807  -4080527.04202         0.00000  23103057.26302
  20672425.06109  -3563992.86709  -2777135.09406         0.00000  20672428.66406
  20031167.91509  -2496545.55809  -1945359.96005         0.00000  20031170.99905
  23262805.20005  -3687429.84005  -2873318.85202         0.00000  23262810.73302
  23523957.72405   8953886.47405   6977051.63601         0.00000  23523961.42601
  24198607.98903   -344944.01103   -268787.70701         0.00000  24198614.49401
 96  9  9 22 29  0.0000000  0  7 23 25 01 21 05 09 15
  21727446.05707   5036304.66607   3924391.84303         0.00000  21727449.77803
  23093862.44206  -5284972.16506  -4118155.86102         0.00000  23093865.63802
  20670790.64509  -3572582.46009  -2783828.27906         0.00000  20670794.27206
  20031358.58209  -2495547.08309  -1944581.94205         0.00000  20031361.63305
  23260729.63805  -3698334.29205  -2881815.83002         0.00000  23260737.26002
  23533353.41405   9003254.69505   7015520.41102         0.00000  23533356.38902
  24190607.77203   -386980.26803   -301543.34001         0.00000  24190609.87101
 96  9  9 22 29 15.0000000  0  7 23 25 21 01 05 09 15
  21733757.14607   5069466.31807   3950232.03003         0.00000  21733760.59803
  23084687.76406  -5333182.27506  -4155722.13701         0.00000  23084692.44801
  20031577.32709  -2494397.13109  -1943685.88605         0.00000  20031580.40605
  20669175.28609  -3581074.32709  -2790445.31806         0.00000  20669177.54306
  23258685.09705  -3709078.21505  -2890187.68001         0.00000  23258688.64101
  23542761.88305   9052703.48805   7054051.85101         0.00000  23542765.53701
  24182633.48803   -428888.80503   -334199.09300         0.00000  24182638.28600
 96  9  9 22 29 30.0000000  0  7 23 25 01 21 05 09 15
  21740087.22607   5102733.97507   3976154.91403         0.00000  21740091.67403
  23075527.09506  -5381319.11206  -4193231.41802         0.00000  23075531.16602
  20667575.16409  -3589481.02209  -2796995.98306         0.00000  20667577.54406
  20031823.56509  -2493101.72509  -1942676.45605         0.00000  20031826.71405
  23256669.72004  -3719668.59404  -2898439.95001         0.00000  23256678.14001
  23552185.31005   9102223.75105   7092639.05401         0.00000  23552187.25201
  24174681.63403   -470677.29103   -366761.75201         0.00000  24174688.97701
 96  9  9 22 29 45.0000000  0  7 23 25 01 21 05 09 15
  21746444.14507   5136133.73307   4002180.67302         0.00000  21746447.77802
  23066386.77306  -5429358.76106  -4230664.85202         0.00000  23066389.49002
  20665995.51609  -3597781.13609  -2803463.60606         0.00000  20665998.33606
  20032103.32309  -2491633.68609  -1941532.54505         0.00000  20032106.28005
  23254688.42204  -3730083.23604  -2906555.22001         0.00000  23254691.35401
  23561627.33804   9151839.17504   7131300.34401         0.00000  23561633.44801
  24166757.99103   -512320.07103   -399210.54701         0.00000  24166763.63001
 96  9  9 22 30  0.0000000  0  7 23 25 01 21 05 09 15
  21752826.34207   5169673.55607   4028315.62703         0.00000  21752829.51203
  23057264.67406  -5477295.36706  -4268018.03302         0.00000  23057268.98802
  20664437.14909  -3605971.61609  -2809845.79806         0.00000  20664440.02506
  20032417.33709  -2489982.54309  -1940245.93605         0.00000  20032419.72305
  23252740.35504  -3740320.36104  -2914532.21401         0.00000  23252743.97101
  23571086.93404   9201554.69304   7170039.66901         0.00000  23571090.04901
  24158864.65503   -553810.49503   -431540.63501         0.00000  24158872.41101
 96  9  9 22 30 15.0000000  0  7 23 25 21 01 05 09 15
  21759232.31407   5203335.05207   4054545.35803         0.00000  21759235.33403
  23048158.65206  -5525147.65306  -4305305.50202         0.00000  23048162.12702
  20032763.31409  -2488164.66109  -1938829.40105         0.00000  20032765.74805
  20662895.97209  -3614070.21309  -2816156.38406         0.00000  20662899.20406
  23250823.24304  -3750401.55504  -2922387.71501         0.00000  23250826.80001
  23580562.07304   9251347.86104   7208839.48201         0.00000  23580564.99901
  24150991.69803   -595168.54503   -463767.68501         0.00000  24150998.27601
 96  9  9 22 30 30.0000000  0  7 23 25 01 21 05 09 15
  21765655.44007   5237090.66107   4080848.43503         0.00000  21765657.40703
  23039064.19706  -5572943.38406  -4342548.93902         0.00000  23039067.83402
  20661367.13409  -3622104.08709  -2822416.54006         0.00000  20661370.21606
  20033135.95009  -2486206.15509  -1937303.30205         0.00000  20033138.42105
  23248929.23204  -3760353.67504  -2930142.61101         0.00000  23248933.05301
  23590047.40605   9301190.89505   7247678.21201         0.00000  23590050.04301
  24143142.83103   -636420.69903   -495912.24101         0.00000  24143149.72901
 96  9  9 22 30 45.0000000  0  7 23 25 01 21 05 09 15
  21772097.88207   5270944.65807   4107228.12303         0.00000  21772100.88503
  23029980.43606  -5620674.41006  -4379741.91202         0.00000  23029984.25502
  20659851.81509  -3630068.13509  -2828622.29106         0.00000  20659854.32406
  20033535.76009  -2484103.95209  -1935665.23105         0.00000  20033538.13605
  23247060.17904  -3770171.87804  -2937793.12801         0.00000  23247062.96401
  23599542.50205   9351087.65105   7286558.77901         0.00000  23599546.19901
  24135311.65103   -677562.93703   -527971.03301         0.00000  24135313.97301
 96  9  9 22 31  0.0000000  0  7 23 25 21 01 05 09 15
  21778558.70607   5304899.25207   4133686.26003         0.00000  21778561.79803
  23020910.86206  -5668337.57306  -4416882.00702         0.00000  23020913.10902
  20033963.05309  -2481858.64309  -1933915.61805         0.00000  20033966.11905
  20658350.08109  -3637958.28409  -2834770.46306         0.00000  20658352.33706
  23245218.43004  -3779854.73804  -2945338.21201         0.00000  23245222.97601
  23609047.69205   9401039.28405   7325482.12901         0.00000  23609051.09901
  24127504.39303   -718593.02403   -559942.52001         0.00000  24127508.89301
 96  9  9 22 31 15.0000000  0  7 23 25 21 01 05 09 15
  21785035.23607   5338933.69507   4160206.57303         0.00000  21785039.70403
  23011848.97305  -5715955.82705  -4453987.11501         0.00000  23011852.96301
  20034413.19409  -2479495.22309  -1932074.01505         0.00000  20034416.23505
  20656858.49709  -3645797.33209  -2840878.81706         0.00000  20656861.06306
  23243395.26204  -3789425.42204  -2952795.88202         0.00000  23243399.80102
  23618559.85605   9451022.25805   7364429.78701         0.00000  23618561.44301
  24119712.75803   -759533.20903   -591843.84101         0.00000  24119714.47001
 96  9  9 22 31 30.0000000  0  7 23 25 01 21 05 09 15
  21791524.46307   5373037.42707   4186780.92003         0.00000  21791527.68203
  23002793.19205  -5763537.46905  -4491063.69902         0.00000  23002797.32002
  20655373.98809  -3653596.31309  -2846955.94406         0.00000  20655376.71806
  20034883.23309  -2477023.77609  -1930148.21305         0.00000  20034885.69005
  23241594.90604  -3798894.74104  -2960174.53502         0.00000  23241598.10802
  23628075.13105   9501028.19005   7403395.45401         0.00000  23628079.25301
  24111938.02503   -800392.66803   -623682.27800         0.00000  24111944.74400
 96  9  9 22 31 45.0000000  0  7 23 25 01 21 05 09 15
  21798030.09706   5407226.46406   4213421.69303         0.00000  21798033.71303
  22993749.80305  -5811063.69705  -4528097.10002         0.00000  22993753.84702
  20653900.71109  -3661339.55709  -2852989.63906         0.00000  20653903.59106
  20035375.68609  -2474432.78909  -1928129.28405         0.00000  20035378.08905
  23239816.22204  -3808247.10804  -2967462.16201         0.00000  23239822.07501
  23637598.69705   9551071.20705   7442390.00801         0.00000  23637602.94101
  24104182.07303   -841155.16003   -655445.28801         0.00000  24104185.75401
 96  9  9 22 32  0.0000000  0  7 23 25 01 21 05 09 15
  21804553.79007   5441503.87107   4240131.35903         0.00000  21804557.02603
  22984717.40705  -5858528.27505  -4565082.41702         0.00000  22984722.43302
  20652440.02509  -3669017.47209  -2858972.42906         0.00000  20652442.87706
  20035891.99809  -2471720.98609  -1926016.19705         0.00000  20035895.34605
  23238059.65604  -3817475.21304  -2974652.83801         0.00000  23238063.68801
  23647129.80805   9601156.86805   7481417.76301         0.00000  23647133.54901
  24096447.07304   -881816.44004   -687129.78600         0.00000  24096445.04900
 96  9  9 22 32 15.0000000  0  7 23 25 21 01 05 09 15
  21811092.38407   5475861.63007   4266903.64303         0.00000  21811095.40403
  22975696.28305  -5905936.34905  -4602023.77502         0.00000  22975700.21602
  20036428.51509  -2468897.87709  -1923816.36705         0.00000  20036431.63005
  20650990.77009  -3676631.86309  -2864905.72206         0.00000  20650993.17706
  23236326.70504  -3826580.79104  -2981748.03902         0.00000  23236331.17402
  23656668.05005   9651280.82005   7520475.33201         0.00000  23656672.77301
  24088727.17504   -922382.37704   -718739.24201         0.00000  24088727.39701
 96  9  9 22 32 30.0000000  0  7 23 25 01 21 05 09 15
  21817643.30307   5510288.08807   4293729.46403         0.00000  21817645.86403
  22966684.08905  -5953295.44005  -4638926.98202         0.00000  22966690.77802
  20649551.98409  -3684193.53909  -2870797.93006         0.00000  20649554.69406
  20036984.01609  -2465977.42909  -1921540.70505         0.00000  20036987.98105
  23234616.99405  -3835569.62905  -2988752.37501         0.00000  23234619.40201
  23666211.40705   9701434.74805   7559556.33501         0.00000  23666215.08201
  24081023.94504   -962862.43504   -750283.09500         0.00000  24081019.63300
 96  9  9 22 32 45.0000000  0  7 23 25 01 21 05 09 15
  21824205.72407   5544777.39207   4320604.21603         0.00000  21824208.35103
  22957680.15105  -6000609.14105  -4675794.69802         0.00000  22957684.47802
  20648121.32309  -3691710.46309  -2876655.26906         0.00000  20648124.43406
  20037557.50409  -2462965.44609  -1919193.68805         0.00000  20037561.02905
  23232927.28705  -3844446.19905  -2995669.19802         0.00000  23232930.24102
  23675760.98005   9751613.68405   7598656.67201         0.00000  23675764.60101
  24073335.99104  -1003261.59504   -781762.02201         0.00000  24073339.70901
 96  9  9 22 33  0.0000000  0  7 23 25 01 21 05 09 15
  21830784.66907   5579346.86507   4347541.45003         0.00000  21830788.34303
  22948688.15204  -6047860.70704  -4712614.07302         0.00000  22948693.03502
  20646703.26909  -3699162.78209  -2882462.27006         0.00000  20646706.29406
  20038152.91909  -2459840.64309  -1916758.78405         0.00000  20038156.04305
  23231262.83405  -3853194.00705  -3002485.67102         0.00000  23231265.48702
  23685317.06205   9801834.74305   7637790.03701         0.00000  23685319.85401
  24065666.96904  -1043561.63704   -813164.65801         0.00000  24065669.76201
 96  9  9 22 33 15.0000000  0  7 23 25 21 01 05 09 15
  21837368.25007   5613945.13207   4374501.10803         0.00000  21837371.52903
  22939697.42004  -6095104.03304  -4749427.02102         0.00000  22939702.60602
  20038760.09209  -2456652.84709  -1914274.79505         0.00000  20038762.35505
  20645286.72609  -3706602.83909  -2888259.71606         0.00000  20645289.19306
  23229612.84106  -3861865.63706  -3009242.76402         0.00000  23229615.36802
  23694871.52705   9852047.05605   7676916.44401         0.00000  23694875.58401
  24058008.52404  -1083813.87804   -844530.15201         0.00000  24058009.19001
 96  9  9 22 33 30.0000000  0  7 23 25 01 21 05 09 15
  21843971.32507   5648646.90007   4401541.41303         0.00000  21843974.90703
  22930724.77205  -6142263.04105  -4786174.28102         0.00000  22930728.40902
  20643887.51109  -3713955.45909  -2893989.03606         0.00000  20643890.36006
  20039392.20009  -2453325.86909  -1911682.33505         0.00000  20039394.83405
  23227991.47506  -3870385.13906  -3015881.33002         0.00000  23227994.32802
  23704439.12704   9902327.26104   7716095.71701         0.00000  23704445.13501
  24050372.71704  -1123942.66404   -875799.30600         0.00000  24050377.44600
 96  9  9 22 33 45.0000000  0  7 23 25 01 21 05 09 15
  21850605.17108   5683502.12308   4428701.33903         0.00000  21850608.88803
  22921776.86905  -6189287.43105  -4822816.63602         0.00000  22921779.83302
  20642515.58709  -3721168.51509  -2899609.58606         0.00000  20642518.08906
  20040062.27409  -2449805.71709  -1908939.36405         0.00000  20040064.90505
  23226408.88406  -3878701.27406  -3022361.42302         0.00000  23226412.77602
  23714029.04604   9952725.42304   7755367.08701         0.00000  23714033.73301
  24042769.80704  -1163895.92504   -906931.72201         0.00000  24042772.56101
 96  9  9 22 34  0.0000000  0  7 23 25 01 21 05 09 15
  21857255.80708   5718449.41508   4455933.00603         0.00000  21857258.88703
  22912841.47705  -6236244.52605  -4859406.56802         0.00000  22912844.53402
  20641157.77509  -3728303.56209  -2905169.36305         0.00000  20641160.85405
  20040757.18309  -2446152.45609  -1906092.68505         0.00000  20040760.41305
  23224852.94806  -3886876.49406  -3028731.74902         0.00000  23224857.03802
  23723629.59003  10003179.36403   7794681.79701         0.00000  23723638.05201
  24035188.52104  -1203736.51704   -937976.28701         0.00000  24035193.02601
 96  9  9 22 34 15.0000000  0  7 23 25 01 21 05 09 15
  21863920.97608   5753476.86408   4483227.09204         0.00000  21863924.10304
  22903916.52705  -6283148.79205  -4895955.22902         0.00000  22903919.74802
  20639812.62609  -3735374.45009  -2910679.14605         0.00000  20639815.21405
  20041476.40209  -2442374.58709  -1903148.88405         0.00000  20041479.89805
  23223321.24605  -3894923.46205  -3035002.09802         0.00000  23223324.81802
  23733239.12503  10053676.84803   7834030.39301         0.00000  23733247.15101
  24027624.59504  -1243476.63404   -968942.48101         0.00000  24027622.92201
 96  9  9 22 34 30.0000000  0  7 23 25 01 21 05 09 15
  21870601.22308   5788582.21108   4510581.92003         0.00000  21870603.87203
  22894999.45505  -6330006.72405  -4932467.96102         0.00000  22895002.57102
  20638476.89909  -3742390.76709  -2916146.40206         0.00000  20638480.03606
  20042218.27209  -2438475.04009  -1900110.27105         0.00000  20042221.65805
  23221812.07305  -3902848.09505  -3041177.11502         0.00000  23221815.74602
  23742855.10303  10104209.01103   7873406.07001         0.00000  23742861.66801
  24020081.98604  -1283120.31204   -999833.76801         0.00000  24020086.80101
 96  9  9 22 34 45.0000000  0  7 23 25 01 21 05 09 15
  21877303.51707   5823801.54407   4538025.50903         0.00000  21877306.80303
  22886098.39805  -6376785.15005  -4968918.58902         0.00000  22886101.22902
  20637158.04409  -3749321.39809  -2921546.88506         0.00000  20637161.13706
  20042990.82309  -2434417.00409  -1896948.18805         0.00000  20042994.20105
  23220333.55205  -3910619.36305  -3047232.59602         0.00000  23220338.16602
  23752484.28203  10154808.97703   7912834.67801         0.00000  23752490.42301
  24012562.92904  -1322634.01004  -1030623.64401         0.00000  24012562.82301
 96  9  9 22 35  0.0000000  0  7 23 25 01 21 05 09 15
  21884023.61807   5859120.48807   4565546.76403         0.00000  21884027.51803
  22877207.38406  -6423502.34706  -5005321.57402         0.00000  22877211.22802
  20635853.31509  -3756178.72909  -2926890.25006         0.00000  20635856.60206
  20043790.34309  -2430213.71309  -1893672.87605         0.00000  20043793.88105
  23218881.04905  -3918253.99605  -3053181.72102         0.00000  23218884.14602
  23762123.34703  10205460.32303   7952303.01201         0.00000  23762133.86401
  24005064.54904  -1362032.87804  -1061323.94001         0.00000  24005069.49601
 96  9  9 22 35 15.0000000  0  7 23 25 21 01 05 09 15
  21890760.10107   5894523.12407   4593133.23203         0.00000  21890764.49203
  22868325.84506  -6470176.78906  -5041691.22202         0.00000  22868328.88902
  20044614.74709  -2425884.81909  -1890299.72906         0.00000  20044617.61006
  20634559.11409  -3762980.54909  -2932190.37706         0.00000  20634562.12906
  23217451.41405  -3925768.50305  -3059037.17802         0.00000  23217458.49002
  23771769.03903  10256146.90503   7991799.04401         0.00000  23771776.77901
  23997585.65004  -1401333.60204  -1091947.93801         0.00000  23997591.44301
 96  9  9 22 35 30.0000000  0  7 23 25 01 21 05 09 15
  21897511.11406   5930000.37406   4620777.83803         0.00000  21897515.83003
  22859451.03506  -6516814.83506  -5078032.53702         0.00000  22859454.88202
  20633273.38909  -3769737.40309  -2937455.45306         0.00000  20633275.80606
  20045460.62709  -2421442.16809  -1886837.94905         0.00000  20045462.86905
  23216042.38205  -3933170.36905  -3064804.81601         0.00000  23216044.35001
  23781419.94903  10306860.11503   8031315.83501         0.00000  23781427.59201
  23990123.44304  -1440544.42204  -1122501.77401         0.00000  23990129.48001
 96  9  9 22 35 45.0000000  0  7 23 25 01 21 05 09 15
  21904277.47706   5965558.04706   4648485.09503         0.00000  21904282.81703
  22850584.20007  -6563407.54407  -5114338.55402         0.00000  22850587.35302
  20631997.57709  -3776442.86209  -2942680.50606         0.00000  20632000.62606
  20046328.86909  -2416875.94809  -1883279.84505         0.00000  20046330.90005
  23214656.83505  -3940448.27905  -3070475.85602         0.00000  23214661.73602
  23791076.61503  10357608.53303   8070860.01301         0.00000  23791080.86801
  23982678.93604  -1479656.81304  -1152979.01201         0.00000  23982684.53901
 96  9  9 22 36  0.0000000  0  7 23 25 01 21 05 09 15
  21911058.61306   6001193.39706   4676252.87503         0.00000  21911062.27603
  22841726.48007  -6609959.25907  -5150612.61102         0.00000  22841729.26302
  20630730.85109  -3783102.04309  -2947869.46207         0.00000  20630733.03707
  20047220.32609  -2412190.69809  -1879628.99805         0.00000  20047222.80205
  23213295.22305  -3947605.52005  -3076052.99801         0.00000  23213300.22701
  23800739.88003  10408388.43803   8110428.55901         0.00000  23800745.37601
  23975253.74003  -1518674.93803  -1183382.67401         0.00000  23975260.20601
 96  9  9 22 36 15.0000000  0  7 23 25 21 01 05 09 15
  21917854.38806   6036905.42606   4704080.42803         0.00000  21917858.76803
  22832875.44607  -6656467.67807  -5186852.87802         0.00000  22832877.59102
  20048134.53109  -2407389.69209  -1875887.97105         0.00000  20048137.75505
  20629471.71609  -3789717.26909  -2953024.18106         0.00000  20629474.20206
  23211955.05104  -3954642.69604  -3081536.38301         0.00000  23211959.95201
  23810409.75703  10459197.40903   8150020.10701         0.00000  23810417.19801
  23967845.70103  -1557600.49503  -1213714.42301         0.00000  23967851.36201
 96  9  9 22 36 30.0000000  0  7 23 25 01 21 05 09 15
  21924661.62007   6072672.08107   4731950.50803         0.00000  21924665.29803
  22824030.42207  -6702950.44407  -5223073.21902         0.00000  22824033.65802
  20628216.77109  -3796307.45409  -2958159.39706         0.00000  20628219.72606
  20049065.71409  -2402494.44109  -1872073.47605         0.00000  20049068.73405
  23210634.63504  -3961580.13304  -3086942.22801         0.00000  23210642.48301
  23820079.74804  10510013.82404   8189617.39201         0.00000  23820081.97001
  23960451.45303  -1596452.84303  -1243988.96801         0.00000  23960459.32401
 96  9  9 22 36 45.0000000  0  7 23 25 01 21 05 09 15
  21931481.35906   6108511.86306   4759877.57003         0.00000  21931484.84903
  22815194.23807  -6749388.74707  -5259258.92002         0.00000  22815197.52602
  20626971.63209  -3802853.72909  -2963260.38906         0.00000  20626974.94306
  20050017.61509  -2397489.34009  -1868173.40105         0.00000  20050020.35805
  23209336.33704  -3968401.88204  -3092258.04101         0.00000  23209345.10901
  23829754.44304  10560856.16904   8229234.62201         0.00000  23829758.37901
  23953076.70704  -1635214.00704  -1274192.34601         0.00000  23953086.26901
 96  9  9 22 37  0.0000000  0  7 23 25 01 21 05 09 15
  21938314.24306   6144421.39106   4787859.05002         0.00000  21938318.01302
  22806364.93007  -6795781.47307  -5295409.06502         0.00000  22806368.16302
  20625734.24909  -3809354.17909  -2968325.67206         0.00000  20625737.26106
  20050990.60809  -2392374.83209  -1864188.08104         0.00000  20050993.89004
  23208062.11905  -3975107.40005  -3097483.00601         0.00000  23208064.40201
  23839434.27604  10611725.59304   8268873.03601         0.00000  23839440.36201
  23945719.53404  -1673884.29804  -1304325.00901         0.00000  23945725.29001
 96  9  9 22 37 15.0000000  0  7 23 25 21 01 05 09 15
  21945159.07406   6180390.97606   4815887.27702         0.00000  21945163.48702
  22797543.36907  -6842136.91207  -5331530.17002         0.00000  22797545.65302
  20051982.87709  -2387162.05109  -1860126.18705         0.00000  20051986.07505
  20624504.39709  -3815816.80909  -2973361.49706         0.00000  20624507.40706
  23206805.83005  -3981703.53305  -3102622.71802         0.00000  23206809.52902
  23849117.48204  10662611.87504   8308524.69701         0.00000  23849119.82001
  23938376.48204  -1712471.87804  -1334393.34501         0.00000  23938379.85101
 96  9  9 22 37 30.0000000  0  7 23 25 01 21 05 09 15
  21952013.20706   6216409.87506   4843953.93403         0.00000  21952017.85603
  22788727.95306  -6888462.06606  -5367627.64502         0.00000  22788730.63102
  20623279.77509  -3822252.90309  -2978376.62505         0.00000  20623282.98505
  20052991.82009  -2381860.13809  -1855994.83705         0.00000  20052995.03205
  23205570.97405  -3988199.10805  -3107687.83705         0.00000  23205573.77505
  23858804.09404  10713505.89704   8348182.39101         0.00000  23858806.90201
  23931046.70503  -1750986.14203  -1364404.51901         0.00000  23931051.13601
 96  9  9 22 37 45.0000000  0  7 25 01 21 05 23 09 15
  22779918.59106  -6934753.53706  -5403698.95602         0.00000  22779921.85102
  20622060.85109  -3828658.44409  -2983367.97306         0.00000  20622063.81306
  20054018.47009  -2376463.50409  -1851789.67305         0.00000  20054022.49105
  23204354.58205  -3994590.88305  -3112666.28602         0.00000  23204356.02102
  21958876.92506   6252479.60306   4872060.19903         0.00000  21958881.01103
  23868491.14204  10764411.75404   8387849.23101         0.00000  23868495.80001
  23923732.10303  -1789422.92803  -1394355.03401         0.00000  23923735.33301
 96  9  9 22 38  0.0000000  0  7 23 25 01 21 05 09 15
  21965750.54806   6288599.91106   4900205.89902         0.00000  21965753.80102
  22771115.93107  -6981016.09007  -5439747.66102         0.00000  22771120.43102
  20620847.51709  -3835035.55709  -2988337.16306         0.00000  20620850.61406
  20055063.18709  -2370976.52509  -1847514.10405         0.00000  20055066.17805
  23203158.64406  -4000884.14306  -3117569.71901         0.00000  23203163.39801
  23878178.43404  10815323.98504   8427521.07801         0.00000  23878182.68201
  23916432.64103  -1827784.95903  -1424247.56201         0.00000  23916439.25601
 96  9  9 22 38 15.0000000  0  7 23 25 21 01 05 09 15
  21972632.04206   6324757.37606   4928380.53602         0.00000  21972635.62802
  22762313.58406  -7027263.28506  -5475784.43802         0.00000  22762316.42002
  20056121.80609  -2365413.73609  -1843179.46005         0.00000  20056124.67805
  20619638.01409  -3841395.93509  -2993293.30906         0.00000  20619640.80206
  23201975.50106  -4007097.04706  -3122411.10201         0.00000  23201979.69001
  23887865.22904  10866226.08404   8467185.00501         0.00000  23887869.42801
  23909144.69903  -1866086.23003  -1454092.67301         0.00000  23909147.06501
 96  9  9 22 38 30.0000000  0  7 23 25 01 21 05 09 15
  21979500.55307   6360847.84807   4956502.92702         0.00000  21979503.29402
  22753496.36905  -7073596.01805  -5511887.89502         0.00000  22753500.15402
  20618411.33309  -3847839.88109  -2998314.55006         0.00000  20618414.46206
  20057175.47309  -2359875.90909  -1838864.28505         0.00000  20057178.39105
  23200788.10605  -4013330.67905  -3127268.16901         0.00000  23200793.28201
  23897530.55905  10917015.76205   8506761.31501         0.00000  23897535.47101
  23901848.48803  -1904426.80503  -1483968.45001         0.00000  23901855.60001
 96  9  9 22 38 45.0000000  0  7 23 25 01 21 05 09 15
  21986372.00506   6396958.79306   4984641.36402         0.00000  21986374.11302
  22744679.72505  -7119927.06505  -5547989.93102         0.00000  22744684.13502
  20617185.42609  -3854280.21909  -3003332.99207         0.00000  20617188.58507
  20058241.17509  -2354276.06509  -1834500.77305         0.00000  20058244.18805
  23199615.88305  -4019495.44905  -3132072.15001         0.00000  23199618.94101
  23907190.48205  10967781.72505   8546319.23601         0.00000  23907193.83001
  23894563.09404  -1942717.18004  -1513805.07601         0.00000  23894567.46601
 96  9  9 22 39  0.0000000  0  7 23 25 01 21 05 09 15
  21993244.80706   6433077.99806   5012786.15702         0.00000  21993248.08802
  22735862.76705  -7166266.85505  -5584098.82301         0.00000  22735867.70901
  20615958.42109  -3860729.10309  -3008358.10506         0.00000  20615961.47606
  20059316.47309  -2348623.21409  -1830095.95805         0.00000  20059319.72605
  23198453.04505  -4025601.02405  -3136829.63301         0.00000  23198458.80301
  23916844.79105  11018511.64405   8585848.96401         0.00000  23916847.86601
  23887283.68804  -1980967.79404  -1543610.75501         0.00000  23887288.25401
 96  9  9 22 39 15.0000000  0  7 23 25 21 01 05 09 15
  22000122.57206   6469224.68006   5040952.40502         0.00000  22000125.91502
  22727046.16805  -7212596.37105  -5620199.75502         0.00000  22727049.90602
  20060406.96509  -2342895.66909  -1825632.95205         0.00000  20060410.51305
  20614733.73209  -3867165.68609  -3013373.62306         0.00000  20614735.77806
  23197305.91405  -4031625.92005  -3141524.62401         0.00000  23197312.24801
  23926495.34806  11069225.49606   8625366.19901         0.00000  23926498.97601
  23880016.07304  -2019157.50304  -1573368.89201         0.00000  23880017.93801
 96  9  9 22 39 30.0000000  0  7 23 25 01 21 05 09 15
  22006997.67406   6505358.51406   5069108.64102         0.00000  22007001.27202
  22718225.04305  -7258960.31005  -5656327.48502         0.00000  22718227.96602
  20613502.15009  -3873634.04609  -3018413.89306         0.00000  20613504.47606
  20061502.79209  -2337137.18309  -1821145.81605         0.00000  20061506.02005
  23196167.35605  -4037615.04505  -3146191.36502         0.00000  23196172.01002
  23936135.31305  11119879.46905   8664836.83601         0.00000  23936135.78901
  23872751.15604  -2057328.72604  -1603112.72301         0.00000  23872754.76101
 96  9  9 22 39 45.0000000  0  7 23 25 01 21 05 09 15
  22013877.58806   6541505.78306   5097275.32802         0.00000  22013883.14702
  22709400.84806  -7305332.35706  -5692461.53402         0.00000  22709404.12902
  20612270.61909  -3880105.87109  -3023456.88606         0.00000  20612273.80406
  20062609.75709  -2331318.38109  -1816611.69305         0.00000  20062612.87805
  23195038.78505  -4043541.78305  -3150809.64801         0.00000  23195041.43701
  23945767.83905  11170503.05205   8704283.73801         0.00000  23945772.80201
  23865494.39403  -2095452.37603  -1632819.28101         0.00000  23865501.66401
 96  9  9 22 40  0.0000000  0  7 23 25 01 21 05 09 15
  22020759.59506   6577673.67106   5125458.05502         0.00000  22020764.80902
  22700574.85705  -7351706.44405  -5728597.10002         0.00000  22700577.29602
  20611039.84209  -3886571.44109  -3028495.00206         0.00000  20611043.06406
  20063729.95109  -2325434.40209  -1812026.77305         0.00000  20063732.80905
  23193924.01404  -4049399.30304  -3155373.84101         0.00000  23193931.08401
  23955396.17805  11221099.74805   8743709.72601         0.00000  23955399.18601
  23858250.73003  -2133521.26903  -1662483.61501         0.00000  23858258.38901
                            2                                                   
            --> ANTENNA STARTED MOVING  <--                 COMMENT             
                 --> MODE: STATIC <--                       COMMENT             
