     2              OBSERVATION DATA    GPS                 RINEX VERSION / TYPE
TBIN                XXXXXXXXXXXX        96-09-09 22:06:15   PGM / RUN BY / DATE 
TOPCON-GEOCOMP RINEX Formatter-Version: 96.06.XX            COMMENT             
MODE : STATIC                                               COMMENT             
S.HT.NUM2                                                   COMMENT             
PTB1                                                        MARKER NAME         
PLR                                                         OBSERVER / AGENCY   
UNKNOWN                                                     REC# / TYPE / VERS  
UNKNOWN                                                     ANT # / TYPE        
   596890.1301 -4847812.3827  4088158.1131                  APPROX POSITION XYZ 
LATN  40 07 05.34763   LONE 277 01 09.31023    203.953(m)   COMMENT             
LATN  40 07 05.34763   LONW  82 58 50.68977    203.953(m)   COMMENT             
        1.6135        0.0000        0.0000                  ANTENNA: DELTA H/E/N
Original slant height(m) :   1.6150 Radius Used:0.0699      COMMENT             
   --> NO OFFSETS WERE ADDED TO ANTENNA: DELTA H/E/N <--    COMMENT             
                                                _______     COMMENT             
                                               /       \    COMMENT             
                                              |  TSII   |   COMMENT             
                                              | ANTENNA |   COMMENT             
HEIGHT MEASURED TO THIS POINT ______________\ |_________|   COMMENT             
                                            /   |__^__|     COMMENT             
Offset of preamp to circular base of antenna(m) : 0.0206    COMMENT             
Turbo SII antenna radius(m) :       0.0699                  COMMENT             
TurboRogue Choke ring radius(m) :   0.1896                  COMMENT             
Turbo SII antenna offsets(m) :      L1:  0.0530 L2:  0.0510 COMMENT             
TurboRogue Choke ring offsets(m) :  L1: -0.0064 L2:  0.0198 COMMENT             
     1     1                                                WAVELENGTH FACT L1/2
     5    C1    L1    L2    P1    P2                        # / TYPES OF OBSERV 
  1996     9     9    21    35   59.000000                  TIME OF FIRST OBS   
                                                            END OF HEADER       
                            3  4                                                
PTB1                                                        MARKER NAME         
USER COMMENT: S.HT.NUM2                                     COMMENT             
   596890.1301 -4847812.3827  4088158.1131                  APPROX POSITION XYZ 
LATN  40 07 05.34763   LONE 277 01 09.31023    203.953(m)   COMMENT             
LATN  40 07 05.34763   LONW  82 58 50.68977    203.953(m)   COMMENT             
        1.6135        0.0000        0.0000                  ANTENNA: DELTA H/E/N
        --> THIS IS A START OF A NEW SITE <--               COMMENT             
                 --> MODE: STATIC <--                       COMMENT             
 96  9  9 21 40  0.0000000  0  6 01 09 05 21 23 17
  21246974.93409  -2173281.34009  -1693465.50205         0.00000  21246978.90105
  21964104.50007   2379198.75707   1853920.98802         0.00000  21964108.09602
  24080706.83303    -76806.68703    -59848.13900         0.00000  24080712.93700
  20412280.01509  -2004580.86309  -1562010.22305         0.00000  20412283.11205
  20833698.91809    976821.22309    761159.19904         0.00000  20833701.90304
  23351885.78105   4825647.16005   3760242.82101         0.00000  23351892.26301
 96  9  9 21 40 15.0000000  0  6 01 09 05 21 23 17
  21242739.89609  -2195538.68909  -1710808.87805         0.00000  21242743.44205
  21970385.67607   2412207.39607   1879641.97102         0.00000  21970389.43502
  24074798.86603   -107839.72303    -84030.28600         0.00000  24074797.11400
  20408480.38809  -2024547.80409  -1577568.87905         0.00000  20408483.83205
  20836578.87509    991955.81009    772952.39805         0.00000  20836582.13705
  23362998.53305   4884046.73505   3805748.91401         0.00000  23363002.57001
 96  9  9 21 40 30.0000000  0  6 01 09 05 21 23 17
  21238517.24909  -2217729.07809  -1728100.09405         0.00000  21238520.75805
  21976688.23708   2445324.05908   1905447.18803         0.00000  21976690.60903
  24068905.64503   -138809.70203   -108162.86200         0.00000  24068908.94900
  20404695.36709  -2044436.94709  -1593066.90205         0.00000  20404699.00405
  20839473.99309   1007169.70709    784807.35004         0.00000  20839477.50204
  23374118.25005   4942480.96105   3851281.98001         0.00000  23374124.33101
 96  9  9 21 40 45.0000000  0  6 01 09 05 21 23 17
  21234311.43809  -2239831.31409  -1745322.60005         0.00000  21234314.60205
  21983014.61108   2478565.54508   1931349.62403         0.00000  21983017.53103
  24063028.36103   -169696.99603   -132230.42501         0.00000  24063029.33601
  20400931.05709  -2064223.81609  -1608485.24906         0.00000  20400934.96206
  20842387.54709   1022481.08409    796738.28104         0.00000  20842391.11104
  23385249.71806   5000970.26706   3896858.09102         0.00000  23385255.14802
 96  9  9 21 41  0.0000000  0  6 01 09 05 21 23 17
  21230120.55809  -2261852.58209  -1762482.01505         0.00000  21230123.80905
  21989362.68508   2511923.43008   1957342.78303         0.00000  21989365.47203
  24057165.16203   -200508.85003   -156240.41700         0.00000  24057163.97900
  20397184.38209  -2083911.91609  -1623826.63406         0.00000  20397187.55006
  20845318.84009   1037884.22509    808740.73205         0.00000  20845322.59505
  23396388.96306   5059508.28306   3942472.12302         0.00000  23396394.38902
 96  9  9 21 41 15.0000000  0  6 01 09 05 21 23 17
  21225943.59709  -2283801.44809  -1779585.01904         0.00000  21225947.18004
  21995731.29508   2545390.67708   1983421.14203         0.00000  21995733.89303
  24051307.17202   -231251.76202   -180195.01900         0.00000  24051306.57800
  20393454.95209  -2103509.34009  -1639097.34805         0.00000  20393458.20505
  20848266.89909   1053372.39709    820809.43505         0.00000  20848270.54805
  23407535.92706   5118085.35406   3988116.49801         0.00000  23407541.80101
 96  9  9 21 41 30.0000000  0  6 01 09 05 21 23 17
  21221781.40609  -2305676.33809  -1796630.39805         0.00000  21221784.91005
  22002121.16908   2578969.51508   2009586.45303         0.00000  22002123.91603
  24045477.29902   -261922.50502   -204094.24901         0.00000  24045484.82101
  20389742.97009  -2123014.41809  -1654296.09906         0.00000  20389746.37206
  20851230.29509   1068947.78309    832946.07004         0.00000  20851234.20104
  23418691.23206   5176702.94006   4033792.46502         0.00000  23418699.07402
 96  9  9 21 41 45.0000000  0  6 01 09 05 21 23 17
  21217631.62409  -2327480.02009  -1813620.25704         0.00000  21217634.40904
  22008531.24208   2612658.06908   2035837.29303         0.00000  22008533.94403
  24039655.62503   -292521.70203   -227937.93301         0.00000  24039661.63901
  20386048.23209  -2142432.33709  -1669426.95005         0.00000  20386051.62605
  20854210.69809   1084608.55509    845149.26504         0.00000  20854214.23204
  23429852.16105   5235360.02905   4079499.24702         0.00000  23429857.18502
 96  9  9 21 42  0.0000000  0  6 01 09 05 21 23 17
  21213498.41909  -2349204.32209  -1830548.29704         0.00000  21213501.33304
  22014964.25608   2646463.91208   2062179.47503         0.00000  22014966.44303
  24033847.95803   -323040.94403   -251719.31101         0.00000  24033853.85301
  20382370.63809  -2161756.89909  -1684485.04705         0.00000  20382373.76905
  20857208.04709   1100362.13509    857424.76605         0.00000  20857211.82505
  23441023.10905   5294062.99505   4125241.83701         0.00000  23441028.37501
 96  9  9 21 42 15.0000000  0  6 01 09 05 21 23 17
  21209379.80809  -2370844.66309  -1847410.89305         0.00000  21209382.14705
  22021421.01708   2680393.52208   2088618.13803         0.00000  22021424.23003
  24028053.62503   -353476.40403   -275435.03601         0.00000  24028057.00401
  20378711.53409  -2180984.76709  -1699467.77805         0.00000  20378714.35705
  20860224.43809   1116211.89309    869775.23405         0.00000  20860227.95605
  23452203.36905   5352817.04905   4171024.13302         0.00000  23452208.33302
 96  9  9 21 42 30.0000000  0  6 01 09 05 21 23 17
  21205272.48509  -2392430.53809  -1864231.05704         0.00000  21205275.44804
  22027895.01108   2714416.05508   2115129.18603         0.00000  22027898.17503
  24022273.01402   -383855.04702   -299106.88300         0.00000  24022277.64200
  20375065.84809  -2200143.74409  -1714396.86405         0.00000  20375068.79405
  20863253.46609   1132130.18509    882179.09105         0.00000  20863257.00405
  23463388.74705   5411592.14405   4216822.97501         0.00000  23463393.27101
 96  9  9 21 42 45.0000000  0  6 01 09 05 21 23 17
  21201176.97509  -2413951.62009  -1881000.73004         0.00000  21201179.17704
  22034388.97308   2748544.70208   2141722.91603         0.00000  22034392.02203
  24016503.31102   -414161.27202   -322721.55801         0.00000  24016524.63901
  20371436.07209  -2219217.62809  -1729259.62305         0.00000  20371438.98505
  20866299.32609   1148136.22309    894651.32704         0.00000  20866302.50004
  23474578.89105   5470398.16605   4262645.81801         0.00000  23474583.34301
 96  9  9 21 43  0.0000000  0  6 01 05 09 21 23 17
  21197095.62509  -2435399.63609  -1897713.45904         0.00000  21197097.87304
  24010754.77103   -444383.71303   -346271.87201         0.00000  24010772.56601
  22040905.01907   2782788.92107   2168406.71703         0.00000  22040908.88803
  20367824.25309  -2238196.94009  -1744048.70505         0.00000  20367827.44305
  20869364.18309   1164243.05409    907202.11505         0.00000  20869367.80705
  23485775.48205   5529243.90605   4308499.50102         0.00000  23485781.74402
 96  9  9 21 43 15.0000000  0  6 01 05 21 23 09 17
  21193029.51609  -2456762.91709  -1914360.17205         0.00000  21193032.58505
  24005021.86003   -474509.88803   -369746.83301         0.00000  24005021.75701
  20364232.48409  -2257072.52309  -1758756.94305         0.00000  20364235.52405
  20872451.37309   1180463.56709    919841.46404         0.00000  20872455.49704
  22047445.89007   2817160.62107   2195189.88603         0.00000  22047449.60003
  23496984.22705   5588138.69905   4354391.50401         0.00000  23496990.19901
 96  9  9 21 43 30.0000000  0  6 01 09 05 21 23 17
  21188977.46109  -2478056.43409  -1930952.51504         0.00000  21188980.92704
  22054006.61507   2851641.13607   2222057.80403         0.00000  22054010.34503
  23999308.04104   -504555.09504   -393158.52301         0.00000  23999316.27401
  20360656.44009  -2275865.14509  -1773400.56706         0.00000  20360659.32306
  20875555.11409   1196778.57009    932554.44305         0.00000  20875558.62705
  23508197.91705   5647064.74805   4400307.88702         0.00000  23508202.86202
 96  9  9 21 43 45.0000000  0  6 01 09 05 21 23 17
  21184938.18009  -2499281.16909  -1947491.26704         0.00000  21184941.74904
  22060590.51908   2886229.41008   2249009.71003         0.00000  22060594.96403
  23993605.65004   -534521.38004   -416508.85901         0.00000  23993609.06601
  20357095.99209  -2294576.11309  -1787980.52805         0.00000  20357099.07505
  20878677.43709   1213186.15909    945339.56605         0.00000  20878681.42405
  23519417.08605   5706022.68105   4446249.12601         0.00000  23519422.25201
 96  9  9 21 44  0.0000000  0  6 01 05 21 23 09 17
  21180913.33209  -2520434.92609  -1963974.70304         0.00000  21180917.07904
  23987917.29604   -564408.63604   -439797.60401         0.00000  23987922.38901
  20353551.84109  -2313205.98909  -1802497.31706         0.00000  20353554.94506
  20881817.16409   1229686.78009    958197.18804         0.00000  20881821.62704
  22067192.68808   2920924.97008   2276045.19803         0.00000  22067195.88403
  23530642.46305   5765012.63205   4492215.34902         0.00000  23530649.05102
 96  9  9 21 44 15.0000000  0  6 01 05 09 21 23 17
  21176901.18709  -2541518.91209  -1980403.75504         0.00000  21176905.41004
  23982245.20704   -594216.92404   -463024.94601         0.00000  23982249.88101
  22073815.76808   2955728.03508   2303164.49203         0.00000  22073818.77803
  20350022.08009  -2331753.68309  -1816950.06505         0.00000  20350025.30005
  20884974.13608   1246278.86908    971126.09104         0.00000  20884978.05804
  23541874.04305   5824033.87605   4538205.82001         0.00000  23541881.28001
 96  9  9 21 44 30.0000000  0  6 01 05 21 23 09 17
  21172903.08209  -2562529.88309  -1996775.93105         0.00000  21172906.64005
  23976589.18405   -623941.78405   -486187.25401         0.00000  23976591.09201
  20346508.32909  -2350213.58109  -1831334.38505         0.00000  20346511.41005
  20888149.44908   1262965.86808    984128.91304         0.00000  20888153.93604
  22080459.34608   2990641.13408   2330369.43903         0.00000  22080461.90903
  23553111.33805   5883089.64905   4584223.33901         0.00000  23553119.15501
 96  9  9 21 44 45.0000000  0  6 01 09 05 21 23 17
  21168918.56009  -2583472.56109  -2013094.91905         0.00000  21168922.12005
  22087122.56708   3025660.03008   2357656.95102         0.00000  22087124.97802
  23970947.37504   -653585.00704   -509285.68301         0.00000  23970953.81501
  20343012.66109  -2368585.74209  -1845650.34706         0.00000  20343015.70706
  20891343.01809   1279745.60409    997204.03604         0.00000  20891347.09204
  23564355.14304   5942175.86104   4630264.46001         0.00000  23564361.99001
 96  9  9 21 45  0.0000000  0  6 01 05 21 23 09 17
  21164946.27909  -2604340.67109  -2029355.77204         0.00000  21164949.69204
  23965321.01504   -683142.76904   -532317.57201         0.00000  23965322.70101
  20339533.24709  -2386865.99309  -1859894.71505         0.00000  20339536.83805
  20894554.66709   1296621.39809   1010354.00404         0.00000  20894559.05004
  22093808.54308   3060791.60508   2385032.17203         0.00000  22093811.63903
  23575605.40704   6001297.78704   4676333.44301         0.00000  23575614.81301
 96  9  9 21 45 15.0000000  0  6 01 09 05 21 23 17
  21160990.66509  -2625132.17609  -2045556.93805         0.00000  21160994.68105
  22100515.64608   3096035.65608   2412495.08303         0.00000  22100518.68703
  23959713.07604   -712617.89304   -555285.43201         0.00000  23959714.14901
  20336071.79309  -2405054.30309  -1874067.42305         0.00000  20336075.17405
  20897783.89809   1313590.24109   1023576.45404         0.00000  20897788.13004
  23586861.65404   6060456.93604   4722431.43601         0.00000  23586870.43801
 96  9  9 21 45 30.0000000  0  6 01 05 21 23 09 17
  21157048.72509  -2645848.13109  -2061699.22105         0.00000  21157052.64505
  23954118.75604   -742012.87204   -578190.66001         0.00000  23954118.39901
  20332628.22909  -2423153.03509  -1888170.31305         0.00000  20332632.38005
  20901029.38109   1330646.41109   1036866.98604         0.00000  20901033.74304
  22107243.45808   3131390.42008   2440044.23803         0.00000  22107246.48303
  23598127.82604   6119652.07104   4768557.46801         0.00000  23598138.46101
 96  9  9 21 45 45.0000000  0  6 01 09 05 21 23 17
  21153119.10909  -2666497.17809  -2077789.39204         0.00000  21153122.35204
  22113991.59309   3166848.80309   2467674.15103         0.00000  22113994.21503
  23948541.63605   -771334.88205   -601038.86601         0.00000  23948543.17301
  20329201.10609  -2441165.90509  -1902206.33405         0.00000  20329204.82805
  20904290.42609   1347781.16109   1050218.72005         0.00000  20904294.93405
  23609397.62404   6178876.82404   4814706.46201         0.00000  23609402.63201
 96  9  9 21 46  0.0000000  0  6 01 05 09 21 23 17
  21149203.28709  -2687073.71109  -2093823.04205         0.00000  21149206.29705
  23942974.45904   -800579.17204   -623826.54701         0.00000  23942974.47301
  22120759.46009   3202416.70409   2495389.36703         0.00000  22120762.30503
  20325790.92609  -2459083.05509  -1916167.72205         0.00000  20325794.21205
  20907567.22109   1365003.35509   1063638.60105         0.00000  20907571.30105
  23620674.95804   6238136.24404   4860882.81101         0.00000  23620682.55901
 96  9  9 21 46 15.0000000  0  6 01 09 05 21 23 17
  21145298.72909  -2707588.13109  -2109808.31403         0.00000  21145301.54503
  22127546.36009   3238082.32909   2523180.80703         0.00000  22127549.62803
  23937422.43704   -829753.94604   -646560.12701         0.00000  23937422.88701
  20322398.05909  -2476912.34309  -1930060.68005         0.00000  20322402.22605
  20910860.07009   1382302.65009   1077118.57404         0.00000  20910865.25104
  23631955.76904   6297418.21704   4907076.13901         0.00000  23631962.84601
 96  9  9 21 46 30.0000000  0  6 01 05 21 23 09 17
  21141406.91609  -2728038.27509  -2125743.48404         0.00000  21141409.82504
  23931882.78504   -858854.51604   -669235.80501         0.00000  23931892.23101
  20319022.70009  -2494647.92909  -1943880.63605         0.00000  20319027.47205
  20914166.97409   1399682.55209   1090661.34405         0.00000  20914170.68105
  22134352.21509   3273848.04009   2551050.16603         0.00000  22134354.76203
  23643242.21105   6356725.32905   4953289.73601         0.00000  23643245.13601
 96  9  9 21 46 45.0000000  0  6 01 09 05 21 23 17
  21137529.98309  -2748412.95109  -2141619.81503         0.00000  21137533.00803
  22141178.03908   3309723.14408   2579004.79603         0.00000  22141182.01703
  23926362.82804   -887871.03204   -691846.06201         0.00000  23926363.20601
  20315668.01709  -2512278.92309  -1957619.05705         0.00000  20315672.00205
  20917491.50109   1417155.03709   1104276.28004         0.00000  20917495.06804
  23654535.85605   6416069.68305   4999531.98201         0.00000  23654539.00301
 96  9  9 21 47  0.0000000  0  6 01 09 05 21 23 17
  21133665.96209  -2768715.87209  -2157440.28004         0.00000  21133669.27704
  22148025.01108   3345704.82208   2607042.42703         0.00000  22148028.13803
  23920857.10704   -916808.12104   -714394.49801         0.00000  23920862.40101
  20312332.52509  -2529810.23909  -1971279.83205         0.00000  20312335.75605
  20920832.54409   1434715.35509   1117959.64704         0.00000  20920836.34804
  23665833.81205   6475447.61205   5045800.43801         0.00000  23665836.06201
 96  9  9 21 47 15.0000000  0  6 01 09 05 21 23 17
  21129816.44609  -2788948.65709  -2173206.05504         0.00000  21129819.53004
  22154890.77208   3381787.26908   2635158.63403         0.00000  22154895.01903
  23915362.43303   -945670.56703   -736884.65601         0.00000  23915372.12501
  20309013.63909  -2547247.49309  -1984867.28705         0.00000  20309016.78005
  20924189.63608   1452356.83408   1131706.24804         0.00000  20924193.49604
  23677137.88405   6534855.69805   5092092.48501         0.00000  23677144.30901
 96  9  9 21 47 30.0000000  0  6 01 05 09 21 23 17
  21125980.90309  -2809107.40109  -2188914.18904         0.00000  21125984.00904
  23909886.87303   -974452.37803   -759312.24601         0.00000  23909888.21301
  22161775.98007   3417973.87507   2663355.99203         0.00000  22161780.73503
  20305715.11109  -2564585.26009  -1998377.24904         0.00000  20305718.27004
  20927562.56008   1470080.71908   1145517.06304         0.00000  20927566.35304
  23688450.94105   6594295.73805   5138409.41301         0.00000  23688452.62701
 96  9  9 21 47 45.0000000  0  6 01 05 09 21 23 17
  21122158.11209  -2829195.45009  -2204567.18505         0.00000  21122162.17805
  23904423.21503  -1003155.97103   -781678.61401         0.00000  23904436.73301
  22168681.21307   3454260.77507   2691631.48303         0.00000  22168686.07003
  20302433.62709  -2581827.48109  -2011812.72705         0.00000  20302436.32405
  20930950.96909   1487883.08909   1159389.02304         0.00000  20930955.46504
  23699766.53005   6653761.45005   5184746.11701         0.00000  23699770.00201
 96  9  9 21 48  0.0000000  0  6 01 05 21 23 09 17
  21118349.51409  -2849209.19509  -2220162.31805         0.00000  21118353.54305
  23898979.62103  -1031774.86003   -803978.94301         0.00000  23898992.91501
  20299171.91909  -2598968.78409  -2025169.60005         0.00000  20299174.97705
  20934354.66009   1505772.55809   1173328.87204         0.00000  20934358.40904
  22175607.46807   3490653.40207   2719989.36503         0.00000  22175611.93703
  23711087.97005   6713255.73905   5231105.34101         0.00000  23711090.72101
 96  9  9 21 48 15.0000000  0  6 01 09 05 21 23 17
  21114553.66709  -2869158.07909  -2235706.87405         0.00000  21114557.84705
  22182551.06308   3527139.96408   2748420.43803         0.00000  22182554.39303
  23893550.59704  -1060316.46804   -826219.11801         0.00000  23893556.59501
  20295927.18409  -2616021.13009  -2038457.12105         0.00000  20295930.05405
  20937773.90008   1523742.90608   1187331.74004         0.00000  20937778.60404
  23722412.55705   6772767.07605   5277477.78702         0.00000  23722416.18102
 96  9  9 21 48 30.0000000  0  6 01 09 05 21 23 17
  21110768.32209  -2889053.19809  -2251209.54905         0.00000  21110772.09105
  22189510.59208   3563709.51908   2776916.20103         0.00000  22189514.44703
  23888130.45804  -1088789.56004   -848405.82001         0.00000  23888134.85201
  20292696.92209  -2632995.56209  -2051683.95005         0.00000  20292699.66305
  20941207.64209   1541783.17509   1201389.07804         0.00000  20941212.08904
  23733737.75305   6832286.64805   5323856.55901         0.00000  23733742.54401
 96  9  9 21 48 45.0000000  0  6 01 09 05 21 23 17
  21106995.58309  -2908882.14609  -2266660.68504         0.00000  21106998.81804
  22196486.67908   3600372.40808   2805484.63202         0.00000  22196489.79002
  23882727.74905  -1117184.01005   -870531.43101         0.00000  23882729.46501
  20289483.39009  -2649882.90909  -2064842.90405         0.00000  20289486.17305
  20944656.78809   1559905.46909   1215510.34204         0.00000  20944661.06804
  23745068.63105   6891827.65505   5370252.24301         0.00000  23745073.68301
 96  9  9 21 49  0.0000000  0  6 01 05 21 23 09 17
  21103234.35409  -2928644.78809  -2282060.12705         0.00000  21103237.57105
  23877336.56704  -1145500.57004   -892596.36101         0.00000  23877339.33101
  20286285.97809  -2666686.21509  -2077936.37905         0.00000  20286288.97905
  20948119.81809   1578106.57309   1229693.00405         0.00000  20948124.08005
  22203480.89908   3637126.30908   2834124.05203         0.00000  22203484.73703
  23756403.27005   6951387.13905   5416662.20701         0.00000  23756405.35401
 96  9  9 21 49 15.0000000  0  6 01 09 05 21 23 17
  21099485.90109  -2948340.93709  -2297407.77504         0.00000  21099489.02304
  22210492.52208   3673970.66908   2862833.91203         0.00000  22210495.22403
  23871963.28003  -1173737.20703   -914598.73001         0.00000  23871968.04801
  20283103.50909  -2683405.45309  -2090964.35105         0.00000  20283106.77905
  20951598.97109   1596387.03509   1243937.50804         0.00000  20951602.41804
  23767740.09705   7010964.58205   5463086.07301         0.00000  23767748.22501
 96  9  9 21 49 30.0000000  0  6 01 09 05 21 23 17
  21095751.86709  -2967962.59509  -2312697.34805         0.00000  21095755.06305
  22217522.04408   3710915.45008   2891622.07803         0.00000  22217525.70003
  23866608.80604  -1201883.60004   -936531.00001         0.00000  23866616.03901
  20279940.22109  -2700029.46209  -2103918.11905         0.00000  20279943.93505
  20955094.59509   1614760.03809   1258254.13204         0.00000  20955098.75304
  23779082.13505   7070569.61505   5509531.55201         0.00000  23779085.93701
 96  9  9 21 49 45.0000000  0  6 01 05 21 23 09 17
  21092029.75509  -2987520.28509  -2327937.10504         0.00000  21092032.77604
  23861269.52304  -1229948.49704   -958399.75601         0.00000  23861276.17501
  20276793.38109  -2716568.88109  -2116805.99605         0.00000  20276796.16305
  20958608.66609   1633220.92309   1272639.25004         0.00000  20958612.27204
  22224570.58608   3747953.04208   2920482.51203         0.00000  22224574.12603
  23790427.12204   7130193.19904   5555991.44001         0.00000  23790430.14801
 96  9  9 21 50  0.0000000  0  6 01 05 21 23 09 17
  21088320.84409  -3007013.41009  -2343126.54504         0.00000  21088324.06904
  23855941.06903  -1257930.56503   -980203.92601         0.00000  23855940.94101
  20273662.39409  -2733022.49009  -2129626.99105         0.00000  20273665.60605
  20962138.87209   1651777.06109   1287098.55804         0.00000  20962143.03204
  22231637.01508   3785085.97508   2949417.26303         0.00000  22231640.26903
  23801778.33405   7189840.26305   5602469.64001         0.00000  23801783.14801
 96  9  9 21 50 15.0000000  0  6 01 09 05 21 23 17
  21084624.26409  -3026434.13109  -2358259.57004         0.00000  21084627.59104
  22238722.81108   3822322.03808   2978432.34203         0.00000  22238727.87903
  23850635.37804  -1285822.83404  -1001938.06501         0.00000  23850637.22501
  20270549.03109  -2749382.73409  -2142375.23005         0.00000  20270551.96005
  20965690.96509   1670438.44609   1301639.91104         0.00000  20965694.13604
  23813136.22505   7249519.74205   5648973.03001         0.00000  23813140.39601
 96  9  9 21 50 30.0000000  0  6 01 09 05 21 23 17
  21080943.19409  -3045780.44909  -2373334.61304         0.00000  21080947.12604
  22245829.49608   3859664.00508   3007529.97503         0.00000  22245832.48303
  23845346.59804  -1313625.35504  -1023602.39701         0.00000  23845348.14001
  20267454.10609  -2765648.37609  -2155049.73905         0.00000  20267457.11005
  20969261.44209   1689204.07509   1316262.44504         0.00000  20969264.54904
  23824500.35205   7309235.22805   5695504.49601         0.00000  23824503.65701
 96  9  9 21 50 45.0000000  0  6 01 09 05 21 23 17
  21077276.62309  -3065055.98009  -2388354.51205         0.00000  21077279.69105
  22252955.32708   3897109.71608   3036708.46603         0.00000  22252957.88103
  23840072.36004  -1341342.12304  -1045199.80401         0.00000  23840069.66301
  20264375.80909  -2781822.64309  -2167653.06105         0.00000  20264379.16005
  20972850.96709   1708067.03609   1330960.82504         0.00000  20972854.15504
  23835869.84006   7368982.78606   5742061.01501         0.00000  23835877.71101
 96  9  9 21 51  0.0000000  0  6 01 09 21 05 23 17
  21073622.45409  -3084255.18309  -2403314.91705         0.00000  21073625.26505
  22260101.36108   3934666.46708   3065973.44703         0.00000  22260104.10603
  20261316.14609  -2797901.05809  -2180181.70306         0.00000  20261319.24806
  23834811.60803  -1368968.90303  -1066727.22201         0.00000  23834809.03301
  20976460.12509   1727032.31709   1345738.99104         0.00000  20976463.54604
  23847244.94406   7428764.36306   5788644.00802         0.00000  23847251.46702
 96  9  9 21 51 15.0000000  0  6 01 09 05 21 23 17
  21069984.59909  -3103373.96709  -2418212.67405         0.00000  21069987.47705
  22267271.50208   3972344.40808   3095332.87903         0.00000  22267275.12603
  23829573.51404  -1396497.20804  -1088177.74501         0.00000  23829579.12201
  20258277.11209  -2813872.79509  -2192627.20304         0.00000  20258280.33304
  20980089.60409   1746108.56309   1360603.57404         0.00000  20980093.36904
  23858628.34606   7488583.34706   5835256.20301         0.00000  23858635.94901
 96  9  9 21 51 30.0000000  0  6 01 05 21 23 09 17
  21066357.87209  -3122425.99009  -2433058.38905         0.00000  21066361.35805
  23824354.62004  -1423940.39504  -1109562.11701         0.00000  23824359.53201
  20255255.67809  -2829748.41109  -2204997.79305         0.00000  20255258.76505
  20983738.43008   1765286.81608   1375547.67604         0.00000  20983742.66004
  22274462.43708   4010134.18708   3124779.44503         0.00000  22274465.79203
  23870016.40606   7548427.84206   5881888.27201         0.00000  23870022.77001
 96  9  9 21 51 45.0000000  0  6 01 23 05 21 09 17
  21062746.34909  -3141406.83209  -2447848.65305         0.00000  21062750.81905
  20987407.49308   1784568.75908   1390572.54804         0.00000  20987411.82204
  23819143.48403  -1451295.87903  -1130878.09601         0.00000  23819144.76401
  20252253.91309  -2845525.38209  -2217291.54905         0.00000  20252256.42605
  22281675.28508   4048038.12308   3154314.93503         0.00000  22281679.00803
  23881408.46505   7608297.31305   5928539.71401         0.00000  23881418.96101
 96  9  9 21 52  0.0000000  0  6 01 05 21 23 09 17
  21059146.65709  -3160318.99409  -2462585.39305         0.00000  21059151.13005
  23813958.04903  -1478567.17303  -1152128.18801         0.00000  23813962.63101
  20249270.01509  -2861205.59509  -2229509.89205         0.00000  20249272.92605
  20991095.93809   1803948.00309   1405673.26404         0.00000  20991100.40104
  22288908.70708   4086049.96308   3183934.55603         0.00000  22288912.54603
  23892805.63705   7668188.26305   5975208.02801         0.00000  23892814.67701
 96  9  9 21 52 15.0000000  0  6 01 23 05 21 09 17
  21055559.58609  -3179165.56209  -2477271.00504         0.00000  21055564.11104
  20994801.32509   1823418.64709   1420845.18105         0.00000  20994805.09405
  23808782.94803  -1505757.42603  -1173315.45601         0.00000  23808785.21301
  20246304.69409  -2876789.98409  -2241653.57505         0.00000  20246307.36105
  22296161.33408   4124164.77308   3213634.41203         0.00000  22296165.30403
  23904205.46905   7728095.01105   6021888.44801         0.00000  23904211.85901
 96  9  9 21 52 30.0000000  0  5 01 05 21 23 09
  21051988.81709  -3197934.16609  -2491895.90204         0.00000  21051992.73704
  23803628.05203  -1532851.84103  -1194427.98801         0.00000  23803633.19801
  20243359.61709  -2892266.37409  -2253713.09605         0.00000  20243362.27405
  20998525.16109   1842988.86009   1436094.66904         0.00000  20998528.53104
  22303434.90008   4162391.70808   3243421.62203         0.00000  22303439.52103
 96  9  9 21 52 45.0000000  0  5 01 23 05 21 09
  21048427.81209  -3216652.03909  -2506481.23504         0.00000  21048431.55604
  21002262.35909   1862628.91909   1451398.58404         0.00000  21002266.27104
  23798484.46303  -1559876.06203  -1215485.82101         0.00000  23798487.82301
  20240429.46209  -2907661.77609  -2265709.51905         0.00000  20240432.70105
  22310724.70008   4200700.37608   3273272.52303         0.00000  22310729.10603
 96  9  9 21 53  0.0000000  0  5 01 23 05 21 09
  21044877.36909  -3235311.33609  -2521020.93105         0.00000  21044880.46605
  21006014.65709   1882346.43009   1466762.88004         0.00000  21006018.45404
  23793357.02703  -1586822.71503  -1236483.20301         0.00000  23793362.33701
  20237516.72809  -2922968.20309  -2277636.60805         0.00000  20237520.17305
  22318031.34508   4239096.43908   3303191.53103         0.00000  22318034.98703
 96  9  9 21 53 15.0000000  0  6 01 23 05 21 09 25
  21041337.55909  -3253910.34309  -2535513.66105         0.00000  21041340.55405
  21009782.59709   1902143.35509   1482189.05004         0.00000  21009786.14604
  23788242.81303  -1613690.38103  -1257419.07601         0.00000  23788255.37901
  20234621.77309  -2938183.89709  -2289492.99805         0.00000  20234624.89005
  22325354.67408   4277581.04808   3333179.51303         0.00000  22325357.95703
  24497955.32102    -43116.21002    -33596.09300         0.00000  24497953.03500
 96  9  9 21 53 30.0000000  0  5 01 05 21 23 09
  21037817.22509  -3272410.15409  -2549929.09104         0.00000  21037820.03604
  23783151.29402  -1640439.09002  -1278262.29001         0.00000  23783154.01701
  20231750.56309  -2953271.75009  -2301249.75905         0.00000  20231752.75905
  21013572.09309   1922057.53509   1497706.59504         0.00000  21013575.89904
  22332702.23808   4316189.52108   3363264.01903         0.00000  22332705.89103
 96  9  9 21 53 45.0000000  0  6 01 05 21 23 09 25
  21034312.65509  -3290827.76509  -2564280.49304         0.00000  21034315.12404
  23778082.61403  -1667088.82103  -1299028.23001         0.00000  23778087.05201
  20228899.64709  -2968254.38309  -2312924.52005         0.00000  20228901.72305
  21017378.49009   1942064.63909   1513296.53604         0.00000  21017382.41404
  22340068.06408   4354899.99608   3393428.03303         0.00000  22340070.72403
  24477449.38202     -7176.60002     -5592.30300         0.00000  24477439.11700
 96  9  9 21 54  0.0000000  0  5 01 23 05 21 09
  21030823.70209  -3309165.88309  -2578569.95004         0.00000  21030825.90004
  21021202.37709   1962157.59609   1528953.36404         0.00000  21021205.99904
  23773030.10203  -1693643.81103  -1319720.33501         0.00000  23773034.25101
  20226068.00609  -2983135.94909  -2324520.55805         0.00000  20226070.36005
  22347453.96708   4393704.75508   3423665.50503         0.00000  22347457.01203
 96  9  9 21 54 15.0000000  0  5 01 23 05 21 09
  21027348.56009  -3327425.65509  -2592798.34805         0.00000  21027350.78205
  21025041.92809   1982336.25709   1544676.99704         0.00000  21025046.35304
  23767992.12103  -1720104.91903  -1340339.36901         0.00000  23767999.84501
  20223255.44709  -2997915.93309  -2336037.41705         0.00000  20223257.92405
  22354856.90808   4432604.55208   3453977.03603         0.00000  22354860.46803
 96  9  9 21 54 30.0000000  0  5 01 05 21 23 09
  21023882.84509  -3345634.26309  -2606986.86905         0.00000  21023884.97905
  23762969.42002  -1746495.60102  -1360903.57200         0.00000  23762971.46500
  20220456.48509  -3012622.18209  -2347496.83306         0.00000  20220459.08406
  21028894.09609   2002575.02509   1560447.44204         0.00000  21028897.76504
  22362272.32008   4471573.74708   3484342.59703         0.00000  22362275.78603
 96  9  9 21 54 45.0000000  0  5 01 05 21 23 09
  21020434.65709  -3363759.58909  -2621110.49205         0.00000  21020437.11005
  23757972.89103  -1772783.20003  -1381387.42901         0.00000  23757972.02601
  20217677.27709  -3027223.47509  -2358874.46305         0.00000  20217680.53205
  21032763.71809   2022907.69309   1576291.09705         0.00000  21032767.09805
  22369706.36508   4510644.73008   3514787.51503         0.00000  22369709.37603
 96  9  9 21 55  0.0000000  0  5 01 23 05 21 09
  21017000.39409  -3381807.08709  -2635173.46505         0.00000  21017003.56405
  21036649.61309   2043329.23309   1592203.98004         0.00000  21036652.85304
  23752988.52303  -1798974.84503  -1401796.45001         0.00000  23752989.61001
  20214918.34609  -3041721.79209  -2370171.83805         0.00000  20214921.53105
  22377161.29908   4549814.26008   3545309.20603         0.00000  22377163.64803
 96  9  9 21 55 15.0000000  0  5 01 23 05 21 09
  21013578.92209  -3399782.83509  -2649180.54405         0.00000  21013582.03505
  21040551.61109   2063837.24309   1608184.25005         0.00000  21040555.54405
  23748018.90903  -1825076.45203  -1422135.31101         0.00000  23748024.06201
  20212177.64109  -3056122.47209  -2381393.14205         0.00000  20212181.70905
  22384633.46509   4589078.77709   3575904.93103         0.00000  22384634.42503
 96  9  9 21 55 30.0000000  0  5 01 05 21 23 09
  21010170.22209  -3417693.92109  -2663137.19805         0.00000  21010173.34405
  23743068.59803  -1851094.61303  -1442409.05501         0.00000  23743074.30301
  20209454.69309  -3070431.55909  -2392543.08804         0.00000  20209458.69704
  21044469.76809   2084426.74709   1624228.01804         0.00000  21044473.62804
  22392121.72608   4628430.26508   3606568.41403         0.00000  22392123.22003
 96  9  9 21 55 45.0000000  0  5 01 05 21 23 09
  21006775.16709  -3435538.37509  -2677041.96305         0.00000  21006778.55705
  23738130.84303  -1877029.64803  -1462618.31501         0.00000  23738134.08201
  20206750.28409  -3084645.25809  -2403618.70505         0.00000  20206753.89905
  21048402.96609   2105101.08909   1640337.89004         0.00000  21048407.07104
  22399626.71008   4667869.21708   3637300.08302         0.00000  22399628.45602
 96  9  9 21 56  0.0000000  0  5 01 23 05 21 09
  21003391.84709  -3453316.51509  -2690895.08305         0.00000  21003395.23605
  21052354.39609   2125863.72309   1656516.57304         0.00000  21052358.31604
  23733214.12503  -1902881.51403  -1482762.65801         0.00000  23733216.64701
  20204064.32609  -3098760.29109  -2414617.42405         0.00000  20204067.54605
  22407147.72208   4707395.31408   3668099.59102         0.00000  22407149.02302
 96  9  9 21 56 15.0000000  0  5 01 23 05 21 09
  21000019.63009  -3471038.25809  -2704704.21004         0.00000  21000022.78904
  21056321.91509   2146713.84809   1672763.41704         0.00000  21056326.48804
  23728307.30803  -1928656.54003  -1502847.08301         0.00000  23728315.53101
  20201395.59209  -3112783.22209  -2425544.39305         0.00000  20201398.73405
  22414684.00207   4747000.64607   3698960.91503         0.00000  22414685.86503
 96  9  9 21 56 30.0000000  0  5 01 05 21 23 09
  20996656.32009  -3488706.95909  -2718472.01805         0.00000  20996659.95505
  23723413.57102  -1954351.74802  -1522869.28501         0.00000  23723419.29301
  20198744.66309  -3126716.93209  -2436401.81205         0.00000  20198748.06005
  21060306.81109   2167652.20809   1689078.98904         0.00000  21060310.95204
  22422236.02307   4786687.27407   3729885.52802         0.00000  22422238.08202
 96  9  9 21 56 45.0000000  0  5 01 05 21 23 09
  20993307.75009  -3506302.97009  -2732183.18205         0.00000  20993310.85305
  23718545.41303  -1979947.82703  -1542814.16301         0.00000  23718549.86501
  20196114.37009  -3140542.18409  -2447174.72805         0.00000  20196117.58805
  21064311.73409   2188697.26709   1705477.76704         0.00000  21064315.74604
  22429805.85107   4826474.29207   3760888.39702         0.00000  22429810.20902
 96  9  9 21 57  0.0000000  0  5 01 23 05 21 09
  20989973.79309  -3523829.17909  -2745839.97205         0.00000  20989977.50305
  21068335.99909   2209844.03609   1721955.74004         0.00000  21068339.38704
  23713692.64203  -2005449.72203  -1562685.86901         0.00000  23713697.72201
  20193503.74709  -3154261.05109  -2457864.75605         0.00000  20193506.79905
  22437395.90307   4866358.50807   3791966.97502         0.00000  22437399.85402
 96  9  9 21 57 15.0000000  0  5 01 23 05 21 09
  20986650.77809  -3541289.11409  -2759445.11605         0.00000  20986654.21805
  21072379.10509   2231091.80209   1738512.42404         0.00000  21072383.04504
  23708857.16202  -2030857.12102  -1582483.72201         0.00000  23708869.48801
  20190912.79509  -3167873.91709  -2468472.17806         0.00000  20190916.10806
  22445004.40307   4906338.64607   3823120.33102         0.00000  22445007.91302
 96  9  9 21 57 30.0000000  0  5 23 05 01 21 09
  21076443.11909   2252448.81709   1755154.23104         0.00000  21076446.84504
  23704040.80802  -2056161.19802  -1602201.09101         0.00000  23704048.36101
  20983342.44109  -3558674.85109  -2772992.43105         0.00000  20983346.60205
  20188343.92409  -3181373.44609  -2478991.29706         0.00000  20188348.07206
  22452631.91907   4946422.28907   3854354.30103         0.00000  22452636.13803
 96  9  9 21 57 45.0000000  0  6 23 25 01 21 05 09
  21080526.74809   2273909.49209   1771876.83804         0.00000  21080529.88004
  24314035.80402    -17819.49202    -13884.80601         0.00000  24314028.73701
  20980047.22309  -3575990.96609  -2786485.51104         0.00000  20980050.37204
  20185795.29609  -3194765.52909  -2489426.68106         0.00000  20185798.74306
  23699248.62603  -2081363.49803  -1621839.43401         0.00000  23699263.84701
  22460278.75407   4986605.00807   3885665.51202         0.00000  22460282.00502
 96  9  9 21 58  0.0000000  0  5 23 09 05 01 21
  21084631.01309   2295477.62309   1788683.17604         0.00000  21084635.01804
  22467945.20407   5026891.84807   3917057.81803         0.00000  22467949.06203
  23694474.64303  -2106455.87703  -1641391.90001         0.00000  23694483.33401
  20976766.01609  -3593235.08309  -2799922.49304         0.00000  20976769.08704
  20183268.39109  -3208045.19009  -2499774.47106         0.00000  20183271.60806
 96  9  9 21 58 15.0000000  0  6 23 09 25 01 21 05
  21088756.53009   2317154.92309   1805574.56204         0.00000  21088760.00804
  22475631.50307   5067284.82207   3948532.85202         0.00000  22475635.38902
  24293705.48902     -7116.74202     -5543.33300         0.00000  24293690.36500
  20973499.23109  -3610404.37709  -2813301.14304         0.00000  20973501.58304
  20180763.21309  -3221210.51809  -2510033.15905         0.00000  20180766.52905
  23689719.76403  -2131433.22003  -1660854.68101         0.00000  23689723.86201
 96  9  9 21 58 30.0000000  0  6 23 25 01 21 05 09
  21092899.58009   2338926.89409   1822539.75603         0.00000  21092902.77003
  24283552.57502    -60476.68402    -47123.31301         0.00000  24283548.56601
  20970244.45309  -3627508.26609  -2826628.85105         0.00000  20970246.16805
  20178277.80809  -3234273.48309  -2520212.10405         0.00000  20178280.95405
  23684987.69303  -2156304.32203  -1680234.58801         0.00000  23684993.31001
  22483335.02107   5107773.76807   3980082.69902         0.00000  22483338.02402
 96  9  9 21 58 45.0000000  0  6 23 09 25 01 21 05
  21097060.08809   2360794.45109   1839579.39604         0.00000  21097063.61404
  22491059.50507   5148365.05407   4011712.21702         0.00000  22491063.94102
  24273405.56002   -113805.72402    -88678.38100         0.00000  24273392.00500
  20967004.06809  -3644537.52709  -2839898.39205         0.00000  20967007.26105
  20175811.74009  -3247225.80809  -2530304.82805         0.00000  20175815.64505
  23680277.23104  -2181063.61404  -1699527.63101         0.00000  23680281.90701
 96  9  9 21 59  0.0000000  0  6 23 25 21 01 05 09
  21101241.42709   2382765.34009   1856699.52803         0.00000  21101245.10303
  24263261.86002   -167097.81802   -130205.32201         0.00000  24263271.63101
  20173370.43009  -3260056.82109  -2540303.02605         0.00000  20173374.63605
  20963779.27209  -3661483.26809  -2853102.86105         0.00000  20963782.46805
  23675588.32803  -2205704.52903  -1718728.30901         0.00000  23675589.18901
  22498804.95207   5189063.89407   4043425.53502         0.00000  22498808.83002
 96  9  9 21 59 15.0000000  0  6 23 09 25 01 21 05
  21105443.98609   2404849.37709   1873907.89804         0.00000  21105447.86404
  22506570.43607   5229875.53907   4075226.84602         0.00000  22506573.48802
  24253130.63802   -220348.17502   -171699.66400         0.00000  24253119.01700
  20960571.30109  -3678339.81009  -2866237.82505         0.00000  20960574.91605
  20170953.62509  -3272757.04309  -2550199.30305         0.00000  20170957.57605
  23670923.20103  -2230218.13503  -1737829.95401         0.00000  23670929.49401
 96  9  9 21 59 30.0000000  0  6 23 05 25 01 21 09
  21109667.72909   2427046.95609   1891204.70004         0.00000  21109672.24404
  23666282.29103  -2254608.05603  -1756834.92901         0.00000  23666285.85601
  24243004.44302   -273558.10102   -213161.24800         0.00000  24242992.34200
  20957381.11209  -3695104.72309  -2879301.38905         0.00000  20957385.84105
  20168561.18309  -3285328.87809  -2559995.54605         0.00000  20168565.31805
  22514358.88408   5270797.46608   4107114.06602         0.00000  22514361.77202
 96  9  9 21 59 45.0000000  0  6 23 25 21 01 05 09
  21113904.69709   2449311.60509   1908553.78604         0.00000  21113908.81704
  24232878.32202   -326772.14002   -254626.30001         0.00000  24232873.78401
  20166184.63609  -3297818.54109  -2569727.76205         0.00000  20166188.26905
  20954200.73609  -3711819.77209  -2892326.10605         0.00000  20954205.08305
  23661655.21403  -2278918.30003  -1775778.03201         0.00000  23661662.06601
  22522159.71408   5311784.99708   4139052.41402         0.00000  22522160.50002
 96  9  9 22  0  0.0000000  0  6 23 25 21 01 05 09
  21118157.71709   2471660.65909   1925968.61204         0.00000  21118161.57004
  24222753.33402    -31921.70702    -24873.98901         0.00000  24222748.57801
  20163827.04409  -3310209.62009  -2579383.13905         0.00000  20163830.87805
  20951033.05909  -3728466.27809  -2905297.38905         0.00000  20951036.81705
  23657047.97603  -2303129.77703  -1794643.95401         0.00000  23657050.47201
  22529974.57408   5352854.75508   4171054.78202         0.00000  22529977.35802
 96  9  9 22  0 15.0000000  0  6 23 09 25 01 21 05
  21122426.13109   2494091.92809   1943447.52804         0.00000  21122429.67504
  22537806.00308   5394006.14708   4203120.81703         0.00000  22537808.21903
  24212635.14902    -85112.73202    -66321.70101         0.00000  24212664.71601
  20947878.41309  -3745043.55109  -2918214.75106         0.00000  20947881.64306
  20161487.48609  -3322502.38009  -2588961.92105         0.00000  20161491.49805
  23652459.19803  -2327247.39003  -1813436.94801         0.00000  23652466.43001
 96  9  9 22  0 30.0000000  0  6 23 05 25 01 21 09
  21126713.06108   2516621.98808   1961003.41603         0.00000  21126717.75203
  23647890.69303  -2351252.91203  -1832142.62801         0.00000  23647892.82601
  24202517.61202     -7086.50902     -5522.33200         0.00000  24202500.41400
  20944740.52909  -3761528.73709  -2931060.34705         0.00000  20944743.71605
  20159170.43109  -3334680.52309  -2598451.37306         0.00000  20159174.46806
  22545655.95008   5435261.24608   4235267.65902         0.00000  22545657.44702
 96  9  9 22  0 45.0000000  0  6 23 25 05 01 21 09
  21131015.01808   2539228.63708   1978618.98604         0.00000  21131019.17504
  24192405.88502    -60228.52402    -46931.27101         0.00000  24192398.24401
  23643340.84304  -2375166.36104  -1850776.41601         0.00000  23643347.27501
  20941617.68109  -3777943.09009  -2943850.76105         0.00000  20941620.84905
  20156870.53009  -3346764.09409  -2607867.14205         0.00000  20156874.47705
  22553522.70507   5476602.47607   4267481.60402         0.00000  22553526.57102
 96  9  9 22  1  0.0000000  0  6 23 25 21 01 05 09
  21135332.38209   2561913.85209   1996295.76004         0.00000  21135335.80104
  24182297.81402   -113350.68702    -88325.60201         0.00000  24182304.37101
  20154590.13109  -3358751.10009  -2617207.65505         0.00000  20154593.61705
  20938506.97609  -3794288.96809  -2956587.80605         0.00000  20938510.03405
  23638805.20303  -2398990.70503  -1869340.83801         0.00000  23638808.82501
  22561405.33807   5518028.31507   4299761.44902         0.00000  22561408.77902
 96  9  9 22  1 15.0000000  0  6 23 25 05 01 21 09
  21139666.04109   2584685.91909   2014040.19904         0.00000  21139669.87104
  24172195.01202   -166445.01802   -129697.29301         0.00000  24172204.52101
  23634288.04503  -2422720.18003  -1887831.36701         0.00000  23634292.27601
  20935410.27209  -3810562.69109  -2969268.62405         0.00000  20935413.06105
  20152327.77409  -3370637.76609  -2626470.00006         0.00000  20152331.06506
  22569304.13407   5559542.67307   4332110.32202         0.00000  22569308.22702
 96  9  9 22  1 30.0000000  0  5 23 09 05 01 21
  21144012.58209   2607526.37509   2031837.96204         0.00000  21144015.77704
  22577218.47506   5601130.25806   4364516.22302         0.00000  22577221.56502
  23629787.54103  -2446372.90003  -1906261.94201         0.00000  23629791.82101
  20932324.34209  -3826778.36509  -2981904.21105         0.00000  20932326.73905
  20150081.16509  -3382442.87809  -2635668.79005         0.00000  20150085.23605
 96  9  9 22  1 45.0000000  0  5 23 09 05 21 01
  21148373.96509   2630445.30909   2049696.85903         0.00000  21148377.17503
  22585148.90106   5642803.65506   4396988.99002         0.00000  22585153.28902
  23625306.44304  -2469935.46804  -1924622.50001         0.00000  23625313.13401
  20147852.88509  -3394156.36909  -2644796.18305         0.00000  20147856.65505
  20929251.06609  -3842924.25909  -2994485.44905         0.00000  20929253.70205
 96  9  9 22  2  0.0000000  0  5 23 05 01 21 09
  21152748.52909   2653434.54409   2067610.57004         0.00000  21152752.56504
  23620837.47103  -2493414.04603  -1942917.49901         0.00000  23620840.21901
  20926190.48409  -3859010.36009  -3007020.03705         0.00000  20926193.66205
  20145639.41209  -3405786.40209  -2653858.54606         0.00000  20145642.64906
  22593092.29205   5684554.77805   4429522.33002         0.00000  22593095.23002
 96  9  9 22  2 15.0000000  0  5 23 05 21 01 09
  21157134.20609   2676484.32209   2085571.43404         0.00000  21157138.34404
  23616383.86004  -2516819.94104  -1961155.78601         0.00000  23616386.95401
  20143440.64309  -3417340.53909  -2662861.77305         0.00000  20143444.00605
  20923138.63909  -3875047.81309  -3019516.76405         0.00000  20923141.90505
  22601050.74606   5726371.29106   4462106.52602         0.00000  22601053.71802
 96  9  9 22  2 30.0000000  0  5 23 09 05 01 21
  21161532.28909   2699593.71009   2103578.73104         0.00000  21161535.64804
  22609020.79006   5768249.87506   4494739.23601         0.00000  22609023.79001
  23611944.20704  -2540155.44804  -1979339.28301         0.00000  23611946.29001
  20920095.02409  -3891039.76909  -3031978.01405         0.00000  20920098.42605
  20141256.19309  -3428818.48209  -2671805.63105         0.00000  20141259.68405
 96  9  9 22  2 45.0000000  0  5 23 09 05 21 01
  21165944.54309   2722780.30009   2121646.20004         0.00000  21165947.73704
  22617004.20506   5810202.11306   4527429.24702         0.00000  22617005.58302
  23607520.56204  -2563402.77904  -1997454.14702         0.00000  23607523.27702
  20139090.06209  -3440200.99909  -2680675.11305         0.00000  20139094.15005
  20917063.67609  -3906972.63609  -3044393.23405         0.00000  20917067.24705
 96  9  9 22  3  0.0000000  0  5 23 05 01 21 09
  21170373.84109   2746052.24509   2139780.18504         0.00000  21170377.71404
  23603111.69003  -2586559.86503  -2015498.61701         0.00000  23603115.87701
  20914042.86109  -3922843.47809  -3056760.11205         0.00000  20914046.94105
  20136943.36609  -3451481.51909  -2689465.15005         0.00000  20136947.69905
  22625001.77706   5852227.48306   4560176.24202         0.00000  22625003.99602
 96  9  9 22  3 15.0000000  0  5 23 05 21 01 09
  21174819.74409   2769416.78209   2157986.28704         0.00000  21174823.60504
  23598722.78103  -2609622.91303  -2033469.71501         0.00000  23598727.79301
  20134816.85909  -3462658.06009  -2698174.12906         0.00000  20134820.70906
  20911035.83409  -3938647.50409  -3069074.93405         0.00000  20911039.32705
  22633012.94506   5894326.19906   4592980.40802         0.00000  22633016.12702
 96  9  9 22  3 30.0000000  0  5 23 09 05 01 21
  21179281.76309   2792866.31209   2176258.66404         0.00000  21179284.87704
  22641036.96106   5936493.83406   4625838.34402         0.00000  22641040.81802
  23594350.75403  -2632596.09503  -2051370.94901         0.00000  23594352.81701
  20908041.25009  -3954388.62809  -3081340.73705         0.00000  20908044.88405
  20132708.44009  -3473737.56809  -2706807.51205         0.00000  20132711.75305
 96  9  9 22  3 45.0000000  0  5 23 09 05 21 01
  21183760.74609   2816405.25009   2194600.67304         0.00000  21183764.61804
  22649075.14907   5978732.20507   4658751.32403         0.00000  22649078.16103
  23589995.46503  -2655474.38403  -2069198.09801         0.00000  23590000.80801
  20130619.40809  -3484715.77209  -2715361.96805         0.00000  20130623.05705
  20905058.24309  -3970064.72109  -3093555.87305         0.00000  20905061.79005
 96  9  9 22  4  0.0000000  0  5 23 05 01 21 09
  21188259.42809   2840043.35709   2213019.96403         0.00000  21188262.41203
  23585662.25503  -2678249.62503  -2086945.02001         0.00000  23585664.93201
  20902088.15609  -3985672.04309  -3105717.41905         0.00000  20902091.60205
  20128551.34909  -3495584.22009  -2723830.88605         0.00000  20128555.20405
  22657127.10007   6021049.45507   4691725.73802         0.00000  22657130.39402
 96  9  9 22  4 15.0000000  0  5 23 05 21 01 09
  21192774.73408   2863775.92808   2231512.85204         0.00000  21192778.47404
  23581348.60003  -2700927.88503  -2104616.46101         0.00000  23581352.84201
  20126503.42609  -3506346.05709  -2732216.71505         0.00000  20126506.60205
  20899129.04609  -4001217.82409  -3117831.01205         0.00000  20899132.92905
  22665193.74607   6063440.75307   4724757.96603         0.00000  22665198.54303
 96  9  9 22  4 30.0000000  0  5 23 09 05 01 21
  21197311.07408   2887613.98308   2250087.96304         0.00000  21197314.96904
  22673277.97807   6105916.06407   4757855.58202         0.00000  22673281.87902
  23577052.82203  -2723498.50503  -2122204.07701         0.00000  23577057.37101
  20896184.06909  -4016693.45909  -3129889.94805         0.00000  20896187.40805
  20124478.13509  -3516991.10309  -2740511.56805         0.00000  20124481.23705
 96  9  9 22  4 45.0000000  0  5 23 09 05 21 01
  21201866.87609   2911553.41909   2268742.05504         0.00000  21201870.24104
  22681375.21307   6148471.11707   4791015.33702         0.00000  22681378.37802
  23572778.72403  -2745967.99403  -2139712.63001         0.00000  23572782.55501
  20122473.61309  -3527526.07309  -2748720.63106         0.00000  20122476.77706
  20893252.11309  -4032105.10609  -3141899.02005         0.00000  20893255.38005
 96  9  9 22  5  0.0000000  0  5 23 05 01 21 09
  21206441.66509   2935594.87609   2287475.64204         0.00000  21206445.03204
  23568519.06303  -2768335.94203  -2157142.14601         0.00000  23568522.29601
  20890331.87009  -4047452.32109  -3153857.89705         0.00000  20890334.86805
  20120489.03409  -3537953.00809  -2756845.50006         0.00000  20120492.23006
  22689487.94007   6191105.75407   4824237.06102         0.00000  22689491.02602
 96  9  9 22  5 15.0000000  0  5 23 05 21 01 09
  21211037.96409   2959743.42609   2306292.70404         0.00000  21211040.63804
  23564284.70203  -2790596.03803  -2174487.78801         0.00000  23564288.99701
  20118526.25809  -3548269.36009  -2764884.22506         0.00000  20118529.30106
  20887424.44309  -4062730.55309  -3165762.99804         0.00000  20887427.77304
  22697618.47908   6233827.95808   4857527.11203         0.00000  22697621.57003
 96  9  9 22  5 30.0000000  0  5 23 09 05 01 21
  21215655.32209   2984008.97209   2325200.92704         0.00000  21215657.72104
  22705768.10407   6276655.27307   4890899.04002         0.00000  22705771.10902
  23560071.78503  -2812731.13403  -2191735.91001         0.00000  23560078.00401
  20884530.61209  -4077927.61209  -3177604.83305         0.00000  20884535.05905
  20116587.34809  -3558459.64509  -2772824.70106         0.00000  20116589.88006
 96  9  9 22  5 45.0000000  0  5 23 09 05 21 01
  21220292.58909   3008380.84509   2344191.95104         0.00000  21220295.68204
  22713936.47407   6319579.39507   4924346.40502         0.00000  22713939.36002
  23555882.31703  -2834749.40803  -2208892.95601         0.00000  23555886.24301
  20114670.58709  -3568531.86409  -2780673.19806         0.00000  20114673.58806
  20881652.61709  -4093052.54909  -3189390.50105         0.00000  20881657.39205
 96  9  9 22  6  0.0000000  0  5 23 05 01 21 09
  21224953.65709   3032875.38309   2363278.61603         0.00000  21224957.58403
  23551721.02203  -2856634.74403  -2225946.35201         0.00000  23551726.05101
  20878791.85809  -4108089.73809  -3201107.77904         0.00000  20878795.97104
  20112779.45009  -3578470.79309  -2788417.81706         0.00000  20112782.37106
  22722126.16607   6362618.12207   4957883.06802         0.00000  22722128.56802
 96  9  9 22  6 15.0000000  0  5 23 05 21 01 09
  21229640.34509   3057503.36009   2382469.25604         0.00000  21229643.91704
  23547587.36804  -2878374.29404  -2242886.10101         0.00000  23547589.92601
  20110915.53309  -3588262.54509  -2796047.73506         0.00000  20110918.67706
  20875950.72709  -4123022.75409  -3212743.89805         0.00000  20875955.84705
  22730340.16807   6405786.71607   4991520.95402         0.00000  22730344.74302
 96  9  9 22  6 30.0000000  0  5 23 09 05 01 21
  21234346.24009   3082235.68109   2401741.17504         0.00000  21234349.18504
  22738572.89707   6449052.17907   5025234.19702         0.00000  22738575.96202
  23543468.47903  -2899998.74103  -2259736.54601         0.00000  23543470.85201
  20873124.43809  -4137876.99209  -3224318.62105         0.00000  20873128.77305
  20109074.17009  -3597937.61809  -2803586.74406         0.00000  20109077.34806
 96  9  9 22  6 45.0000000  0  5 23 09 05 21 01
  21239069.73409   3107056.29809   2421081.91903         0.00000  21239073.32103
  22746821.63907   6492399.59007   5059011.44902         0.00000  22746826.45902
  23539370.27403  -2921523.54403  -2276509.15901         0.00000  23539371.48801
  20107252.73609  -3607509.90809  -2811045.67305         0.00000  20107256.55005
  20870310.40709  -4152663.55909  -3235840.58505         0.00000  20870313.80005
 96  9  9 22  7  0.0000000  0  5 23 05 01 21 09
  21243807.57508   3131955.74308   2440484.06404         0.00000  21243810.98704
  23535294.82403  -2942953.80303  -2293207.91001         0.00000  23535299.72701
  20867508.70309  -4167387.59309  -3247313.86205         0.00000  20867511.82605
  20105449.75409  -3616984.49509  -2818428.47905         0.00000  20105453.53805
  22755084.90407   6535821.27907   5092846.52502         0.00000  22755089.28402
 96  9  9 22  7 15.0000000  0  5 23 05 21 01 09
  21248559.66809   3156924.39709   2459940.15103         0.00000  21248563.01403
  23531233.12503  -2964294.46203  -2309837.09501         0.00000  23531236.97101
  20103663.74309  -3626368.85409  -2825740.96405         0.00000  20103666.89105
  20864717.08909  -4182055.61909  -3258743.50205         0.00000  20864720.32405
  22763361.69907   6579311.36907   5126734.89302         0.00000  22763364.22902
 96  9  9 22  7 30.0000000  0  5 23 09 05 01 21
  21253325.86609   3181971.77409   2479457.55404         0.00000  21253329.21004
  22771652.84807   6622882.69207   5160686.61902         0.00000  22771655.75902
  23527192.22203  -2985532.11003  -2326385.85801         0.00000  23527195.87501
  20861939.18709  -4196655.84109  -3270120.31305         0.00000  20861942.27905
  20101898.01809  -3635650.85709  -2832973.68705         0.00000  20101901.14805
 96  9  9 22  7 45.0000000  0  5 23 09 05 21 01
  21258108.23109   3207102.58409   2499040.01904         0.00000  21258111.46704
  22779959.84007   6666535.08407   5194701.41402         0.00000  22779962.56302
  23523171.90203  -3006662.19703  -2342850.84701         0.00000  23523171.09801
  20100152.14509  -3644825.55109  -2840122.79605         0.00000  20100155.40505
  20859174.35909  -4211183.80709  -3281440.79305         0.00000  20859177.46705
 96  9  9 22  8  0.0000000  0  5 23 05 01 21 09
  21262908.01709   3232325.04309   2518693.85004         0.00000  21262911.47704
  23519168.92203  -3027683.46603  -2359230.93701         0.00000  23519170.72901
  20856424.31709  -4225635.86109  -3292702.11105         0.00000  20856427.36005
  20098426.55309  -3653890.91909  -2847186.72106         0.00000  20098430.14506
  22788281.73607   6710268.49507   5228779.38202         0.00000  22788285.03102
 96  9  9 22  8 15.0000000  0  5 05 01 21 23 09
  23515189.59503  -3048601.28703  -2375530.50601         0.00000  23515197.49601
  20853686.93709  -4240017.99609  -3303908.95604         0.00000  20853689.71204
  20096721.96709  -3662849.55109  -2854167.48006         0.00000  20096725.05206
  21267724.10109   3257633.14209   2538414.43904         0.00000  21267727.67004
  22796618.72208   6754075.94008   5262914.99902         0.00000  22796621.92102
 96  9  9 22  8 30.0000000  0  5 23 09 05 01 21
  21272559.13508   3283044.00908   2558215.12203         0.00000  21272562.49603
  22804971.28008   6797969.08708   5297117.47902         0.00000  22804972.11102
  23511232.07103  -3069400.34803  -2391737.89000         0.00000  23511231.98600
  20850966.00809  -4254316.77409  -3315050.88205         0.00000  20850968.37005
  20095040.40609  -3671686.01909  -2861053.03005         0.00000  20095043.47905
 96  9  9 22  8 45.0000000  0  5 23 09 05 21 01
  21277411.98208   3308548.42108   2578088.65704         0.00000  21277415.37104
  22813337.61808   6841936.64108   5331377.88102         0.00000  22813338.56102
  23507294.09203  -3090087.55003  -2407857.60301         0.00000  23507299.59601
  20093380.23109  -3680408.77309  -2867849.97605         0.00000  20093383.56005
  20848259.21209  -4268543.45609  -3326136.60405         0.00000  20848261.55605
 96  9  9 22  9  0.0000000  0  5 23 05 01 21 09
  21282283.72408   3334148.42508   2598036.70304         0.00000  21282287.54104
  23503376.23302  -3110658.71702  -2423887.00400         0.00000  23503387.87300
  20845565.92609  -4282698.38509  -3337166.40505         0.00000  20845569.23905
  20091742.59809  -3689015.01809  -2874556.14906         0.00000  20091745.93306
  22821718.35007   6885981.73207   5365698.71402         0.00000  22821721.16902
 96  9  9 22  9 15.0000000  0  6 23 05 01 21 09 15
  21287171.59808   3359836.39908   2618053.31404         0.00000  21287175.01404
  23499480.17602  -3131121.52802  -2439831.99101         0.00000  23499492.98301
  20842884.00009  -4296793.99909  -3348149.98005         0.00000  20842887.11905
  20090125.42209  -3697515.50209  -2881179.91306         0.00000  20090129.03406
  22830111.70706   6930092.70506   5400070.84402         0.00000  22830116.44702
  24878953.21602    -39168.30002    -30520.31600         0.00000  24878955.42400
 96  9  9 22  9 30.0000000  0  6 23 09 05 01 21 15
  21292073.45308   3385592.81208   2638123.22704         0.00000  21292078.10204
  22838514.34207   6974247.28007   5434476.99602         0.00000  22838518.18902
  23495604.63902  -3151496.97302  -2455708.90201         0.00000  23495614.40001
  20840206.64809  -4310852.73909  -3359104.84405         0.00000  20840209.88505
  20088524.17709  -3705929.99309  -2887736.65006         0.00000  20088527.16706
  24869648.17802    -88091.03402    -68641.35001         0.00000  24869644.93901
 96  9  9 22  9 45.0000000  0  6 23 09 05 01 21 15
  21296995.84009   3411458.22609   2658278.10404         0.00000  21296999.63404
  22846931.92307   7018480.89407   5468944.73402         0.00000  22846935.33902
  23491751.46903  -3171749.20803  -2471490.01201         0.00000  23491763.93301
  20837546.55309  -4324834.59709  -3369999.79205         0.00000  20837550.12605
  20086947.22309  -3714217.73309  -2894194.64606         0.00000  20086950.53206
  24860351.44502   -136930.46702   -106698.06001         0.00000  24860355.17601
 96  9  9 22 10  0.0000000  0  6 23 05 01 21 09 15
  21301939.32009   3437432.54009   2678517.80204         0.00000  21301942.71004
  23487924.01803  -3191880.89703  -2487177.30801         0.00000  23487928.60101
  20834900.20309  -4338738.64509  -3380834.12005         0.00000  20834903.51205
  20085393.77909  -3722378.64809  -2900553.77906         0.00000  20085397.40106
  22855364.84607   7062792.13507   5503472.92302         0.00000  22855368.08502
  24851073.63802   -185685.93102   -144689.27401         0.00000  24851076.13101
 96  9  9 22 10 15.0000000  0  6 23 05 01 21 09 15
  21306902.44009   3463514.47709   2698841.38304         0.00000  21306905.78504
  23484116.11503  -3211890.48203  -2502768.71901         0.00000  23484122.71601
  20832270.87109  -4352560.64909  -3391604.49505         0.00000  20832274.25405
  20083864.93109  -3730411.45109  -2906813.10806         0.00000  20083868.45106
  22863811.80307   7107184.89207   5538064.68602         0.00000  22863815.62402
  24841810.41902   -234355.04402   -182613.08800         0.00000  24841809.40700
 96  9  9 22 10 30.0000000  0  6 23 05 09 01 21 15
  21311880.92008   3489681.78008   2719231.50104         0.00000  21311884.51204
  23480328.54503  -3231794.02103  -2518277.99101         0.00000  23480335.22201
  22872271.49807   7151642.39807   5572706.87402         0.00000  22872275.10602
  20829653.52309  -4366318.55909  -3402324.96205         0.00000  20829656.53205
  20082356.90109  -3738335.47009  -2912987.66306         0.00000  20082360.39406
  24832559.14302   -282955.93702   -220483.47400         0.00000  24832551.86300
 96  9  9 22 10 45.0000000  0  5 23 09 05 01 21
  21316875.22209   3515925.00809   2739680.74304         0.00000  21316878.41804
  22880742.19306   7196156.21706   5607392.92402         0.00000  22880747.51002
  23476559.76203  -3251600.66803  -2533711.83201         0.00000  23476568.75801
  20827046.01209  -4380021.37909  -3413002.48505         0.00000  20827048.35605
  20080867.78109  -3746161.83109  -2919086.12705         0.00000  20080871.57805
 96  9  9 22 11  0.0000000  0  5 23 05 21 01 09
  21321883.04408   3542244.33608   2760189.30503         0.00000  21321886.66503
  23472808.97403  -3271306.54103  -2549067.11401         0.00000  23472813.65201
  20079398.03109  -3753886.16009  -2925105.08706         0.00000  20079401.62206
  20824450.21109  -4393664.21709  -3423633.27305         0.00000  20824452.92105
  22889224.72207   7240729.40807   5642125.31102         0.00000  22889228.65002
 96  9  9 22 11 15.0000000  0  6 23 05 09 01 21 15
  21326905.93809   3568635.95709   2780754.19404         0.00000  21326909.79604
  23469078.09603  -3290914.60103  -2564346.13701         0.00000  23469079.33901
  22897717.42107   7285360.81207   5676902.98802         0.00000  22897721.24602
  20821864.19109  -4407251.81709  -3434221.00505         0.00000  20821867.16105
  20077946.67109  -3761513.02409  -2931048.10006         0.00000  20077950.06606
  24804882.99002    -38726.93902    -30176.84601         0.00000  24804887.01701
 96  9  9 22 11 30.0000000  0  6 23 05 21 01 09 15
  21331945.99509   3595121.14009   2801391.99604         0.00000  21331949.64204
  23465370.83703  -3310403.73103  -2579532.36701         0.00000  23465373.91301
  20076518.20909  -3769019.48009  -2936897.29305         0.00000  20076521.94405
  20819292.93709  -4420761.65009  -3444748.14806         0.00000  20819295.90306
  22906226.25507   7330073.60107   5711744.11002         0.00000  22906229.94902
  24795688.77002    -87061.53502    -67839.26500         0.00000  24795701.32400
 96  9  9 22 11 45.0000000  0  6 23 05 09 01 21 15
  21337001.15609   3621688.53009   2822093.85104         0.00000  21337005.44804
  23461682.99703  -3329788.25303  -2594637.34801         0.00000  23461686.96701
  22914749.40807   7374859.11507   5746641.91002         0.00000  22914752.62102
  20816734.77709  -4434203.25809  -3455222.12905         0.00000  20816738.18505
  20075110.79009  -3776417.93209  -2942662.32206         0.00000  20075114.35906
  24786505.08803   -135325.28703   -105447.78701         0.00000  24786504.60101
 96  9  9 22 12  0.0000000  0  6 23 05 21 01 09 15
  21342073.03109   3648338.00409   2842859.68004         0.00000  21342077.14204
  23458012.97504  -3349068.79604  -2609661.03901         0.00000  23458014.91201
  20073723.03709  -3783710.04109  -2948344.47306         0.00000  20073726.41506
  20814190.21209  -4447576.67309  -3465642.97805         0.00000  20814194.03605
  22923285.35206   7419720.22506   5781598.56703         0.00000  22923288.88103
  24777334.68803   -183517.58103   -143000.30001         0.00000  24777332.29901
 96  9  9 22 12 15.0000000  0  6 23 05 09 01 21 15
  21347159.06908   3675069.19008   2863689.15404         0.00000  21347162.50104
  23454362.70103  -3368244.51503  -2624603.05901         0.00000  23454362.34401
  22931837.10506   7464657.52806   5816614.67502         0.00000  22931839.08202
  20811658.17909  -4460884.59809  -3476012.78506         0.00000  20811661.83106
  20072355.39509  -3790898.64209  -2953945.97706         0.00000  20072358.58806
  24768174.82003   -231640.31403   -180498.49901         0.00000  24768176.28401
 96  9  9 22 12 30.0000000  0  6 23 05 21 01 09 15
  21352261.32308   3701880.35508   2884580.96904         0.00000  21352265.40504
  23450731.99103  -3387316.17003  -2639464.07801         0.00000  23450735.40001
  20071007.31809  -3797983.41009  -2959466.55906         0.00000  20071010.58106
  20809136.94309  -4474131.09909  -3486334.74405         0.00000  20809141.48605
  22940402.32506   7509670.08206   5851689.37802         0.00000  22940406.64502
  24759029.93703   -279696.84103   -217945.15001         0.00000  24759038.57601
 96  9  9 22 12 45.0000000  0  6 23 05 09 01 21 15
  21357380.79608   3728787.78708   2905547.77404         0.00000  21357386.05904
  23447125.03103  -3406270.71903  -2654233.90101         0.00000  23447130.63601
  22948985.27206   7554769.98506   5886832.05302         0.00000  22948988.53002
  20806629.18109  -4487306.42509  -3496601.21205         0.00000  20806633.61805
  20069680.93609  -3804952.02409  -2964896.65705         0.00000  20069684.33505
  24749901.77003   -327674.73503   -255330.31901         0.00000  24749906.99801
 96  9  9 22 13  0.0000000  0  6 23 05 21 01 09 15
  21362519.80908   3755792.92108   2926590.76204         0.00000  21362524.56304
  23443541.79704  -3425110.35604  -2668914.06201         0.00000  23443547.76301
  20068376.74609  -3811802.86709  -2970234.97606         0.00000  20068380.35206
  20804135.56909  -4500410.11009  -3506811.87505         0.00000  20804139.61305
  22957583.89206   7599955.12606   5922041.24002         0.00000  22957588.92102
  24740785.06903   -375574.53703   -292654.91501         0.00000  24740787.73201
 96  9  9 22 13 15.0000000  0  6 23 05 21 01 09 15
  21367677.94309   3782894.52009   2947708.86804         0.00000  21367682.19304
  23439977.08904  -3443837.34304  -2683506.60801         0.00000  23439981.96701
  20067094.89609  -3818537.50409  -2975482.74205         0.00000  20067098.56005
  20801654.47209  -4513446.06409  -3516969.76605         0.00000  20801657.80905
  22966197.32306   7645223.14706   5957315.01602         0.00000  22966201.23302
  24731683.05003   -423397.64403   -329919.68201         0.00000  24731683.40501
 96  9  9 22 13 30.0000000  0  6 23 05 21 01 09 15
  21372854.22609   3810097.51109   2968905.98704         0.00000  21372857.64804
  23436436.69104  -3462453.44904  -2698012.51001         0.00000  23436443.10301
  20065836.68809  -3825153.57809  -2980638.12206         0.00000  20065840.43506
  20799188.27809  -4526412.16609  -3527073.20905         0.00000  20799192.01305
  22974827.62006   7690573.28006   5992652.79402         0.00000  22974831.15002
  24722599.58203   -471142.28903   -367123.48300         0.00000  24722603.35500
 96  9  9 22 13 45.0000000  0  6 23 05 01 21 09 15
  21378046.07609   3837379.78409   2990164.91704         0.00000  21378050.33804
  23432910.30704  -3480982.38504  -2712450.67401         0.00000  23432913.33301
  20796729.89309  -4539329.00809  -3537138.28505         0.00000  20796733.43205
  20064596.50009  -3831670.59009  -2985716.32406         0.00000  20064599.92206
  22983468.95506   7735980.59406   6028035.13902         0.00000  22983472.95802
  24713524.19103   -518829.66003   -404282.38501         0.00000  24713532.05201
 96  9  9 22 14  0.0000000  0  6 23 05 21 01 09 15
  21383260.88608   3864783.19108   3011518.21604         0.00000  21383264.51904
  23429406.35903  -3499377.30803  -2726784.40101         0.00000  23429410.57101
  20063383.52109  -3838043.86709  -2990682.50306         0.00000  20063387.05006
  20794290.07509  -4552153.68309  -3547131.53705         0.00000  20794293.15205
  22992127.88706   7781485.36606   6063493.35302         0.00000  22992129.93402
  24704468.99303   -566414.01203   -441360.46800         0.00000  24704465.89900
 96  9  9 22 14 15.0000000  0  6 23 05 21 01 09 15
  21388505.77608   3892345.82708   3032995.56603         0.00000  21388509.83503
  23425941.14704  -3517591.55904  -2740977.33601         0.00000  23425948.71101
  20062206.13909  -3844232.41509  -2995504.74706         0.00000  20062209.70006
  20791874.28909  -4564847.13009  -3557022.53305         0.00000  20791877.43105
  23000810.92005   7827123.44505   6099055.52602         0.00000  23000816.96902
  24695440.71803   -613854.73303   -478327.56101         0.00000  24695442.75901
 96  9  9 22 14 30.0000000  0  6 23 05 21 01 09 15
  21393776.40208   3920043.53508   3054578.17804         0.00000  21393780.86204
  23422506.44204  -3535645.71404  -2755045.59701         0.00000  23422513.16301
  20061059.37109  -3850258.67509  -3000200.53807         0.00000  20061062.99007
  20789479.84509  -4577432.56109  -3566829.34206         0.00000  20789483.29406
  23009516.06705   7872867.87805   6134700.51902         0.00000  23009521.91502
  24686436.95603   -661175.38103   -515200.76901         0.00000  24686433.67601
 96  9  9 22 14 45.0000000  0  7 23 25 21 01 05 09 15
  21399070.21908   3947866.32608   3076258.28404         0.00000  21399075.12004
  23635577.36102    -40893.65402    -31864.42601         0.00000  23635578.89901
  20059940.96409  -3856134.17609  -3004778.82407         0.00000  20059944.34707
  20787102.97509  -4589919.17309  -3576559.16406         0.00000  20787106.51506
  23419100.31704  -3553548.11104  -2768995.31602         0.00000  23419106.71502
  23018240.69005   7918709.24005   6170420.99602         0.00000  23018245.30702
  24677453.66302   -708383.34102   -551986.28801         0.00000  24677457.16301
 96  9  9 22 15  0.0000000  0  6 23 05 09 01 21 15
  21404384.53008   3975790.75108   3098017.57404         0.00000  21404388.43704
  23415718.82204  -3571323.86604  -2782846.54201         0.00000  23415719.49401
  23026976.92405   7964622.54305   6206197.53001         0.00000  23026980.71701
  20784741.32809  -4602330.02209  -3586229.93207         0.00000  20784744.56007
  20058847.29709  -3861882.14709  -3009257.75806         0.00000  20058850.86906
  24668483.82502   -755501.09502   -588701.75900         0.00000  24668499.77100
 96  9  9 22 15 15.0000000  0  6 23 05 09 01 21 15
  21409710.83509   4003778.55709   3119826.24104         0.00000  21409714.51904
  23412354.39704  -3589009.35404  -2796627.43201         0.00000  23412354.42101
  23035720.88806   8010570.92206   6242001.50002         0.00000  23035724.11902
  20782387.61709  -4614700.70609  -3595869.41807         0.00000  20782391.15407
  20057770.38909  -3867538.72509  -3013665.49106         0.00000  20057773.71406
  24659532.39702   -802564.25802   -625373.76701         0.00000  24659535.76601
 96  9  9 22 15 30.0000000  0  5 23 05 01 21 09
  21415042.14809   4031793.33709   3141655.92104         0.00000  21415045.62304
  23408999.80505  -3606638.67705  -2810364.58802         0.00000  23409004.43502
  20780034.47809  -4627069.74109  -3605507.61506         0.00000  20780037.84106
  20056705.10209  -3873140.31909  -3018030.36807         0.00000  20056709.10107
  23044463.53706   8056517.04606   6277803.64602         0.00000  23044466.52702
 96  9  9 22 15 45.0000000  0  6 23 25 05 01 21 09
  21420377.40308   4059836.21808   3163507.52504         0.00000  21420381.14604
  23596717.86302     -6812.15002     -5307.20900         0.00000  23596716.43700
  23405655.42905  -3624205.84305  -2824053.24801         0.00000  23405658.70901
  20777681.81909  -4639433.29409  -3615141.56106         0.00000  20777685.21106
  20055649.93209  -3878684.58909  -3022350.56608         0.00000  20055653.59808
  23053207.12906   8102466.27406   6313608.24302         0.00000  23053211.97502
 96  9  9 22 16  0.0000000  0  5 23 05 21 01 09
  21425717.25008   4087895.84108   3185372.15804         0.00000  21425721.51804
  23402321.70405  -3641716.87705  -2837698.19101         0.00000  23402324.40701
  20054603.18809  -3884184.24409  -3026636.01907         0.00000  20054606.62907
  20775328.15509  -4651802.04109  -3624779.53606         0.00000  20775331.54106
  23061950.36006   8148410.34806   6349408.81802         0.00000  23061953.91602
 96  9  9 22 16 15.0000000  0  6 23 05 21 01 09 15
  21431059.02608   4115967.50208   3207246.19304         0.00000  21431063.14704
  23398999.91805  -3659179.56005  -2851305.53501         0.00000  23399003.50801
  20053563.45909  -3889649.04209  -3030894.30707         0.00000  20053566.64807
  20772971.88209  -4664181.90609  -3634426.17407         0.00000  20772975.01207
  23070689.17905   8194342.38205   6385200.01502         0.00000  23070694.12302
  24623741.19102    -37602.71702    -29300.76101         0.00000  24623742.10401
 96  9  9 22 16 30.0000000  0  6 23 05 21 01 09 15
  21436409.81508   4144089.19208   3229159.20104         0.00000  21436414.24704
  23395690.64505  -3676563.93005  -2864851.70701         0.00000  23395695.42701
  20052536.83509  -3895046.17309  -3035099.86208         0.00000  20052540.14908
  20770619.98409  -4676537.27609  -3644053.72906         0.00000  20770623.06306
  23079436.17906   8240299.70806   6421010.87902         0.00000  23079439.23002
  24614801.86402    -84566.60402    -65895.96601         0.00000  24614800.53701
 96  9  9 22 16 45.0000000  0  6 23 05 01 21 09 15
  21441772.35308   4172264.95608   3251114.32804         0.00000  21441776.02804
  23392396.78505  -3693873.23605  -2878339.46501         0.00000  23392401.54801
  20768273.80209  -4688864.71809  -3653659.52006         0.00000  20768276.84906
  20051522.54609  -3900373.69409  -3039251.16607         0.00000  20051525.93107
  23088186.81505   8286287.72905   6456845.73302         0.00000  23088191.03902
  24605872.20902   -131488.92602   -102458.18301         0.00000  24605867.76101
 96  9  9 22 17  0.0000000  0  6 23 05 09 01 21 15
  21447145.78208   4200504.07908   3273118.86404         0.00000  21447149.52704
  23389118.34305  -3711101.52605  -2891764.12202         0.00000  23389124.03802
  23096947.43406   8332316.20906   6492712.04003         0.00000  23096950.09103
  20765935.30309  -4701156.54709  -3663237.56807         0.00000  20765938.40807
  20050523.97109  -3905620.72509  -3043339.76207         0.00000  20050527.48107
  24596953.88402   -178359.97802   -138981.44301         0.00000  24596963.04001
 96  9  9 22 17 15.0000000  0  7 23 25 05 01 21 09 15
  21452530.51807   4228804.24907   3295170.89704         0.00000  21452534.60404
  23538360.62402     -6814.88402     -5309.91201         0.00000  23538354.10601
  23385855.67805  -3728248.37105  -2905125.31501         0.00000  23385860.23501
  20763603.59009  -4713412.77709  -3672787.87807         0.00000  20763606.45007
  20049541.63709  -3910784.37209  -3047363.38407         0.00000  20049545.00407
  23105713.01206   8378381.67506   6528607.17502         0.00000  23105715.88602
  24588045.38703   -225180.05403   -175464.65801         0.00000  24588057.54801
 96  9  9 22 17 30.0000000  0  6 23 05 01 21 09 15
  21457925.29207   4257154.78607   3317262.25004         0.00000  21457929.85604
  23382606.74905  -3745320.93405  -2918428.61801         0.00000  23382611.01001
  20761276.20509  -4725644.26709  -3682318.89707         0.00000  20761278.74307
  20048572.52009  -3915876.59409  -3051331.34607         0.00000  20048576.51607
  23114483.83906   8424473.96006   6564523.25903         0.00000  23114487.88803
  24579143.46803   -271958.99003   -211915.86401         0.00000  24579145.56201
 96  9  9 22 17 45.0000000  0  6 23 05 21 01 09 15
  21463329.44607   4285552.23007   3339390.18804         0.00000  21463333.73504
  23379370.69005  -3762323.34205  -2931677.18402         0.00000  23379377.90402
  20047616.56009  -3920899.62709  -3055245.31006         0.00000  20047619.92906
  20758952.92509  -4737852.47809  -3691831.68906         0.00000  20758955.34006
  23123260.14106   8470593.16606   6600460.34702         0.00000  23123263.27702
  24570249.11203   -318698.98103   -248336.41100         0.00000  24570249.37400
 96  9  9 22 18  0.0000000  0  6 23 05 09 01 21 15
  21468744.15007   4314005.58707   3361561.53703         0.00000  21468748.56703
  23376150.15505  -3779248.38605  -2944865.53101         0.00000  23376155.39301
  23132042.84206   8516746.44906   6636423.80402         0.00000  23132045.94602
  20756636.12009  -4750027.56009  -3701318.85907         0.00000  20756638.83307
  20046675.82409  -3925843.94409  -3059098.10906         0.00000  20046679.09106
  24561363.04303   -365391.56703   -284720.27001         0.00000  24561372.99601
 96  9  9 22 18 15.0000000  0  6 23 05 09 01 21 15
  21474171.61307   4342529.97407   3383788.31804         0.00000  21474175.69504
  23372946.59605  -3796086.34405  -2957986.06802         0.00000  23372949.85202
  23140833.54906   8562943.35006   6672421.41803         0.00000  23140837.35303
  20754327.92109  -4762156.15109  -3710769.70406         0.00000  20754330.91906
  20045752.33409  -3930696.20809  -3062879.10607         0.00000  20045755.57807
  24552489.79403   -412024.85203   -321058.06901         0.00000  24552491.77201
 96  9  9 22 18 30.0000000  0  7 23 25 01 21 05 09 15
  21479614.02208   4371121.25108   3406067.22304         0.00000  21479618.11904
  23489737.11102    -23832.47102    -18570.12800         0.00000  23489753.74600
  20752027.68109  -4774241.87509  -3720187.14706         0.00000  20752030.94106
  20044846.24809  -3935456.58309  -3066588.48106         0.00000  20044849.44606
  23369759.10005  -3812839.47005  -2971040.42602         0.00000  23369762.37302
  23149633.53106   8609181.25006   6708450.95303         0.00000  23149636.89503
  24543627.38303   -458601.61103   -357351.56801         0.00000  24543631.13801
 96  9  9 22 18 45.0000000  0  6 23 05 21 01 09 15
  21485067.28408   4399778.76908   3428397.73203         0.00000  21485071.25703
  23366587.68205  -3829502.87105  -2984024.90401         0.00000  23366592.21801
  20043958.81309  -3940120.27009  -3070222.52407         0.00000  20043962.73307
  20749736.36409  -4786284.31309  -3729570.83807         0.00000  20749738.35807
  23158439.30806   8655463.47706   6744514.99302         0.00000  23158440.79602
  24534776.27603   -505117.58103   -393597.72101         0.00000  24534777.07401
 96  9  9 22 19  0.0000000  0  6 23 05 01 21 09 15
  21490533.79108   4428504.69208   3450781.58803         0.00000  21490537.35003
  23363436.08405  -3846069.59405  -2996933.97602         0.00000  23363440.15602
  20747452.64909  -4798280.94409  -3738918.87907         0.00000  20747454.94307
  20043092.02509  -3944680.17709  -3073775.69707         0.00000  20043095.42107
  23167255.93006   8701791.00606   6780614.30002         0.00000  23167259.25302
  24525934.77003   -551566.53403   -429791.55701         0.00000  24525933.35101
 96  9  9 22 19 15.0000000  0  7 23 25 05 01 21 09 15
  21496014.94308   4457309.23208   3473226.64303         0.00000  21496017.99203
  23460598.29702     -6799.97802     -5298.91800         0.00000  23460598.29700
  23360304.51805  -3862525.83405  -3009757.03802         0.00000  23360307.81702
  20745180.19609  -4810221.20209  -3748222.97306         0.00000  20745183.36706
  20042246.18409  -3949124.24109  -3077238.60907         0.00000  20042249.47407
  23176080.85705   8748169.94905   6816753.75402         0.00000  23176084.28102
  24517111.92503   -597938.15803   -465925.39501         0.00000  24517110.61601
 96  9  9 22 19 30.0000000  0  7 23 25 01 21 05 09 15
  21501509.48708   4486183.90108   3495726.41204         0.00000  21501513.56204
  23450898.32502    -57770.78902    -45016.07201         0.00000  23450902.86601
  20742918.47209  -4822112.37009  -3757488.80306         0.00000  20742921.57506
  20041419.81609  -3953465.46009  -3080621.38406         0.00000  20041423.04006
  23357192.39706  -3878878.42306  -3022499.29701         0.00000  23357195.50101
  23184915.18105   8794590.76505   6852925.78702         0.00000  23184918.93402
  24508299.23402   -644241.71302   -502005.95201         0.00000  24508303.65701
 96  9  9 22 19 45.0000000  0  6 23 05 21 01 09 15
  21507017.72508   4515135.61608   3518286.15703         0.00000  21507021.42603
  23354100.93005  -3895120.41905  -3035155.45001         0.00000  23354106.78501
  20040614.07709  -3957696.91709  -3083918.62306         0.00000  20040617.33806
  20740666.95109  -4833944.87509  -3766708.92006         0.00000  20740670.16806
  23193757.32005   8841062.92705   6889137.82202         0.00000  23193759.28802
  24499501.74202   -690469.38702   -538027.77301         0.00000  24499516.28601
 96  9  9 22 20  0.0000000  0  6 23 05 21 01 09 15
  21512543.31308   4544169.18208   3540909.72004         0.00000  21512548.11704
  23351031.84705  -3911246.53005  -3047721.16801         0.00000  23351037.66201
  20039831.55409  -3961811.17309  -3087124.53107         0.00000  20039834.70507
  20738427.84609  -4845712.85509  -3775878.78006         0.00000  20738431.00106
  23202613.27306   8887590.78006   6925393.25302         0.00000  23202616.37502
  24490718.52002   -736615.84902   -573985.63701         0.00000  24490747.98401
 96  9  9 22 20 15.0000000  0  7 23 25 21 01 05 09 15
  21518086.28608   4573298.32908   3563607.75304         0.00000  21518090.34804
  23421849.25802     -6776.00502     -5279.35400         0.00000  23421878.27300
  20039072.93809  -3965794.70009  -3090228.56907         0.00000  20039076.47207
  20736202.54809  -4857403.16709  -3784988.10306         0.00000  20736205.56906
  23347987.83105  -3927241.50905  -3060184.76402         0.00000  23347992.12402
  23211479.60406   8934183.96306   6961699.66802         0.00000  23211481.55502
  24481954.76102   -782667.64902   -609869.91300         0.00000  24481965.40000
 96  9  9 22 20 30.0000000  0  7 23 25 01 21 05 09 15
  21523645.75608   4602513.60108   3586372.90104         0.00000  21523649.14404
  23412183.41002    -57562.07202    -44853.24701         0.00000  23412178.77101
  20733990.00309  -4869025.33809  -3794044.33606         0.00000  20733993.44006
  20038337.42609  -3969658.04709  -3093238.97106         0.00000  20038341.50606
  23344968.91606  -3943112.89806  -3072552.10702         0.00000  23344975.64802
  23220357.12305   8980835.26305   6998051.31002         0.00000  23220360.63902
  24473211.54403   -828632.27403   -645687.21000         0.00000  24473232.91400
 96  9  9 22 20 45.0000000  0  7 23 25 01 21 05 09 15
  21529223.57708   4631821.61708   3609210.30104         0.00000  21529226.80704
  23402533.05502   -108289.66802    -84381.26400         0.00000  23402532.72500
  20731792.65409  -4880573.00609  -3803042.50906         0.00000  20731796.04606
  20037625.75809  -3973395.07409  -3096150.96106         0.00000  20037630.19306
  23341973.92006  -3958852.08406  -3084816.40002         0.00000  23341979.60602
  23229245.14004   9027552.00304   7034453.96002         0.00000  23229249.36802
  24464482.77803   -874501.81903   -681429.63501         0.00000  24464489.25401
 96  9  9 22 21  0.0000000  0  7 23 25 01 21 05 09 15
  21534820.22808   4661233.18908   3632128.39103         0.00000  21534823.11303
  23392893.74603   -158949.27703   -123856.05501         0.00000  23392889.48601
  20729610.65909  -4892036.86709  -3811975.39106         0.00000  20729614.09706
  20036941.04109  -3976998.18709  -3098958.57607         0.00000  20036945.28707
  23339004.66906  -3974452.38306  -3096972.45301         0.00000  23339009.34501
  23238149.66905   9074340.81905   7070912.75502         0.00000  23238153.11502
  24455773.25303   -920268.00603   -717091.52001         0.00000  24455779.58901
 96  9  9 22 21 15.0000000  0  7 23 25 21 01 05 09 15
  21540439.00308   4690759.52508   3655135.92103         0.00000  21540442.90603
  23383269.82403   -209531.86803   -163271.68800         0.00000  23383285.29300
  20036282.72509  -3980460.13009  -3101656.19407         0.00000  20036286.11907
  20727447.88509  -4903406.80309  -3820835.05106         0.00000  20727451.05706
  23336064.84006  -3989906.39106  -3109014.58901         0.00000  23336065.22501
  23247068.23605   9121210.48905   7107434.39801         0.00000  23247072.80101
  24447086.98603   -965924.16703   -752667.95200         0.00000  24447094.60400
 96  9  9 22 21 30.0000000  0  7 23 25 01 21 05 09 15
  21546078.98308   4720399.00808   3678231.58803         0.00000  21546082.14803
  23373656.04702   -260038.79502   -202626.89400         0.00000  23373659.22600
  20725302.41609  -4914682.71609  -3829621.51706         0.00000  20725305.54006
  20035650.45409  -3983784.34309  -3104246.48407         0.00000  20035653.75207
  23333151.60606  -4005214.45606  -3120942.92002         0.00000  23333151.91802
  23256002.55104   9168165.16404   7144022.52001         0.00000  23256006.37301
  24438420.67603  -1011470.90403   -788158.38901         0.00000  24438423.31701
 96  9  9 22 21 45.0000000  0  7 23 25 01 21 05 09 15
  21551740.86407   4750154.54707   3701417.73503         0.00000  21551744.57403
  23364062.09603   -310470.53503   -241924.66001         0.00000  23364058.18701
  20723174.74109  -4925862.02209  -3838332.64806         0.00000  20723176.83606
  20035044.29309  -3986967.56309  -3106726.91207         0.00000  20035047.24907
  23330265.91505  -4020374.16005  -3132755.76101         0.00000  23330267.61401
  23264955.74305   9215211.60805   7180682.00301         0.00000  23264958.94801
  24429775.47103  -1056903.96803   -823560.69500         0.00000  24429780.25700
 96  9  9 22 22  0.0000000  0  7 23 25 21 01 05 09 15
  21557426.82008   4780032.55708   3724699.31803         0.00000  21557430.24203
  23354480.27903   -360822.33103   -281159.68101         0.00000  23354485.82901
  20034466.60109  -3990000.62109  -3109090.33407         0.00000  20034469.69407
  20721067.15209  -4936942.42709  -3846966.72106         0.00000  20721069.30306
  23327409.35205  -4035382.73105  -3144450.63001         0.00000  23327412.77001
  23273927.73005   9262356.72905   7217418.51301         0.00000  23273931.52801
  24421151.25502  -1102217.18902   -858870.07000         0.00000  24421153.53100
 96  9  9 22 22 15.0000000  0  7 23 25 05 01 21 09 15
  21563136.58707   4810043.02707   3748084.08504         0.00000  21563140.56404
  23344913.80603   -411085.72603   -320326.03100         0.00000  23344904.66200
  23324583.86205  -4050234.97005  -3156023.88901         0.00000  23324587.94301
  20718978.02109  -4947919.32709  -3855520.13806         0.00000  20718981.13906
  20033919.56909  -3992877.95809  -3111332.40307         0.00000  20033922.61107
  23282919.45205   9309603.71805   7254234.27101         0.00000  23282919.86001
  24412552.32702  -1147403.73302   -894079.91101         0.00000  24412559.65001
 96  9  9 22 22 30.0000000  0  7 23 25 01 21 05 09 15
  21568875.12707   4840194.68107   3771578.86703         0.00000  21568878.92103
  23335369.33303   -461251.52303   -359416.82000         0.00000  23335378.78700
  20716910.10409  -4958785.75109  -3863987.48506         0.00000  20716913.30706
  20033402.26909  -3995595.16909  -3113449.72106         0.00000  20033405.10306
  23321788.53405  -4064924.62805  -3167470.30502         0.00000  23321791.38802
  23291930.34504   9356960.03904   7291135.38901         0.00000  23291931.17101
  24403978.35502  -1192456.32902   -929186.11100         0.00000  24403992.73100
 96  9  9 22 22 45.0000000  0  6 23 25 01 21 05 09
  21574639.75007   4870490.05707   3795185.63103         0.00000  21574643.74703
  23325842.15803   -511312.96903   -398425.38801         0.00000  23325838.64601
  20714864.07109  -4969537.26909  -3872365.29007         0.00000  20714867.31707
  20032916.47109  -3998147.70709  -3115438.72106         0.00000  20032919.63106
  23319024.00905  -4079445.51405  -3178785.22101         0.00000  23319028.42601
  23300964.46404   9404431.88404   7328126.37801         0.00000  23300966.45801
 96  9  9 22 23  0.0000000  0  7 23 25 21 01 05 09 15
  21580431.56208   4900922.41508   3818899.14503         0.00000  21580434.66203
  23316331.60603   -561278.69303   -437359.69801         0.00000  23316337.15801
  20032461.69109  -4000539.38309  -3117302.35306         0.00000  20032464.87206
  20712838.19409  -4980178.89609  -3880657.46906         0.00000  20712842.30106
  23316291.89205  -4093804.53605  -3189974.04501         0.00000  23316294.43201
  23310019.73605   9452012.29305   7365201.94501         0.00000  23310023.00001
  24386910.34602    -41793.70502    -32565.08801         0.00000  24386908.43301
 96  9  9 22 23 15.0000000  0  6 23 25 05 01 21 09
  21586249.64208   4931496.90908   3842723.36803         0.00000  21586253.14403
  23306842.56403   -611145.47303   -476216.72201         0.00000  23306850.80601
  23313592.94306  -4107994.35206  -3201031.02402         0.00000  23313595.06902
  20710834.79309  -4990705.55309  -3888860.05206         0.00000  20710838.61806
  20032038.54209  -4002763.03609  -3119035.07407         0.00000  20032041.43507
  23319094.17105   9499707.46705   7402367.08801         0.00000  23319097.19901
 96  9  9 22 23 30.0000000  0  6 23 25 01 21 05 09
  21592091.45007   4962199.34207   3866647.36403         0.00000  21592095.50903
  23297368.62003   -660928.28403   -515008.28401         0.00000  23297384.77501
  20708851.26409  -5001131.70709  -3896984.31506         0.00000  20708855.39306
  20031645.21809  -4004831.77509  -3120647.07006         0.00000  20031647.62306
  23310924.11805  -4122023.91305  -3211963.18402         0.00000  23310927.44402
  23328189.79805   9547503.74105   7439610.94801         0.00000  23328192.41101
 96  9  9 22 23 45.0000000  0  6 23 25 01 21 05 09
  21597959.36908   4993031.84608   3890672.70404         0.00000  21597963.24104
  23287910.16703   -710624.14703   -553732.36801         0.00000  23287918.20901
  20706887.27809  -5011454.04609  -3905027.69206         0.00000  20706890.62106
  20031281.14809  -4006740.88509  -3122134.68807         0.00000  20031284.29007
  23308285.32405  -4135888.22805  -3222766.58102         0.00000  23308289.61102
  23337304.00104   9595401.96804   7476934.05301         0.00000  23337307.19201
 96  9  9 22 24  0.0000000  0  6 23 25 21 01 05 09
  21603853.38408   5024003.39308   3914806.37004         0.00000  21603857.52804
  23278472.78003   -760224.45003   -592382.05201         0.00000  23278480.97701
  20030949.86709  -4008479.85309  -3123489.72806         0.00000  20030953.27606
  20704944.30609  -5021665.71809  -3912984.83407         0.00000  20704947.50607
  23305679.10305  -4149578.11305  -3233433.95101         0.00000  23305685.06101
  23346437.00204   9643405.83104   7514339.70102         0.00000  23346442.47602
 96  9  9 22 24 15.0000000  0  6 23 25 05 01 21 09
  21609773.40808   5055116.29008   3939050.16303         0.00000  21609777.71403
  23269054.34504   -809725.58104   -630954.11801         0.00000  23269060.36001
  23303108.38305  -4163090.19905  -3243963.03001         0.00000  23303114.25801
  20703022.99609  -5031763.58809  -3920853.29307         0.00000  20703026.62807
  20030651.48209  -4010049.08509  -3124712.50506         0.00000  20030656.24206
  23355592.12304   9691512.63704   7551825.52201         0.00000  23355596.16701
 96  9  9 22 24 30.0000000  0  7 23 25 01 21 05 09 15
  21615719.80208   5086361.74508   3963397.26303         0.00000  21615723.31903
  23259654.14904   -859134.33904   -669454.59101         0.00000  23259658.44301
  20701121.75609  -5041754.86309  -3928638.71207         0.00000  20701124.82207
  20030383.95609  -4011456.87309  -3125809.48906         0.00000  20030387.58706
  23300568.18805  -4176429.43705  -3254357.06201         0.00000  23300572.57701
  23364763.04804   9739711.93104   7589383.50701         0.00000  23364767.56101
  24336324.10702    -20492.94602    -15969.02301         0.00000  24336334.73001
 96  9  9 22 24 45.0000000  0  7 23 25 01 21 05 09 15
  21621690.48708   5117738.70508   3987846.83503         0.00000  21621694.67003
  23250268.93904   -908447.34104   -707880.33301         0.00000  23250270.09701
  20699241.01009  -5051638.09209  -3936339.93307         0.00000  20699244.05907
  20030147.26309  -4012700.19709  -3126778.30807         0.00000  20030150.66707
  23298065.14005  -4189590.82805  -3264612.71001         0.00000  23298068.93601
  23373954.66105   9788007.59205   7627016.47001         0.00000  23373959.93601
  24327984.80102    -64318.03202    -50118.12200         0.00000  24327989.28300
 96  9  9 22 25  0.0000000  0  7 23 25 01 21 05 09 15
  21627687.68707   5149255.58507   4012405.43203         0.00000  21627691.14203
  23240904.90304   -957659.56804   -746227.32401         0.00000  23240908.32401
  20697381.88009  -5061407.90309  -3943952.77606         0.00000  20697384.82906
  20029943.97709  -4013769.36309  -3127611.43306         0.00000  20029947.35406
  23295595.18905  -4202568.48905  -3274725.13201         0.00000  23295594.73401
  23383164.69805   9836404.36005   7664728.12901         0.00000  23383170.90501
  24319673.54902   -107997.77102    -84153.83101         0.00000  24319684.57001
 96  9  9 22 25 15.0000000  0  7 23 25 21 01 05 09 15
  21633711.38007   5180913.65907   4037074.05603         0.00000  21633716.60303
  23231558.41704  -1006772.08804   -784496.85001         0.00000  23231566.07701
  20029773.37509  -4014664.66709  -3128309.06606         0.00000  20029776.78406
  20695543.42709  -5071068.21409  -3951480.29307         0.00000  20695546.44407
  23293158.59805  -4215366.45705  -3284697.61601         0.00000  23293157.99601
  23392394.02505   9884900.34505   7702517.15802         0.00000  23392398.63902
  24311386.42703   -151532.94603   -118077.58300         0.00000  24311382.60300
 96  9  9 22 25 30.0000000  0  7 23 25 01 21 05 09 15
  21639760.70107   5212705.17407   4061846.66103         0.00000  21639765.73103
  23222231.16604  -1055792.19904   -822694.26001         0.00000  23222236.20501
  20693724.56009  -5080628.08209  -3958929.52806         0.00000  20693727.51506
  20029634.50209  -4015395.43309  -3128878.49606         0.00000  20029637.97806
  23290755.59905  -4227994.36405  -3294537.56601         0.00000  23290760.74301
  23401641.18406   9933486.36406   7740376.41902         0.00000  23401644.77602
  24303128.60003   -194931.70003   -151895.02301         0.00000  24303144.77501
 96  9  9 22 25 45.0000000  0  7 23 25 01 21 05 09 15
  21645836.23907   5244629.46707   4086722.70403         0.00000  21645841.34003
  23212920.54405  -1104718.09605   -860818.41401         0.00000  23212925.38001
  20691924.93909  -5090083.35009  -3966297.27206         0.00000  20691928.31006
  20029527.16009  -4015958.61409  -3129317.32106         0.00000  20029530.44106
  23288386.08705  -4240453.78905  -3304246.23701         0.00000  23288388.26601
  23410904.15007   9982163.40907   7778306.56602         0.00000  23410905.60202
  24294895.05803   -238192.29003   -185604.44401         0.00000  24294897.46901
 96  9  9 22 26  0.0000000  0  7 23 25 21 01 05 09 15
  21651938.05007   5276694.66007   4111708.56702         0.00000  21651942.55402
  23203630.77005  -1153540.85605   -898862.00701         0.00000  23203635.72501
  20029453.32309  -4016345.91409  -3129619.13706         0.00000  20029456.81806
  20690146.91209  -5099424.49509  -3973576.06506         0.00000  20690150.40606
  23286047.44904  -4252741.04604  -3313820.64102         0.00000  23286051.59302
  23420186.56107  10030940.20907   7816314.44202         0.00000  23420187.19002
  24286690.51503   -281308.20003   -219201.20801         0.00000  24286695.48101
 96  9  9 22 26 15.0000000  0  7 23 25 21 01 05 09 15
  21658068.96908   5308912.44508   4136813.33104         0.00000  21658072.11804
  23194361.67805  -1202249.83505   -936817.05902         0.00000  23194365.42602
  20029414.82909  -4016548.63609  -3129777.09006         0.00000  20029418.58106
  20688393.63809  -5108640.07509  -3980757.04006         0.00000  20688396.81506
  23283743.33004  -4264846.15104  -3323253.26801         0.00000  23283753.25901
  23429490.20507  10079828.66607   7854409.33902         0.00000  23429491.07302
  24278515.05703   -324269.90103   -252677.82601         0.00000  24278522.85701
 96  9  9 22 26 30.0000000  0  7 23 25 01 21 05 09 15
  21664226.25308   5341268.83508   4162026.11203         0.00000  21664229.57403
  23185113.22406  -1250858.63706   -974694.05201         0.00000  23185116.62501
  20686661.22709  -5117742.42509  -3987849.79306         0.00000  20686664.52506
  20029409.21309  -4016579.28809  -3129800.97306         0.00000  20029412.33206
  23281472.46604  -4276784.03404  -3332555.40301         0.00000  23281480.65601
  23438811.18107  10128817.21907   7892582.20202         0.00000  23438813.43502
  24270364.83203   -367090.20503   -286044.17700         0.00000  24270367.09800
 96  9  9 22 26 45.0000000  0  7 23 25 01 21 05 09 15
  21670410.15808   5373762.29708   4187345.69503         0.00000  21670413.32203
  23175881.09406  -1299367.21806  -1012492.90902         0.00000  23175883.75202
  20684951.17809  -5126732.24309  -3994854.83306         0.00000  20684954.37006
  20029436.85209  -4016435.42009  -3129688.87206         0.00000  20029439.95206
  23279232.79604  -4288555.31804  -3341727.81201         0.00000  23279239.59301
  23448153.99407  10177910.01707   7930836.29102         0.00000  23448155.91102
  24262242.95702   -409767.37002   -319299.38100         0.00000  24262245.51500
 96  9  9 22 27  0.0000000  0  7 23 25 01 21 05 09 15
  21676620.74908   5406397.40508   4212775.63903         0.00000  21676624.11203
  23166668.91606  -1347775.09206  -1050213.27802         0.00000  23166672.25102
  20683262.99209  -5135602.91009  -4001767.04006         0.00000  20683266.16906
  20029497.94909  -4016115.11309  -3129439.29206         0.00000  20029501.01006
  23277024.70804  -4300159.32704  -3350769.86001         0.00000  23277030.01801
  23457515.99007  10227111.62207   7969175.11102         0.00000  23457517.04802
  24254149.66002   -452296.84402   -352438.96200         0.00000  24254155.12700
 96  9  9 22 27 15.0000000  0  6 23 25 21 01 05 09
  21682858.03207   5439181.01907   4238321.27603         0.00000  21682862.72903
  23157478.04406  -1396076.24406  -1087850.46101         0.00000  23157481.82401
  20029592.91709  -4015612.24709  -3129047.45705         0.00000  20029595.80105
  20681599.40809  -5144346.70609  -4008580.38406         0.00000  20681602.61506
  23274850.78304  -4311591.58804  -3359678.12201         0.00000  23274849.02801
  23466900.01806  10276428.19006   8007603.63701         0.00000  23466902.86501
 96  9  9 22 27 30.0000000  0  6 23 25 01 21 05 09
  21689122.74207   5472098.79407   4263971.45303         0.00000  21689126.83903
  23148304.11906  -1444279.12206  -1125411.12601         0.00000  23148308.41701
  20679958.49309  -5152970.88909  -4015300.53806         0.00000  20679961.48106
  20029721.07909  -4014940.06109  -3128523.67506         0.00000  20029724.22906
  23272707.29704  -4322858.66104  -3368457.61901         0.00000  23272709.43901
  23476304.69206  10325849.47206   8046113.68702         0.00000  23476306.96102
 96  9  9 22 27 45.0000000  0  7 23 25 01 21 05 09 15
  21695411.80907   5505150.60307   4289726.13903         0.00000  21695415.92503
  23139149.68506  -1492383.74406  -1162895.22602         0.00000  23139154.31102
  20678340.53009  -5161472.21909  -4021924.94506         0.00000  20678342.70106
  20029881.08109  -4014099.33909  -3127868.54805         0.00000  20029884.34605
  23270595.01203  -4333956.25903  -3377105.10601         0.00000  23270594.92401
  23485728.71306  10375376.41506   8084706.07902         0.00000  23485732.63602
  24230040.74302     -5600.06902     -4362.83800         0.00000  24230053.61700
 96  9  9 22 28  0.0000000  0  7 23 25 01 21 05 09 15
  21701729.74608   5538346.05108   4315592.70603         0.00000  21701733.15403
  23130016.64806  -1540378.75106  -1200293.96501         0.00000  23130021.87001
  20676747.80809  -5169842.09609  -4028446.95406         0.00000  20676750.19806
  20030074.25209  -4013081.67709  -3127075.56605         0.00000  20030077.89005
  23268515.83203  -4344872.76703  -3385611.61001         0.00000  23268522.14601
  23495174.71805  10425019.93505   8123389.34901         0.00000  23495181.96701
  24222061.69302    -47533.57502    -37038.24801         0.00000  24222067.48601
 96  9  9 22 28 15.0000000  0  7 23 25 21 01 05 09 15
  21708062.45508   5571625.34408   4341524.60003         0.00000  21708065.54703
  23120892.60107  -1588327.56707  -1237656.65702         0.00000  23120895.81002
  20030289.30309  -4011951.19009  -3126194.68206         0.00000  20030292.81906
  20675167.70109  -5178144.28609  -4034916.18406         0.00000  20675170.17306
  23266461.78103  -4355667.71803  -3394023.07801         0.00000  23266465.13501
  23504630.75005  10474716.24205   8162113.69001         0.00000  23504636.57201
  24214097.64402    -89373.71102    -69641.11601         0.00000  24214101.86301
 96  9  9 22 28 30.0000000  0  7 23 25 01 21 05 09 15
  21714408.66208   5604975.17208   4367511.51703         0.00000  21714412.04903
  23111773.73507  -1636243.00907  -1274993.33201         0.00000  23111778.29001
  20673597.34609  -5186394.11609  -4041344.62707         0.00000  20673600.08807
  20030524.73409  -4010718.14009  -3125233.86806         0.00000  20030528.29806
  23264426.14703  -4366352.48003  -3402348.96901         0.00000  23264425.04501
  23514093.92604  10524452.25504   8200869.09101         0.00000  23514100.89901
  24206152.51303   -131131.72303   -102179.86101         0.00000  24206157.82701
 96  9  9 22 28 45.0000000  0  7 25 21 01 05 23 09 15
  23102661.07006  -1684128.38006  -1312306.58502         0.00000  23102664.40702
  20030779.09509  -4009382.95109  -3124193.46605         0.00000  20030782.41505
  20672037.06609  -5194595.32709  -4047735.18307         0.00000  20672040.27307
  23262413.43503  -4376929.71203  -3410590.83401         0.00000  23262421.53301
  21720767.48208   5638390.76708   4393549.59903         0.00000  21720770.47903
  23523565.09004  10574224.09704   8239652.21902         0.00000  23523569.03102
  24198219.69903   -172810.23803   -134656.60601         0.00000  24198232.79001
 96  9  9 22 29  0.0000000  0  7 23 25 01 21 05 09 15
  21727137.55508   5671867.13908   4419635.07103         0.00000  21727139.99403
  23093554.19307  -1731987.61207  -1349599.48101         0.00000  23093557.18901
  20670484.63409  -5202753.78309  -4054092.42607         0.00000  20670487.73107
  20031050.83709  -4007953.35609  -3123079.48106         0.00000  20031053.88206
  23260418.98203  -4387402.97003  -3418751.89301         0.00000  23260425.36401
  23533043.95104  10624023.45704   8278456.90801         0.00000  23533050.30701
  24190304.06203   -214415.33903   -167076.05301         0.00000  24190317.72801
 96  9  9 22 29 15.0000000  0  7 23 25 21 01 05 09 15
  21733519.23808   5705401.47308   4445765.69703         0.00000  21733522.49203
  23084451.59407  -1779824.98407  -1386875.31402         0.00000  23084454.52102
  20031340.09909  -4006430.73609  -3121893.02506         0.00000  20031343.17406
  20668939.02209  -5210872.94409  -4060419.02607         0.00000  20668942.21907
  23258447.75103  -4397774.17603  -3426833.40501         0.00000  23258452.28301
  23542523.05104  10673844.96404   8317278.86501         0.00000  23542526.60001
  24182401.57003   -255951.19703   -199441.66001         0.00000  24182411.42601
 96  9  9 22 29 30.0000000  0  7 23 25 01 21 05 09 15
  21739913.96408   5739006.62508   4471951.54403         0.00000  21739917.81103
  23075356.11407  -1827624.30207  -1424121.52202         0.00000  23075358.27802
  20667403.51509  -5218942.12409  -4066706.70606         0.00000  20667406.69506
  20031650.93109  -4004797.84909  -3120620.66105         0.00000  20031654.13105
  23256497.04804  -4408027.03504  -3434822.58901         0.00000  23256502.08101
  23552012.25604  10723702.73904   8356128.94501         0.00000  23552018.62801
  24174512.08503   -297402.18403   -231740.68300         0.00000  24174518.79900
 96  9  9 22 29 45.0000000  0  7 23 25 01 21 05 09 15
  21746322.61408   5772681.88008   4498192.01603         0.00000  21746325.88203
  23066266.70107  -1875388.41307  -1461340.26602         0.00000  23066270.24302
  20665876.78009  -5226966.71309  -4072959.62506         0.00000  20665880.01106
  20031983.14709  -4003054.32409  -3119262.06406         0.00000  20031986.48006
  23254567.70503  -4418166.15303  -3442723.13201         0.00000  23254571.13401
  23561507.10004  10773593.70204   8395005.13201         0.00000  23561508.84301
  24166640.02703   -338769.39603   -263975.34201         0.00000  24166652.36401
 96  9  9 22 30  0.0000000  0  7 23 25 01 21 05 09 15
  21752743.94708   5806425.75208   4524485.91203         0.00000  21752747.18803
  23057183.40707  -1923120.92607  -1498534.44202         0.00000  23057186.79702
  20664357.35709  -5234953.11209  -4079182.79806         0.00000  20664360.59406
  20032336.33009  -4001199.14109  -3117816.47306         0.00000  20032339.33606
  23252659.55804  -4428199.19204  -3450541.21201         0.00000  23252665.41401
  23571005.78204  10823513.29804   8433903.45801         0.00000  23571010.64101
  24158784.65903   -380055.71803   -296146.21901         0.00000  24158795.35001
 96  9  9 22 30 15.0000000  0  7 23 25 21 01 05 09 15
  21759177.43307   5840235.80107   4550831.39803         0.00000  21759180.51703
  23048105.65207  -1970824.61207  -1535706.08703         0.00000  23048108.94103
  20032710.10309  -3999232.69609  -3116284.18105         0.00000  20032713.49605
  20662844.51409  -5242903.12709  -4085377.61006         0.00000  20662848.08906
  23250768.62303  -4438131.79903  -3458280.71901         0.00000  23250774.38201
  23580508.90903  10873455.04603   8472819.10601         0.00000  23580517.83301
  24150943.55103   -421265.18603   -328257.84801         0.00000  24150958.40801
 96  9  9 22 30 30.0000000  0  7 23 25 01 21 05 09 15
  21765623.92506   5874118.30206   4577233.34402         0.00000  21765626.98302
  23039034.91208  -2018493.42808  -1572850.62802         0.00000  23039037.19802
  20661339.58309  -5250810.09809  -4091538.87706         0.00000  20661342.84306
  20033106.84009  -3997147.32609  -3114659.22406         0.00000  20033109.84106
  23248899.86004  -4447956.98304  -3465936.74001         0.00000  23248903.11001
  23590018.20304  10923424.97904   8511756.60001         0.00000  23590023.11301
  24143119.64103   -462390.43703   -360303.36001         0.00000  24143123.69701
 96  9  9 22 30 45.0000000  0  7 23 25 01 21 05 09 15
  21772084.67306   5908074.05806   4603692.34903         0.00000  21772088.95603
  23029971.37808  -2066122.66008  -1609964.21702         0.00000  23029974.63702
  20659843.41009  -5258672.36709  -4097665.32306         0.00000  20659846.67706
  20033526.40909  -3994943.38709  -3112941.85505         0.00000  20033529.69905
  23247050.10604  -4457673.36704  -3473508.02901         0.00000  23247052.26901
  23599532.38704  10973423.50804   8550716.45901         0.00000  23599535.33201
  24135307.25003   -503430.93503   -392282.94500         0.00000  24135307.14300
 96  9  9 22 31  0.0000000  0  7 23 25 01 21 05 09 15
  21778557.58206   5942087.68006   4630196.48003         0.00000  21778561.40803
  23020913.10708  -2113726.76608  -1647058.34902         0.00000  23020917.22702
  20658353.11709  -5266503.47609  -4103767.49306         0.00000  20658356.29206
  20033964.95209  -3992639.06209  -3111146.30706         0.00000  20033968.07506
  23245219.32904  -4467297.14604  -3481007.10801         0.00000  23245221.19901
  23609050.67804  11023434.20404   8589685.80901         0.00000  23609053.27301
  24127511.58503   -544402.01803   -424208.27801         0.00000  24127521.19501
 96  9  9 22 31 15.0000000  0  7 23 25 21 01 05 09 15
  21785041.78907   5976158.94107   4656745.47402         0.00000  21785045.14902
  23011858.33608  -2161308.16808  -1684134.73602         0.00000  23011860.59502
  20034422.19009  -3990238.84809  -3109276.00206         0.00000  20034425.32006
  20656868.42709  -5274305.69709  -4109847.13806         0.00000  20656871.64606
  23243405.79704  -4476830.95304  -3488435.95601         0.00000  23243409.88201
  23618569.70504  11073453.99504   8628662.25501         0.00000  23618570.92901
  24119727.04203   -585305.36803   -456081.08701         0.00000  24119729.78001
 96  9  9 22 31 30.0000000  0  7 23 25 01 21 05 09 15
  21791537.89707   6010295.41607   4683345.33003         0.00000  21791542.34703
  23002810.25408  -2208857.02508  -1721185.76802         0.00000  23002813.73102
  20655391.18709  -5282071.92509  -4115898.75006         0.00000  20655394.39206
  20034898.11109  -3987734.66709  -3107324.69406         0.00000  20034901.34606
  23241611.22204  -4486267.43204  -3495789.04501         0.00000  23241614.27001
  23628090.54504  11123492.71704   8667653.51701         0.00000  23628092.33801
  24111959.18103   -626132.06503   -487894.15500         0.00000  24111961.91300
 96  9  9 22 31 45.0000000  0  7 23 25 01 21 05 09 15
  21798044.29407   6044487.95207   4709988.83803         0.00000  21798049.22103
  22993766.04608  -2256379.72308  -1758216.40302         0.00000  22993769.42102
  20653917.57209  -5289811.64909  -4121929.68906         0.00000  20653920.63006
  20035391.78009  -3985140.19709  -3105303.03706         0.00000  20035394.86706
  23239829.73604  -4495616.21604  -3503073.83201         0.00000  23239833.02801
  23637613.91804  11173539.28504   8706650.73301         0.00000  23637617.81001
  24104201.45503   -666891.02603   -519654.26001         0.00000  24104205.56501
 96  9  9 22 32  0.0000000  0  7 23 25 01 21 05 09 15
  21804560.20407   6078726.42607   4736668.16803         0.00000  21804564.78903
  22984726.45308  -2303883.18908  -1795232.07703         0.00000  22984729.63803
  20652448.86909  -5297528.47209  -4127942.80606         0.00000  20652452.35306
  20035901.08909  -3982467.32609  -3103220.28206         0.00000  20035904.28506
  23238068.21504  -4504883.16904  -3510294.86601         0.00000  23238072.18201
  23647137.94304  11223586.06304   8745648.13102         0.00000  23647140.33902
  24096457.74703   -707591.21303   -551368.66301         0.00000  24096459.36001
 96  9  9 22 32 15.0000000  0  7 23 25 21 01 05 09 15
  21811085.24807   6113013.82907   4763385.63203         0.00000  21811089.67603
  22975691.75308  -2351361.57008  -1832228.18102         0.00000  22975694.96802
  20036424.71209  -3979714.58209  -3101075.27506         0.00000  20036427.99306
  20650986.19909  -5305213.21409  -4133930.91606         0.00000  20650989.50006
  23236320.40104  -4514059.03204  -3517444.95501         0.00000  23236323.63201
  23656662.39104  11273639.71404   8784650.84201         0.00000  23656668.86301
  24088724.39003   -748227.45703   -583033.16101         0.00000  24088726.93601
 96  9  9 22 32 30.0000000  0  7 23 25 01 21 05 09 15
  21817621.35607   6147361.20007   4790149.77203         0.00000  21817625.82903
  22966663.92608  -2398799.70308  -1869192.94802         0.00000  22966667.70102
  20649532.30409  -5312853.94209  -4139884.72506         0.00000  20649535.92106
  20036964.90209  -3976873.22209  -3098861.24206         0.00000  20036968.41406
  23234594.52004  -4523126.91704  -3524510.79301         0.00000  23234596.67001
  23666192.40905  11323714.60305   8823670.30101         0.00000  23666195.98501
  24081004.18103   -788786.56003   -614637.85101         0.00000  24081010.51401
 96  9  9 22 32 45.0000000  0  7 23 25 01 21 05 09 15
  21824167.81107   6181761.16907   4816954.94203         0.00000  21824172.30803
  22957643.56708  -2446202.69908  -1906130.32302         0.00000  22957647.02202
  20648085.07209  -5320460.17909  -4145811.65906         0.00000  20648088.95706
  20037520.82709  -3973950.57609  -3096583.86005         0.00000  20037524.53205
  23232888.56704  -4532092.79404  -3531497.02601         0.00000  23232895.39301
  23675724.23205  11373804.23205   8862701.11002         0.00000  23675730.20102
  24073300.07803   -829275.02703   -646187.25201         0.00000  24073314.36101
 96  9  9 22 33  0.0000000  0  7 23 25 01 21 05 09 15
  21830722.38607   6216205.59907   4843794.78903         0.00000  21830725.67203
  22948628.30708  -2493579.25908  -1943047.09403         0.00000  22948631.81003
  20646643.21709  -5328037.50409  -4151716.05106         0.00000  20646646.79606
  20038091.58509  -3970950.82109  -3094246.39005         0.00000  20038095.40005
  23231198.12803  -4540965.61503  -3538410.97301         0.00000  23231202.76801
  23685256.83805  11423900.30805   8901736.94302         0.00000  23685259.52302
  24065609.39703   -869700.09603   -677687.23201         0.00000  24065617.65501
 96  9  9 22 33 15.0000000  0  7 23 25 21 01 05 09 15
  21837284.86507   6250698.36407   4870672.23303         0.00000  21837289.31503
  22939617.44408  -2540928.04208  -1979942.24102         0.00000  22939621.71202
  20038678.01509  -3967868.52109  -3091844.61006         0.00000  20038681.56306
  20645207.80109  -5335583.04209  -4157595.70007         0.00000  20645210.92807
  23229526.45603  -4549742.66303  -3545249.76000         0.00000  23229532.31800
  23694791.87205  11474007.16805   8940781.25402         0.00000  23694795.02002
  24057928.44703   -910057.83203   -709134.96201         0.00000  24057930.63201
 96  9  9 22 33 30.0000000  0  7 23 25 01 21 05 09 15
  21843859.00207   6285246.08507   4897592.50503         0.00000  21843863.85703
  22930614.06708  -2588241.08008  -2016809.48203         0.00000  22930618.08903
  20643779.68909  -5343089.69409  -4163445.03007         0.00000  20643782.85307
  20039282.45409  -3964695.60809  -3089372.19905         0.00000  20039285.89005
  23227877.69003  -4558416.16803  -3552008.73801         0.00000  23227883.37301
  23704329.49904  11524133.36104   8979840.59001         0.00000  23704333.14401
  24050263.67203   -950340.63203   -740524.11701         0.00000  24050267.95001
 96  9  9 22 33 45.0000000  0  7 23 25 01 21 05 09 15
  21850443.79807   6319846.08007   4924553.50903         0.00000  21850447.95703
  22921616.97808  -2635520.63708  -2053650.68103         0.00000  22921619.34303
  20642358.20609  -5350557.93909  -4169264.44806         0.00000  20642360.90406
  20039903.50509  -3961430.67909  -3086828.11105         0.00000  20039906.69405
  23226247.75304  -4566987.49304  -3558687.69901         0.00000  23226251.49701
  23713870.73904  11574276.34404   9018913.16901         0.00000  23713875.87201
  24042612.70503   -990549.09603   -771855.31201         0.00000  24042624.86001
 96  9  9 22 34  0.0000000  0  7 23 25 01 21 05 09 15
  21857036.59507   6354493.95507   4951551.83203         0.00000  21857040.54203
  22912624.96609  -2682777.09809  -2090473.86703         0.00000  22912627.37403
  20640943.92309  -5357992.38809  -4175057.52006         0.00000  20640946.52406
  20040542.09209  -3958076.85309  -3084214.75306         0.00000  20040545.30706
  23224636.56404  -4575462.09604  -3565291.37601         0.00000  23224639.98301
  23723414.58904  11624430.89204   9057994.51101         0.00000  23723420.66401
  24034973.94603  -1030689.13603   -803133.28601         0.00000  24034977.41601
 96  9  9 22 34 15.0000000  0  7 23 25 21 01 05 09 15
  21863639.80707   6389191.86407   4978589.15703         0.00000  21863645.20803
  22903636.71409  -2730010.83709  -2127279.36403         0.00000  22903639.43003
  20041197.89009  -3954628.54409  -3081527.75205         0.00000  20041201.13505
  20639535.22309  -5365392.80409  -4180824.06906         0.00000  20639537.55606
  23223041.21804  -4583838.55304  -3571818.42501         0.00000  23223043.24301
  23732961.31604  11674598.82004   9097086.31701         0.00000  23732968.79101
  24027349.58103  -1070758.80103   -834356.39301         0.00000  24027356.71601
 96  9  9 22 34 30.0000000  0  7 23 25 01 21 05 09 15
  21870255.65007   6423956.65807   5005678.60003         0.00000  21870259.00903
  22894655.71009  -2777209.27509  -2164057.32903         0.00000  22894658.92003
  20638134.84009  -5372749.66509  -4186556.69806         0.00000  20638137.78406
  20041875.05609  -3951069.58109  -3078754.54705         0.00000  20041878.32905
  23221469.94603  -4592103.72703  -3578258.79201         0.00000  23221468.35701
  23742512.39204  11724790.45904   9136196.60801         0.00000  23742519.30901
  24019739.02803  -1110743.05103   -865512.74601         0.00000  24019747.32901
 96  9  9 22 34 45.0000000  0  7 23 25 01 21 05 09 15
  21876883.99807   6458791.55207   5032822.66003         0.00000  21876887.48303
  22885680.68909  -2824372.10009  -2200807.57303         0.00000  22885684.19103
  20636742.78809  -5380064.73209  -4192256.75006         0.00000  20636745.94806
  20042574.87709  -3947396.00209  -3075892.01306         0.00000  20042577.91106
  23219918.95104  -4600259.40004  -3584613.92101         0.00000  23219921.54601
  23752068.71204  11775006.01004   9175325.61201         0.00000  23752074.96501
  24012146.23403  -1150641.15403   -896602.78600         0.00000  24012151.22100
 96  9  9 22 35  0.0000000  0  7 23 25 01 21 05 09 15
  21883525.29007   6493686.28407   5060013.35003         0.00000  21883529.65303
  22876710.06009  -2871513.46509  -2237541.07203         0.00000  22876713.10203
  20635356.83009  -5387346.24509  -4197930.65806         0.00000  20635360.07006
  20043294.14409  -3943616.94209  -3072947.29306         0.00000  20043297.14706
  23218386.32704  -4608318.19004  -3590893.42401         0.00000  23218387.67501
  23761628.50104  11825233.12704   9214463.57101         0.00000  23761634.04701
  24004570.37604  -1190464.21804   -927633.26201         0.00000  24004576.73601
 96  9  9 22 35 15.0000000  0  7 23 25 21 01 05 09 15
  21890177.79307   6528644.83507   5087253.74803         0.00000  21890181.11403
  22867743.47209  -2918631.95009  -2274256.77503         0.00000  22867746.10803
  20044032.97309  -3939732.14709  -3069920.18405         0.00000  20044036.18005
  20633978.07609  -5394592.14509  -4203576.81306         0.00000  20633981.88106
  23216871.71404  -4616276.69404  -3597094.96601         0.00000  23216867.71701
  23771188.10304  11875475.64104   9253613.58701         0.00000  23771191.18801
  23997007.21804  -1230209.03304   -958603.16001         0.00000  23997008.54901
 96  9  9 22 35 30.0000000  0  7 23 25 01 21 05 09 15
  21896844.60908   6563679.55608   5114553.57203         0.00000  21896849.03503
  22858784.22509  -2965712.49009  -2310942.89803         0.00000  22858786.70603
  20632607.86709  -5401791.51409  -4209186.71706         0.00000  20632611.51406
  20044793.60609  -3935732.03409  -3066803.20105         0.00000  20044797.63205
  23215379.85104  -4624121.03504  -3603207.37301         0.00000  23215382.13201
  23780754.30004  11925746.36504   9292785.57602         0.00000  23780757.77502
  23989461.74204  -1269862.35004   -989501.80201         0.00000  23989466.20601
 96  9  9 22 35 45.0000000  0  7 23 25 01 21 05 09 15
  21903524.15407   6598784.22707   5141907.80404         0.00000  21903528.13704
  22849831.32509  -3012758.13309  -2347601.79203         0.00000  22849833.87803
  20631246.04009  -5408949.92609  -4214764.69007         0.00000  20631249.47407
  20045576.48409  -3931618.80009  -3063598.10006         0.00000  20045579.66206
  23213907.31103  -4631851.89203  -3609231.42701         0.00000  23213906.89901
  23790325.60804  11976041.83704   9331976.70201         0.00000  23790329.65101
  23981932.42404  -1309427.72004  -1020332.03501         0.00000  23981935.25701
 96  9  9 22 36  0.0000000  0  7 23 25 01 21 05 09 15
  21910215.75407   6633949.27107   5169309.12503         0.00000  21910220.02203
  22840883.67409  -3059780.10809  -2384242.27303         0.00000  22840885.43603
  20629889.59509  -5416079.39709  -4220320.11906         0.00000  20629892.90706
  20046378.94609  -3927403.85809  -3060313.72905         0.00000  20046382.23205
  23212454.42503  -4639479.37803  -3615175.02200         0.00000  23212448.11500
  23799900.67404  12026351.45504   9371179.07401         0.00000  23799903.83701
  23974416.97804  -1348916.14204  -1051102.22801         0.00000  23974418.95801
 96  9  9 22 36 15.0000000  0  7 23 25 21 01 05 09 15
  21916915.15107   6669152.32307   5196740.10003         0.00000  21916918.69703
  22831936.42809  -3106797.46909  -2420879.16304         0.00000  22831938.92204
  20047195.69809  -3923111.82709  -3056969.31105         0.00000  20047198.77205
  20628534.12909  -5423203.58609  -4225871.43307         0.00000  20628537.32807
  23211019.43303  -4647025.48803  -3621054.63100         0.00000  23211002.44000
  23809474.33304  12076651.47004   9410373.77302         0.00000  23809477.39102
  23966913.42404  -1388350.67404  -1081830.43601         0.00000  23966918.46801
 96  9  9 22 36 30.0000000  0  7 23 25 01 21 05 09 15
  21923625.97407   6704415.79907   5224218.11603         0.00000  21923629.99403
  22822995.27809  -3153783.36809  -2457491.49403         0.00000  22822998.28003
  20627183.90209  -5430296.91509  -4231398.70006         0.00000  20627187.32106
  20048030.32709  -3918719.76309  -3053546.92106         0.00000  20048033.15906
  23209603.34203  -4654466.03303  -3626852.67701         0.00000  23209603.95901
  23819049.32304  12126964.72204   9449578.87901         0.00000  23819049.14901
  23959425.11605  -1427706.17605  -1112496.92001         0.00000  23959431.54601
 96  9  9 22 36 45.0000000  0  7 23 25 01 21 05 09 15
  21930347.79007   6739739.98207   5251743.45303         0.00000  21930351.31803
  22814060.62709  -3200737.23309  -2494078.90503         0.00000  22814063.74203
  20625839.57309  -5437358.77209  -4236901.44106         0.00000  20625843.47306
  20048885.26809  -3914230.28509  -3050048.63205         0.00000  20048888.39805
  23208203.12102  -4661803.33602  -3632571.26302         0.00000  23208208.25302
  23828625.56604  12177291.49204   9488794.54001         0.00000  23828624.42601
  23951948.76504  -1466982.95204  -1143102.25901         0.00000  23951952.70301
 96  9  9 22 37  0.0000000  0  7 23 25 01 21 05 09 15
  21937079.49907   6775118.02507   5279310.73103         0.00000  21937083.53303
  22805130.15809  -3247661.40309  -2530643.16903         0.00000  22805133.16803
  20624501.27809  -5444390.68409  -4242380.85706         0.00000  20624505.67006
  20049757.96409  -3909647.27309  -3046477.44805         0.00000  20049761.09505
  23206824.55002  -4669040.28502  -3638212.39902         0.00000  23206829.49502
  23838205.14104  12227629.49404   9528018.97101         0.00000  23838206.91801
  23944489.12504  -1506184.72304  -1173649.13202         0.00000  23944493.42802
 96  9  9 22 37 15.0000000  0  7 23 25 21 01 05 09 15
  21943821.17907   6810549.29907   5306919.49902         0.00000  21943824.76202
  22796206.47209  -3294555.10609  -2567183.72403         0.00000  22796209.86003
  20050647.65709  -3904972.80909  -3042835.02605         0.00000  20050650.72805
  20623168.85409  -5451391.60909  -4247836.13106         0.00000  20623172.88606
  23205468.15202  -4676174.74202  -3643775.82803         0.00000  23205473.82503
  23847785.61404  12277977.51004   9567251.06501         0.00000  23847788.82001
  23937042.31904  -1545310.59304  -1204136.69501         0.00000  23937050.34201
 96  9  9 22 37 30.0000000  0  7 23 25 01 21 05 09 15
  21950574.91007   6846036.52907   5334571.86303         0.00000  21950578.15203
  22787289.36508  -3341411.89808  -2603695.47403         0.00000  22787293.10303
  20621843.13609  -5458359.37709  -4253265.56106         0.00000  20621847.07406
  20051555.44809  -3900202.58709  -3039117.96806         0.00000  20051557.65606
  23204130.59102  -4683201.91502  -3649261.09906         0.00000  23204135.30606
  23857368.23904  12328339.90204   9606494.35401         0.00000  23857367.65801
  23929613.10804  -1584356.48604  -1234562.15601         0.00000  23929619.89401
 96  9  9 22 37 45.0000000  0  7 23 25 01 21 05 09 15
  21957339.35508   6881579.69108   5362267.80603         0.00000  21957342.53303
  22778380.36108  -3388229.93708  -2640177.00503         0.00000  22778385.18003
  20620524.77109  -5465291.50609  -4258667.20307         0.00000  20620528.04607
  20052482.42309  -3895332.57509  -3035323.16506         0.00000  20052485.37506
  23202817.59603  -4690120.24103  -3654648.92707         0.00000  23202819.51307
  23866954.06604  12378719.20504   9645750.92901         0.00000  23866955.84501
  23922198.41604  -1623319.84004  -1264923.13201         0.00000  23922205.10601
 96  9  9 22 38  0.0000000  0  7 23 25 01 21 05 09 15
  21964112.25408   6917171.39108   5390001.60403         0.00000  21964114.97703
  22769476.57708  -3435021.06908  -2676637.59504         0.00000  22769480.54404
  20619210.51509  -5472197.22609  -4264048.28406         0.00000  20619213.65406
  20053426.20909  -3890374.22709  -3031459.50406         0.00000  20053429.12406
  23201517.74802  -4696942.09002  -3659955.31902         0.00000  23201519.15102
  23876540.46103  12429102.85903   9685010.86700         0.00000  23876545.86600
  23914796.91104  -1662210.44804  -1295227.50501         0.00000  23914805.61301
 96  9  9 22 38 15.0000000  0  7 23 25 21 01 05 09 15
  21970894.71108   6952814.83508   5417775.71803         0.00000  21970897.35403
  22760578.63208  -3481782.23708  -2713074.86903         0.00000  22760582.42103
  20054386.55009  -3885325.45509  -3027525.39706         0.00000  20054389.32506
  20617903.25909  -5479071.60509  -4269404.93106         0.00000  20617906.38906
  23200234.44002  -4703668.92202  -3665193.14802         0.00000  23200237.61402
  23886129.18704  12479490.98104   9724274.35701         0.00000  23886130.41901
  23907410.45504  -1701025.66704  -1325473.08401         0.00000  23907417.46301
 96  9  9 22 38 30.0000000  0  7 23 25 01 21 05 09 15
  21977687.05308   6988508.45608   5445588.90604         0.00000  21977690.57904
  22751686.24608  -3528511.78008  -2749487.44803         0.00000  22751688.99403
  20616601.85409  -5485912.36509  -4274735.40407         0.00000  20616605.00107
  20055364.99709  -3880184.48709  -3023519.44006         0.00000  20055367.25906
  23198979.02303  -4710299.35703  -3670357.60701         0.00000  23198981.78501
  23895718.23904  12529883.84104   9763541.37701         0.00000  23895722.12401
  23900039.72705  -1739763.01205  -1355657.94201         0.00000  23900049.54501
 96  9  9 22 38 45.0000000  0  7 23 25 01 21 05 09 15
  21984489.19508   7024257.44808   5473445.25604         0.00000  21984492.45204
  22742801.19408  -3575204.74008  -2785871.56403         0.00000  22742804.44603
  20615306.90909  -5492714.61009  -4280035.86906         0.00000  20615310.18806
  20056361.90709  -3874946.58609  -3019437.97205         0.00000  20056364.24205
  23197736.83403  -4716826.02003  -3675443.07300         0.00000  23197736.25100
  23905310.78204  12580287.89404   9802817.32001         0.00000  23905313.22401
  23892685.89305  -1778415.27705  -1385776.64901         0.00000  23892691.84701
 96  9  9 22 39  0.0000000  0  7 23 25 01 21 05 09 15
  21991302.04308   7060056.48708   5501340.57003         0.00000  21991305.77503
  22733922.13608  -3621864.66508  -2822229.90503         0.00000  22733925.37303
  20614018.58909  -5499483.61909  -4285310.41607         0.00000  20614021.79107
  20057376.41509  -3869613.89509  -3015282.62406         0.00000  20057379.50906
  23196514.47904  -4723251.70804  -3680449.88301         0.00000  23196521.81101
  23914902.63604  12630697.68104   9842097.60301         0.00000  23914910.16201
  23885344.99705  -1816986.05505  -1415831.83001         0.00000  23885352.98301
 96  9  9 22 39 15.0000000  0  7 23 25 21 01 05 09 15
  21998138.22008   7095977.54908   5529331.05303         0.00000  21998142.59103
  22725062.81308  -3668419.74608  -2858506.59303         0.00000  22725065.21503
  20058423.18809  -3864111.96909  -3010995.40605         0.00000  20058426.45105
  20612750.76609  -5506145.79409  -4290501.71407         0.00000  20612754.13707
  23195322.67904  -4729502.16904  -3685320.14201         0.00000  23195329.52101
  23924510.51405  12681185.95605   9881439.12201         0.00000  23924514.29501
  23878034.93604  -1855401.38204  -1445765.76401         0.00000  23878040.06801
 96  9  9 22 39 30.0000000  0  7 23 25 01 21 05 09 15
  22004995.69107   7132016.90307   5557413.64103         0.00000  22004998.75903
  22716222.83208  -3714878.12908  -2894707.87503         0.00000  22716225.69403
  20611501.82309  -5512708.62009  -4295615.62007         0.00000  20611505.20607
  20059500.69509  -3858447.97309  -3006581.91505         0.00000  20059504.05705
  23194166.28804  -4735585.72804  -3690060.95100         0.00000  23194170.51200
  23934132.03905  12731745.47605   9920836.23901         0.00000  23934137.73601
  23870752.91604  -1893667.07404  -1475583.22001         0.00000  23870760.94001
 96  9  9 22 39 45.0000000  0  7 23 25 01 21 05 09 15
  22011876.30708   7168172.27008   5585586.66604         0.00000  22011880.09504
  22707400.50708  -3761242.03008  -2930835.55503         0.00000  22707403.33603
  20610271.28609  -5519172.32609  -4300652.26106         0.00000  20610274.70806
  20060609.46409  -3852621.08609  -3002041.48006         0.00000  20060612.71106
  23193039.02804  -4741504.31204  -3694672.86201         0.00000  23193046.77401
  23943768.11705  12782377.17605   9960289.44201         0.00000  23943770.52301
  23863500.12604  -1931782.61604  -1505283.48401         0.00000  23863504.72701
 96  9  9 22 40  0.0000000  0  7 23 25 01 21 05 09 15
  22018778.64507   7204446.90307   5613852.61003         0.00000  22018782.86703
  22698594.82308  -3807509.34308  -2966887.99603         0.00000  22698597.87203
  20609061.90109  -5525531.14709  -4305607.18406         0.00000  20609064.99906
  20061749.39909  -3846630.38009  -2997373.40906         0.00000  20061752.54306
  23191946.62404  -4747255.04204  -3699153.95601         0.00000  23191950.01501
  23953417.72306  12833080.60906   9999798.53302         0.00000  23953418.83502
  23856275.26004  -1969744.74504  -1534864.37001         0.00000  23856280.69801
                            2                                                   
            --> ANTENNA STARTED MOVING  <--                 COMMENT             
                 --> MODE: STATIC <--                       COMMENT             
