     2              OBSERVATION DATA    GPS                 RINEX VERSION / TYPE
BIN2RINW                                97 09 25 17 25 25   PGM / RUN BY / DATE 
TOPCON-GEOCOMP RINEX Formatter-Version: 97.08.01            COMMENT             
                                                            COMMENT             
0810                                                        MARKER NAME         
                                                            OBSERVER / AGENCY   
                    Z-XII3              1C00                REC # / TYPE / VERS 
                    Precise Geodetic                        ANT # / TYPE        
  3436403.5300   603282.7800  5321505.3100                  APPROX POSITION XYZ 
LATN  56 55 33.73256   LONE   9 57 25.83735    114.058(m)   COMMENT             
LATN  56 55 33.73256   LONW 350 02 34.16265    114.058(m)   COMMENT             
        1.2019        0.0000        0.0000                  ANTENNA: DELTA H/E/N
| Original slant height(m) :    1.2610   |      _______     COMMENT             
| Offsets used to calculate slant height |     /  GPS  \    COMMENT             
| Antenna Radius (m):           0.1737   |    | ANTENNA |   COMMENT             
| Antenna Vertical Offset (m):  0.0471   |    |_________|   COMMENT             
HEIGHT CALCULATED TO THIS POINT  (ARP*)_______\ |_____|     COMMENT             
*ARP - Antenna Reference Point                /    ^        COMMENT             
     1     1                                                WAVELENGTH FACT L1/2
     5    C1    L1    L2    P1    P2                        # / TYPES OF OBSERV 
  1994     3    17     8    30   20.000000                  TIME OF FIRST OBS   
                                                            END OF HEADER       
                            3  4                                                                                
          --> THIS IS THE START OF A NEW SITE <--           COMMENT             
                                                            COMMENT             
0810                                                        MARKER NAME         
  3435767.0700   607286.3300  5321421.6300                  APPROX POSITION XYZ 
LATN  56 55 30.42116   LONE  10 01 25.46099     80.907(m)   COMMENT             
LATN  56 55 30.42116   LONW 349 58 34.53901     80.907(m)   COMMENT             
        1.2019        0.0000        0.0000                  ANTENNA: DELTA H/E/N
| Original slant height(m) :    1.2610   |      _______     COMMENT             
| Offsets used to calculate slant height |     /  GPS  \    COMMENT             
| Antenna Radius (m):           0.1737   |    | ANTENNA |   COMMENT             
| Antenna Vertical Offset (m):  0.0471   |    |_________|   COMMENT             
HEIGHT CALCULATED TO THIS POINT  (ARP*)_______\ |_____|     COMMENT             
*ARP - Antenna Reference Point                /    ^        COMMENT             
 94  3 17  8 30 20.0000000  0  3 19 27 16                            0.000576429
  22236177.29009    116318.98219     80555.51917  22236177.36309  22236181.76407
  20537895.93209     -9285.48119     -6359.86518  20537896.41209  20537900.31808
  21082570.21009     -8144.74919     -5670.72918  21082570.59209  21082574.65808
 94  3 17  8 30 40.0000000  0  3 19 27 16                            0.000562273
  22242210.11709    148025.69609    105262.00907  22242211.19109  22242215.43907
  20537319.44609    -12316.28709     -8721.55208  20537319.74209  20537323.44108
  21082198.66909    -10096.06409     -7191.26008  21082199.25709  21082203.31708
 94  3 17  8 31  0.0000000  0  3 19 27 16                            0.000547901
  22248208.12909    179539.99709    129818.57207  22248208.27209  22248212.36707
  20536721.60109    -15457.30809    -11169.12408  20536722.07409  20536725.67908
  21081811.78109    -12126.76509     -8773.63808  21081812.90609  21081816.81008
 94  3 17  8 31 20.0000000  0  4 19 27 17 16                         0.000537861
  22254174.86509    210895.42209    154251.34307  22254175.03809  22254179.41807
  20536109.74609    -18676.79409    -13677.82508  20536109.66509  20536113.33808
  23671304.53109   -139212.73319    -96913.98916  23671305.23809  23671309.05106
  21081417.65409    -14202.96509    -10391.46108  21081417.87809  21081421.73408
 94  3 17  8 31 40.0000000  0  4 19 27 17 16                         0.000523143
  22260115.26909    242115.81709    178578.88407  22260115.93209  22260120.28807
  20535486.40409    -21948.59909    -16227.29908  20535487.08109  20535490.64108
  23665096.41509   -171826.20609   -122327.08406  23665098.42909  23665103.09706
  21081018.59909    -16297.33009    -12023.44708  21081019.25709  21081023.18208
 94  3 17  8 32  0.0000000  0  4 19 27 17 16                         0.000508283
  22266036.68909    273234.52009    202827.18707  22266037.46609  22266041.89807
  20534862.64709    -25232.03909    -18785.84208  20534862.24309  20534865.72108
  23658900.13909   -204393.12909   -147703.90606  23658900.97409  23658906.29106
  21080624.88909    -18373.24709    -13641.06208  21080624.38209  21080628.23208
 94  3 17  8 32 20.0000000  0  4 19 27 17 16                         0.000493280
  22271940.77909    304268.44509    227009.42407  22271943.32709  22271947.41907
  20534239.27809    -28502.35809    -21334.15608  20534240.15809  20534243.63008
  23652717.33909   -236891.96709   -173027.67406  23652717.02809  23652721.52806
  21080236.51409    -20408.59609    -15227.06308  21080237.03409  21080241.01108
 94  3 17  8 32 40.0000000  0  4 19 27 17 16                         0.000478134
  22277832.02909    335221.00209    251128.26907  22277833.49509  22277837.80307
  20533622.06909    -31751.25409    -23865.79308  20533621.95709  20533625.31708
  23646547.22009   -269320.77109   -198296.87006  23646546.46809  23646550.79606
  21079858.78709    -22393.19109    -16773.51608  21079859.45709  21079863.41408
 94  3 17  8 33  0.0000000  0  4 19 27 17 16                         0.000462873
  22283709.75009    366099.43109    275189.35107  22283709.52109  22283713.83207
  20533007.30809    -34976.83609    -26379.25108  20533008.11709  20533011.44308
  23640389.84609   -301669.37309   -223503.57306  23640390.72809  23640395.19806
  21079494.66209    -24312.47609    -18269.07608  21079494.27609  21079498.20908
 94  3 17  8 33 20.0000000  0  6 19 27 17 28 26 16                   0.000447648
  22289574.40409    396922.99809    299207.68107  22289575.03409  22289579.57207
  20532401.47409    -38164.51009    -28863.17108  20532401.59109  20532404.88708
  23634254.06509   -333919.38109   -248633.45206  23634253.38909  23634258.03206
  24662377.21708    -82087.14818    -56784.35716  24662378.70508  24662382.94506
  22498400.38809   -238666.08519   -158090.45917  22498401.45109  22498405.55107
  21079144.86709    -26147.51609    -19699.00008  21079145.13809  21079149.26908
 94  3 17  8 33 40.0000000  0  7 19 31 27 17 28 26 16                0.000432156
  22295431.19409    427702.03609    323191.31207  22295431.95209  22295436.67007
  24452104.13909   -170817.80919   -114194.18916  24452102.50009  24452107.16806
  20531804.99109    -41299.20909    -31305.81508  20531805.01909  20531808.42308
  23628136.79409   -366057.50909   -273676.15706  23628137.61809  23628141.89406
  24658461.76708   -102656.67008    -72812.54006  24658463.73108  24658467.70906
  22483611.66209   -316386.30309   -218651.66807  22483612.21809  22483615.82307
  21078813.76409    -27889.54609    -21056.44508  21078813.75609  21078817.79208
 94  3 17  8 34  0.0000000  0  7 19 31 27 17 28 26 16                0.000416603
  22301287.05709    458474.74009    347170.00607  22301287.92309  22301292.82707
  24441862.29909   -224645.66809   -156137.96705  24441860.94809  24441862.73105
  20531226.22809    -44340.56709    -33675.72108  20531226.47009  20531229.84608
  23622051.87109   -398038.92509   -298596.73106  23622051.55009  23622057.04606
  24654572.75408   -123109.26408    -88749.64806  24654571.70108  24654575.26006
  22468813.48609   -394155.58409   -279251.08907  22468813.18009  22468817.01807
  21078507.67909    -29501.25009    -22312.32008  21078507.37209  21078511.39008
 94  3 17  8 34 20.0000000  0  7 19 31 27 17 28 26 16                0.000400961
  22307140.22409    489234.15309    371138.35007  22307141.34109  22307146.00207
  24431633.28509   -278382.59409   -198010.91806  24431634.32709  24431637.87806
  20530663.99409    -47295.41609    -35978.21408  20530664.31909  20530667.62308
  23615993.50209   -429869.51809   -323399.79606  23615994.60009  23615999.71106
  24650701.25208   -143450.20408   -104599.78306  24650701.04308  24650705.67106
  22454003.09309   -471978.38209   -339892.23807  22454003.93109  22454007.95407
  21078223.43209    -30990.10309    -23472.48608  21078223.59609  21078227.95808
 94  3 17  8 34 40.0000000  0  7 19 31 27 17 28 26 16                0.000385252
  22312997.18809    520006.08509    395116.44307  22312996.98909  22313001.78707
  24421432.36409   -331997.75709   -239788.96406  24421432.31309  24421435.66906
  20530123.05709    -50135.48609    -38191.27608  20530123.63209  20530127.06808
  23609971.32809   -461520.61309   -348063.00806  23609971.79509  23609976.20306
  24646857.04508   -163651.40808   -120341.00506  24646856.71708  24646861.50806
  22439192.15509   -549816.77109   -400545.53007  22439191.80309  22439195.50407
  21077968.72609    -32332.39409    -24518.44208  21077968.18709  21077972.47708
 94  3 17  8 35  0.0000000  0  7 19 31 27 17 28 26 16                0.000369470
  22318855.68309    550800.83409    419112.32107  22318857.11509  22318861.64207
  24411253.77909   -385482.87209   -281465.69006  24411254.20109  24411257.90406
  20529606.91109    -52846.36509    -40303.66608  20529607.77009  20529611.18708
  23603984.98509   -492974.74809   -372572.73106  23603985.96809  23603990.77906
  24643041.82908   -183697.28908   -135961.19606  24643041.54708  24643046.99006
  22424380.61109   -627649.30909   -461194.26007  22424381.00909  22424384.61907
  21077742.06609    -33518.12409    -25442.40108  21077742.58509  21077746.97208
 94  3 17  8 35 20.0000000  0  7 19 31 27 17 28 26 16                0.000353609
  22324722.52809    581632.19909    443136.73307  22324724.12509  22324728.89107
  24401102.12309   -438826.38309   -323032.06706  24401103.04009  24401107.22806
  20529119.59009    -55409.94409    -42301.27608  20529119.90309  20529123.40808
  23598039.38809   -524223.45409   -396922.37706  23598039.59209  23598044.61406
  24639261.51708   -203569.77708   -151446.24106  24639260.93408  24639264.86706
  22409572.04309   -705461.48509   -521827.12307  22409573.73709  22409577.42407
  21077547.92609    -34539.06409    -26237.95208  21077548.44309  21077552.89608
 94  3 17  8 35 40.0000000  0  7 19 31 27 17 28 26 16                0.000337669
  22330598.97709    612504.57909    467193.10707  22330598.98809  22330603.62107
  24390978.44109   -492028.49609   -364488.26906  24390979.47109  24390983.41406
  20528661.13309    -57820.51409    -44179.65808  20528661.25809  20528664.80908
  23592133.88409   -555261.16009   -421107.59806  23592133.38909  23592138.22306
  24635513.59808   -223258.67508   -166788.26406  24635514.51808  24635518.26906
  22394771.43009   -783247.40009   -582439.53207  22394771.53109  22394775.06207
  21077385.78709    -35393.01009    -26903.37908  21077385.86609  21077390.34708
 94  3 17  8 36  0.0000000  0  7 19 31 27 17 28 26 16                0.000321658
  22336480.18709    643417.03709    491280.70707  22336481.45209  22336486.05607
  24380881.88409   -545086.88909   -405832.47606  24380882.57609  24380886.70506
  20528229.19409    -60085.30409    -45944.44808  20528230.09709  20528233.77908
  23586266.57809   -586091.49809   -445131.24806  23586266.99309  23586272.22206
  24631800.30508   -242762.91308   -181986.42106  24631801.84608  24631806.91006
  22379973.29809   -861004.73509   -643029.67007  22379974.68309  22379978.16107
  21077254.52409    -36082.07009    -27440.32208  21077254.82109  21077259.18708
 94  3 17  8 36 20.0000000  0  7 19 31 27 17 28 26 16                0.000305583
  22342370.83909    674367.66209    515398.04507  22342371.03709  22342375.81107
  24370814.82508   -597996.73308   -447060.93906  24370813.90308  24370818.72706
  20527825.57509    -62211.58709    -47601.31008  20527825.59709  20527829.24808
  23580437.63609   -616721.20609   -468998.56906  23580438.40709  23580443.15906
  24628126.40908   -262081.99808   -197040.25806  24628126.07408  24628130.84906
  22365182.80209   -938729.59609   -703594.50207  22365184.24109  22365187.71607
  21077154.36209    -36607.92509    -27850.09308  21077154.72909  21077159.09508
 94  3 17  8 36 40.0000000  0  7 19 31 27 17 28 26 16                0.000289448
  22348267.26109    705353.81109    539543.06107  22348267.28609  22348272.59607
  24360772.92609   -650761.51109   -488176.35406  24360772.90609  24360777.65506
  20527444.37009    -64207.27909    -49156.41008  20527445.92909  20527449.47908
  23574645.46609   -647156.90809   -492714.69806  23574646.31209  23574651.45006
  24624483.92508   -281214.77608   -211948.95106  24624485.14408  24624490.01106
  22350398.81209  -1016419.22109   -764131.88307  22350400.41609  22350403.86107
  21077084.72409    -36974.49509    -28135.74508  21077084.83309  21077089.33908
 94  3 17  8 37  0.0000000  0  7 19 31 27 17 28 26 16                0.000273260
  22354169.24009    736376.58109    563716.61007  22354171.01509  22354175.98707
  24350759.55908   -703381.07808   -529178.62206  24350760.32508  24350764.99606
  20527090.35909    -66072.69209    -50609.99208  20527091.06009  20527094.59608
  23568891.87309   -677397.93609   -516279.14206  23568892.11409  23568896.85306
  24620881.98909   -300155.07209   -226707.65506  24620881.36109  24620885.85506
  22335620.31309  -1094076.11709   -824643.76007  22335622.63009  22335625.92307
  21077046.26109    -37176.97409    -28293.53408  21077046.47109  21077050.85808
 94  3 17  8 37 20.0000000  0  8  2 19 31 27 17 28 26 16             0.000257067
  22824107.61209   -323217.00819   -229286.05917  22824108.05709  22824112.49607
  22360079.23109    767433.71709    587916.94407  22360080.94509  22360086.08207
  24340774.62709   -755856.29209   -570068.40106  24340774.49809  24340779.13206
  20526758.25009    -67820.16709    -51971.67508  20526758.57209  20526762.12908
  23563172.20009   -707454.28209   -539699.68706  23563172.05209  23563177.09606
  24617311.04209   -318911.92609   -241323.41806  24617312.25909  24617316.70106
  22320847.85909  -1171712.51209   -885139.66107  22320848.87409  22320852.40707
  21077036.95509    -37221.37409    -28328.14608  21077037.95309  21077042.32508
 94  3 17  8 37 40.0000000  0  8  2 19 31 27 17 28 26 16             0.000240859
  22808204.49209   -406794.21309   -294411.15307  22808203.93209  22808208.24307
  22365998.40109    798532.27809    612149.55307  22365998.97009  22366003.70507
  24330818.27809   -808172.88509   -610834.60106  24330818.89509  24330823.37706
  20526448.48109    -69442.65609    -53235.96508  20526449.86009  20526453.48708
  23557488.39009   -737310.69409   -562964.42206  23557490.80109  23557495.54906
  24613777.55409   -337477.01709   -255789.78906  24613779.03509  24613783.23606
  22306082.04209  -1249317.97209   -945611.45407  22306081.07809  22306084.62307
  21077062.23509    -37092.52409    -28227.75708  21077062.45909  21077066.87208
 94  3 17  8 38  0.0000000  0  8  2 19 31 27 17 28 26 16             0.000224616
  22792311.82209   -490308.68809   -359487.36707  22792311.58609  22792315.82207
  22371923.76209    829672.64109    636414.73907  22371924.77609  22371929.85107
  24320893.04408   -860322.66208   -651470.79406  24320894.37808  24320900.02206
  20526164.98109    -70934.56909    -54398.50908  20526165.99409  20526169.59808
  23551846.44009   -766961.50309   -586068.95306  23551848.28209  23551853.01706
  24610282.44909   -355847.75109   -270104.68006  24610283.71609  24610287.77406
  22291320.87609  -1326881.30109  -1006050.41707  22291321.29209  22291324.79907
  21077121.04209    -36779.66109    -27983.98608  21077122.06309  21077126.36808
 94  3 17  8 38 20.0000000  0  8  2 19 31 27 17 28 26 16             0.000208325
  22776428.91609   -573764.95809   -424518.22907  22776430.38709  22776434.81007
  22377856.55909    860848.42609    660707.52507  22377857.52209  22377862.41507
  24311003.18109   -912306.21809   -691977.46806  24311002.77109  24311008.04806
  20525906.46909    -72290.62909    -55455.19108  20525907.84909  20525911.66708
  23546245.40209   -796409.41809   -609015.37806  23546244.04209  23546249.12006
  24606824.87809   -374028.48609   -284271.48606  24606823.74209  24606828.29506
  22276566.83809  -1404406.51809  -1066459.68107  22276568.73109  22276572.52307
  21077216.37009    -36281.87509    -27596.11808  21077216.72509  21077221.08108
 94  3 17  8 38 40.0000000  0  8  2 19 31 27 17 28 26 16             0.000191981
  22760559.76909   -657166.57709   -489506.50507  22760559.52609  22760564.11107
  22383797.35809    892062.14009    685029.86607  22383797.41509  22383802.17707
  24301142.96608   -964118.01908   -732350.30606  24301143.49908  24301147.83706
  20525676.90609    -73500.34009    -56397.83608  20525677.49509  20525681.42208
  23540680.58509   -825647.64609   -631798.40506  23540680.35609  23540685.94206
  24603399.38909   -392017.91909   -298289.21406  24603400.52809  24603405.07006
  22261823.24309  -1481892.79909  -1126838.60407  22261823.68209  22261827.40207
  21077346.43609    -35593.69409    -27059.88608  21077347.80309  21077352.13008
 94  3 17  8 39  0.0000000  0  8  2 19 31 27 17 28 26 16             0.000175571
  22744698.87909   -740511.15809   -554450.33107  22744699.52909  22744704.23707
  22389743.62409    923313.17909    709381.28607  22389744.32009  22389749.34507
  24291316.40908  -1015752.75708   -772585.18306  24291316.94508  24291323.15706
  20525476.69709    -74552.71009    -57217.87808  20525477.29709  20525481.24508
  23535156.45709   -854669.64209   -654412.95106  23535158.10009  23535163.01906
  24600011.33309   -409821.61009   -312162.23706  24600012.42009  24600017.14906
  22247082.98509  -1559343.71709  -1187189.96807  22247085.00209  22247088.92207
  21077515.89509    -34711.30409    -26372.32608  21077515.66609  21077519.97308
 94  3 17  8 39 20.0000000  0  8  2 19 31 27 17 28 26 16             0.000159105
  22728852.21909   -823791.40109   -619344.02507  22728852.02609  22728856.86907
  22395698.96909    954610.32709    733768.63507  22395699.82209  22395704.77107
  24281525.25908  -1067202.14408   -812675.61806  24281527.46708  24281532.38406
  20525308.34809    -75438.24209    -57907.91808  20525308.71509  20525312.64508
  23529679.44209   -883465.45809   -676851.25706  23529678.21109  23529683.16806
  24596661.96009   -427436.47609   -325888.07806  24596660.66909  24596665.09406
  22232353.11409  -1636754.54609  -1247510.09407  22232354.14809  22232357.93007
  21077720.90709    -33628.43809    -25528.55408  21077721.76609  21077726.19108
 94  3 17  8 39 40.0000000  0  8  2 19 31 27 17 28 26 16             0.000142582
  22713015.61209   -907005.59309   -684186.25207  22713016.78109  22713021.62107
  22401661.32309    985951.59509    758190.36607  22401664.06709  22401668.85107
  24271771.68208  -1118463.42408   -852619.48506  24271772.49708  24271777.68306
  20525172.01309    -76152.24709    -58464.30008  20525172.91209  20525176.73608
  23524242.24609   -912036.67109   -699114.53706  23524241.34909  23524246.39306
  24593343.71209   -444857.36209   -339462.75706  24593345.22109  24593349.28306
  22217629.26309  -1714121.01509  -1307795.65707  22217631.99309  22217635.79307
  21077965.92909    -32344.75909    -24528.30208  21077966.27709  21077970.59508
 94  3 17  8 40  0.0000000  0  8  2 19 31 27 17 28 26 16             0.000125998
  22697192.86309   -990154.69909   -748977.76007  22697194.05809  22697199.06007
  22407635.32309   1017333.54209    782643.79407  22407636.08809  22407640.81907
  24262050.91508  -1169545.68008   -892423.85506  24262051.72408  24262057.13106
  20525069.02509    -76697.21209    -58888.96108  20525069.15209  20525073.08508
  23518845.33009   -940388.61009   -721206.97206  23518846.33709  23518850.78706
  24590064.53709   -462088.33409   -352889.49806  24590066.06109  24590071.20906
  22202917.62709  -1791445.34309  -1368048.38307  22202917.46109  22202921.28707
  21078246.57309    -30867.84609    -23377.47908  21078247.41009  21078251.62108
 94  3 17  8 40 20.0000000  0  8  2 19 31 27 17 28 26 16             0.000109356
  22681385.27909  -1073231.26809   -813712.74807  22681385.08009  22681389.83507
  22413617.75809   1048763.53709    807134.66007  22413616.86209  22413621.84107
  24252364.18508  -1220449.22708   -932088.96306  24252364.93408  24252370.25206
  20524996.95009    -77073.09509    -59181.87208  20524997.55709  20525001.56708
  23513492.55209   -968523.70409   -743130.42006  23513492.67409  23513497.71106
  24586822.34209   -479131.50409   -366169.92806  24586823.30709  24586827.33306
  22188209.99609  -1868732.52909  -1428272.16907  22188210.60309  22188214.22607
  21078561.85609    -29209.09009    -22084.95908  21078562.97709  21078567.30308
 94  3 17  8 40 40.0000000  0  8  2 19 31 27 17 28 26 16             0.000092662
  22665588.98609  -1156232.05109   -878388.68607  22665590.72609  22665595.66007
  22419606.81409   1080250.04309    831669.55907  22419608.31209  22419613.40707
  24242710.70009  -1271175.25509   -971615.73806  24242712.17509  24242717.46606
  20524955.96209    -77287.36509    -59348.85308  20524956.84209  20524960.84408
  23508178.27209   -996441.84209   -764884.82306  23508179.95509  23508185.13406
  24583615.83209   -495987.04309   -379304.13007  24583616.46909  24583620.50007
  22173510.74509  -1945977.37409  -1488462.96207  22173511.36409  22173515.31307
  21078912.27709    -27373.24409    -20654.44808  21078912.39209  21078916.79708
 94  3 17  8 41  0.0000000  0  8  2 19 31 27 17 28 26 16             0.000075918
  22649810.87209  -1239156.31909   -943004.99707  22649810.72909  22649815.76107
  22425608.77209   1111785.93009    856242.93607  22425609.64109  22425614.30607
  24233089.00209  -1321740.88009  -1011017.52806  24233090.30009  24233095.64406
  20524943.49709    -77353.69709    -59400.55608  20524944.33409  20524948.20108
  23502905.43809  -1024152.22309   -786477.32806  23502906.73109  23502911.16106
  24580441.03709   -512660.91009   -392296.75107  24580442.95009  24580447.17907
  22158820.32609  -2023181.75109  -1548622.21807  22158820.02609  22158823.88607
  21079292.58609    -25372.40409    -19095.37308  21079293.25809  21079297.42508
 94  3 17  8 41 20.0000000  0  8  2 19 31 27 17 28 26 16             0.000059130
  22634046.23509  -1322000.61109  -1007558.99007  22634045.97709  22634050.92607
  22431618.28109   1143371.56509    880855.08007  22431620.32209  22431624.83707
  24223496.67809  -1372152.21509  -1050299.10006  24223496.65109  24223502.54006
  20524957.52709    -77281.11009    -59344.00808  20524958.25009  20524962.05408
  23497672.49509  -1051657.18609   -807909.77206  23497672.43809  23497677.70206
  24577304.31309   -529147.45609   -405143.45207  24577305.55309  24577309.35607
  22144135.53409  -2100347.43909  -1608751.33207  22144135.76609  22144139.43607
  21079703.50709    -23206.50209    -17407.67608  21079705.38109  21079709.48308
 94  3 17  8 41 40.0000000  0  8  2 19 31 27 17 28 26 16             0.000042305
  22618298.18009  -1404755.96809  -1072043.68007  22618298.21509  22618303.22107
  22437641.57909   1175014.86709    905512.16407  22437641.81209  22437646.37007
  24213934.63809  -1422397.83909  -1089451.55206  24213935.29209  24213941.39306
  20524997.93709    -77065.87209    -59176.30608  20524999.18009  20525003.07808
  23492479.91109  -1078951.99409   -829178.45606  23492478.93609  23492483.25106
  24574205.13309   -545435.26009   -417835.26807  24574205.99209  24574210.33707
  22129457.37109  -2177463.82009  -1668842.02307  22129461.15009  22129464.76507
  21080149.64809    -20867.78809    -15585.32008  21080150.33209  21080154.55808
 94  3 17  8 42  0.0000000  0  8  2 19 31 27 17 28 26 16             0.000025446
  22602566.72909  -1487420.45209  -1136457.55607  22602567.57709  22602572.93307
  22443672.76809   1206713.70409    930212.51807  22443673.80609  22443678.60707
  24204403.55908  -1472478.45208  -1128475.39906  24204404.73308  24204411.24906
  20525065.95509    -76712.09109    -58900.64908  20525066.46709  20525070.54108
  23487324.32609  -1106033.86509   -850281.21606  23487325.18409  23487330.20406
  24571142.27309   -561529.00709   -430375.89807  24571143.80309  24571147.74207
  22114794.84309  -2254529.47009  -1728893.18407  22114795.90509  22114799.61307
  21080626.69609    -18356.70309    -13628.65108  21080628.03809  21080632.43508
 94  3 17  8 42 20.0000000  0  8  2 19 31 27 17 28 26 16             0.000008563
  22586856.49209  -1569982.75509  -1200791.81507  22586856.37709  22586861.51107
  22449717.61609   1238474.45709    954961.11707  22449717.57709  22449722.59707
  24194908.78809  -1522378.52209  -1167358.57306  24194910.12609  24194915.22406
  20525159.80709    -76215.76809    -58513.92308  20525160.93209  20525165.00808
  23482213.19609  -1132896.17309   -871212.86806  23482213.41109  23482218.44506
  24568117.74309   -577424.58809   -442762.11807  24568118.89109  24568123.30007
  22100140.87109  -2331537.57209  -1788899.50007  22100141.47209  22100145.36407
  21081140.97209    -15666.30709    -11532.25708  21081140.11309  21081144.35808
 94  3 17  8 42 40.0000000  0  8  2 19 31 27 17 28 26 16            -0.000008345
  22571163.34709  -1652447.03109  -1265049.68807  22571163.96309  22571169.13307
  22455770.10209   1270286.14809    979749.40507  22455771.19109  22455776.23307
  24185449.69509  -1572096.58009  -1206099.92106  24185449.22709  24185454.66506
  20525280.67209    -75583.47409    -58021.24708  20525281.29409  20525285.34708
  23477142.38009  -1159539.95509   -891974.25406  23477143.81409  23477148.24006
  24565129.84209   -593124.50809   -454995.82407  24565131.22909  24565135.39907
  22085496.67109  -2408489.83309  -1848862.30207  22085497.95409  22085501.64707
  21081686.48109    -12790.68309     -9291.52808  21081687.46709  21081691.65408
 94  3 17  8 43  0.0000000  0  8  2 19 31 27 17 28 26 16            -0.000025281
  22555488.64709  -1734814.48909  -1329232.11907  22555489.94809  22555495.04607
  22461830.76309   1302135.49509   1004567.04607  22461832.00809  22461837.03707
  24176020.35908  -1621634.45508  -1244700.84606  24176021.16608  24176027.21506
  20525426.98109    -74814.00909    -57421.68508  20525427.79309  20525431.87108
  23472115.32009  -1185962.33709   -912563.13406  23472115.47909  23472120.07806
  24562180.78809   -608630.72209   -467078.57306  24562180.81009  24562184.43506
  22070864.20709  -2485390.76509  -1908785.10907  22070864.51509  22070867.92607
  21082270.11109     -9723.60309     -6901.61308  21082270.99609  21082275.32508
 94  3 17  8 43 20.0000000  0  8  2 19 31 27 17 28 26 16             0.000957747
  22839624.47409   -241670.53609   -165743.31707  22839625.73609  22839630.99807
  22767689.87309   2909431.97709   2257005.82607  22767690.49009  22767695.49807
  24466422.84509    -95568.87309    -55558.82806  24466422.62309  24466428.90706
  20825392.32109   1501510.41309   1170883.04108  20825392.35109  20825396.36508
  23766920.63009    363252.25809    294617.05706  23766920.89309  23766925.79806
  24859055.83209    951466.46309    748581.54206  24859057.47709  24859061.68906
  22356029.86009   -986829.90809   -741075.35307  22356031.19709  22356034.70707
  21382682.09009   1568950.28409   1223233.86408  21382682.76109  21382686.82508
 94  3 17  8 43 40.0000000  0  8  2 19 31 27 17 28 26 16             0.000940740
  22823985.98209   -323860.96509   -229787.80207  22823985.55609  22823990.66407
  22773761.75109   2941348.01409   2281875.42707  22773763.76709  22773768.94707
  24457066.62108   -144729.16508    -93865.55306  24457067.93208  24457073.04106
  20825591.70909   1502561.07309   1171701.71508  20825592.39109  20825596.38908
  23761975.34709    337269.26909    274370.57106  23761976.70809  23761980.96306
  24856175.94509    936334.10409    736790.07106  24856177.69509  24856182.03606
  22341413.33009  -1063639.31009   -800926.83707  22341414.72209  22341418.41007
  21383338.77809   1572395.04209   1225918.07208  21383338.23509  21383342.19308
 94  3 17  8 44  0.0000000  0  8  2 19 31 27 17 28 26 16             0.000923692
  22808360.26209   -405966.06609   -293765.80207  22808361.35209  22808366.69607
  22779842.85409   2973296.86509   2306770.59607  22779843.69909  22779848.69007
  24447747.88509   -193698.26209   -132023.27106  24447749.30909  24447754.89006
  20825818.87409   1503756.22409   1172632.97808  20825819.63809  20825823.62708
  23757073.67909    311507.88709    254296.76206  23757074.75709  23757078.74506
  24853333.03609    921388.96909    725144.50506  24853333.51409  24853337.63606
  22326808.25509  -1140392.66109   -860734.64807  22326809.27109  22326812.52207
  21384028.71509   1576022.87209   1228744.92808  21384028.51809  21384032.60608
 94  3 17  8 44 20.0000000  0  8  2 19 31 27 17 28 26 16             0.000906596
  22792750.41409   -487997.53409   -357686.42007  22792751.22109  22792756.54107
  22785928.19409   3005274.67109   2331688.33107  22785928.86409  22785933.82307
  24438466.35409   -242483.04509   -170037.36606  24438466.18109  24438470.84806
  20826073.38809   1505091.84209   1173673.69508  20826073.99009  20826077.80408
  23752212.23909    285960.86709    234389.99406  23752213.01109  23752217.54706
  24850522.99409    906624.27009    713639.51706  24850523.92209  24850528.00506
  22312212.61109  -1217099.25309   -920506.02407  22312212.53609  22312215.79607
  21384751.39409   1579825.30409   1231707.83908  21384752.24909  21384756.27908
 94  3 17  8 44 40.0000000  0  8  2 19 31 27 17 28 26 16             0.000889442
  22777154.32509   -569964.91409   -421557.10607  22777153.72809  22777158.84607
  22792018.22309   3037277.33409   2356625.43707  22792018.78609  22792023.58207
  24429212.47009   -291097.91809   -207919.08006  24429215.13209  24429220.45606
  20826353.79309   1506563.72409   1174820.59608  20826354.17909  20826357.81808
  23747392.13009    260623.13509    214646.29106  23747391.20409  23747396.24206
  24847748.88209    892038.52809    702273.95606  24847748.62609  24847752.47906
  22297621.79609  -1293765.23109   -980245.75207  22297623.29509  22297626.64507
  21385507.11909   1583795.56909   1234801.53508  21385507.55009  21385511.88908
 94  3 17  8 45  0.0000000  0  8  2 19 31 27 17 28 26 16             0.000872229
  22761568.87809   -651864.90709   -485375.27407  22761568.64109  22761573.71507
  22798114.78009   3069311.97209   2381587.45407  22798114.79409  22798120.00407
  24419993.89909   -339547.28409   -245671.82206  24419995.18409  24420000.34506
  20826660.36609   1508175.88309   1176076.80708  20826661.08509  20826664.64508
  23742608.63509    235493.44109    195064.69006  23742609.22509  23742613.78806
  24845006.39009    877638.38209    691053.03906  24845008.73009  24845012.10806
  22283041.39009  -1370386.87609  -1039950.93307  22283042.84809  22283046.23107
  21386294.75409   1587934.75809   1238026.85208  21386295.16409  21386299.68008
 94  3 17  8 45 20.0000000  0  8  2 19 31 27 17 28 26 16             0.000854949
  22745994.83409   -733705.83909   -549147.42307  22745994.72409  22745999.66407
  22804215.34009   3101374.85909   2406571.48707  22804215.96309  22804221.24507
  24410803.84009   -387843.23909   -283305.00506  24410805.13509  24410810.38906
  20826992.25809   1509919.61009   1177435.53408  20826992.94409  20826996.60908
  23737861.07509    210555.00909    175632.13706  23737863.55609  23737868.22006
  24842300.24009    863417.15709    679971.51206  24842301.81609  24842306.28106
  22268468.24009  -1446973.70309  -1099628.98407  22268469.08309  22268472.46707
  21387108.61809   1592223.06909   1241368.37308  21387111.22909  21387115.52608
 94  3 17  8 45 40.0000000  0  8  2 19 31 27 17 28 26 16             0.000837620
  22730436.21609   -815464.22309   -612855.24907  22730436.71809  22730441.47307
  22810325.38009   3133489.61309   2431595.93707  22810327.43109  22810332.61407
  24401647.86609   -435964.98409   -320802.45106  24401647.50209  24401652.36806
  20827352.62409   1511812.53909   1178910.52208  20827353.13909  20827356.83008
  23733157.87409    185830.00809    156365.88406  23733158.78109  23733163.73806
  24839634.58609    849404.19109    669052.27206  24839635.64109  24839639.58906
  22253905.34609  -1523499.14909  -1159259.20607  22253906.70109  22253910.26607
  21387959.81209   1596683.13109   1244843.72808  21387960.00209  21387964.36608
 94  3 17  8 46  0.0000000  0  8  2 19 31 27 17 28 26 16             0.000820249
  22714895.33809   -897129.68609   -676490.66907  22714896.24209  22714901.16307
  22816447.24309   3165657.76309   2456661.98507  22816449.08109  22816453.87307
  24392523.27009   -483907.85609   -358160.52206  24392524.54709  24392529.90006
  20827741.71509   1513856.09009   1180502.87808  20827741.95309  20827745.70308
  23728493.51009    161322.92609    137269.45406  23728494.60909  23728499.45106
  24837008.39309    835602.45809    658297.66606  24837009.55109  24837013.42606
  22239354.01609  -1599966.37909  -1218844.06607  22239355.37909  22239358.80107
  21388842.21009   1601324.95709   1248460.71508  21388843.31509  21388847.74408
 94  3 17  8 46 20.0000000  0  8  2 19 31 27 17 28 26 16             0.000802834
  22699373.72909   -978707.42409   -740057.73107  22699372.54109  22699377.41707
  22822577.48609   3197871.81409   2481763.81107  22822579.05809  22822583.88607
  24383434.69909   -531678.85709   -395384.64706  24383434.40009  24383439.24106
  20828156.71309   1516041.15909   1182205.50808  20828157.80609  20828161.46308
  23723870.93809    137026.74009    118337.35706  23723871.53109  23723876.20406
  24834420.44809    822000.18609    647698.47206  24834420.49809  24834424.61906
  22224813.66009  -1676389.52709  -1278394.57707  22224812.86509  22224816.19007
  21389760.45509   1606145.70109   1252217.11908  21389760.82609  21389765.06408
 94  3 17  8 46 40.0000000  0  8  2 19 31 27 17 28 26 16             0.000785381
  22683864.99809  -1060190.63909   -803551.13707  22683866.77209  22683871.77407
  22828715.69409   3230131.56609   2506901.24107  22828717.83409  22828722.94407
  24374376.20809   -579273.83409   -432471.62006  24374376.76609  24374381.53506
  20828599.56109   1518369.09709   1184019.46508  20828600.79509  20828604.38508
  23719288.23409    112946.59109     99573.58006  23719289.02709  23719294.03806
  24831868.89809    808599.75209    637256.59506  24831871.05309  24831875.01406
  22210276.97009  -1752762.73709  -1337906.17107  22210279.30609  22210282.85607
  21390711.13309   1611149.04809   1256115.81408  21390712.81509  21390717.12308
 94  3 17  8 47  0.0000000  0  8  2 19 31 27 17 28 26 16             0.000767891
  22668378.92509  -1141570.40509   -866963.93207  22668380.77109  22668385.71507
  22834864.48809   3262439.04809   2532075.86807  22834865.87609  22834870.70907
  24365354.80509   -626681.89609   -469412.96106  24365355.53009  24365360.90706
  20829070.21209   1520845.36209   1185949.00208  20829071.79009  20829075.54608
  23714748.38209     89088.17709     80982.59606  23714749.35309  23714753.51706
  24829358.55009    795404.91909    626974.95106  24829360.21609  24829364.02406
  22195755.51409  -1829078.54109  -1397373.03207  22195756.87409  22195760.39907
  21391700.15309   1616342.04909   1260162.28908  21391701.02609  21391705.45208
 94  3 17  8 47 20.0000000  0  8  2 19 31 27 17 28 26 16             0.000750362
  22652910.91109  -1222854.36009   -930302.07607  22652912.97809  22652917.82507
  22841020.09009   3294782.88309   2557278.81607  22841020.67109  22841025.36007
  24356366.97008   -673901.69308   -506207.57306  24356369.46908  24356375.34206
  20829569.81109   1523468.02609   1187992.61508  20829570.79509  20829574.57608
  23710250.34709     65450.11309     62563.32806  23710250.99809  23710255.55306
  24826884.87109    782404.87709    616845.06106  24826885.93909  24826890.25906
  22181243.84509  -1905342.50209  -1456799.49807  22181244.25009  22181247.73507
  21392722.69309   1621714.81309   1264348.84008  21392723.50409  21392727.93808
 94  3 17  8 47 40.0000000  0  8  2 19 31 27 17 28 26 16             0.000732792
  22637463.06809  -1304047.88609   -993569.75107  22637462.30509  22637467.16707
  22847179.64809   3327156.23609   2582504.76807  22847181.14609  22847185.87407
  24347418.98109   -720931.28309   -542853.98206  24347419.76909  24347425.59006
  20830095.37409   1526229.09009   1190144.07008  20830096.27709  20830100.15408
  23705794.76009     42035.03609     44317.81106  23705794.69209  23705800.21006
  24824446.50209    769587.19909    606857.28406  24824446.68509  24824451.28506
  22166740.61509  -1981559.65809  -1516189.48907  22166740.34309  22166743.96607
  21393779.74709   1627269.28609   1268676.98408  21393780.59009  21393784.85108
 94  3 17  8 48  0.0000000  0  8  2 19 31 27 17 28 26 16             0.000715180
  22622029.59109  -1385151.84209  -1056767.63107  22622028.86009  22622033.61707
  22853346.40809   3359558.72609   2607753.42607  22853347.09809  22853351.89707
  24338506.22109   -767771.95509   -579353.19706  24338507.04909  24338512.17106
  20830647.34609   1529128.84309   1192403.59708  20830648.18309  20830651.94908
  23701381.02909     18842.37909     26245.60806  23701381.74209  23701386.52606
  24822038.37709    756944.95309    597006.18606  24822040.77009  24822043.70606
  22152244.58309  -2057730.37409  -1575543.29207  22152245.42809  22152249.08707
  21394871.92009   1633003.93009   1273145.52008  21394871.74109  21394876.13908
 94  3 17  8 48 20.0000000  0  8  2 19 31 27 17 28 26 16             0.000697528
  22606614.74709  -1466156.70609  -1119888.29907  22606614.30209  22606618.95007
  22859520.81609   3392003.22709   2633034.81107  22859521.32109  22859526.33007
  24329630.82609   -814414.95309   -615698.38106  24329631.35109  24329636.31006
  20831227.71409   1532179.92109   1194781.03808  20831228.90309  20831232.74008
  23697010.64109     -4116.44009      8355.59906  23697013.01609  23697017.84406
  24819669.48309    744487.52709    587299.10506  24819669.86109  24819674.04206
  22137760.14609  -2133836.20609  -1634846.54107  22137763.24709  22137766.60407
  21395998.03209   1638927.24109   1277761.06808  21395998.94909  21396003.27208
 94  3 17  8 48 40.0000000  0  8  2 19 31 27 17 28 26 16             0.000679824
  22591214.96909  -1547077.89909  -1182943.76607  22591215.33409  22591220.13407
  22865697.46609   3424470.66109   2658334.06907  22865699.71309  22865704.33207
  24320787.02909   -860882.85009   -651907.12906  24320788.16809  24320793.55706
  20831835.30009   1535366.46009   1197264.03408  20831835.17509  20831839.12208
  23692685.01509    -26858.76909     -9365.70206  23692685.76509  23692689.98006
  24817332.50809    732201.77909    577725.77906  24817331.44909  24817335.91106
  22123288.50409  -2209888.28609  -1694107.90507  22123290.93909  22123294.43307
  21397157.51109   1645020.45409   1282509.00508  21397158.52509  21397162.75508
 94  3 17  8 49  0.0000000  0  8  2 19 31 27 17 28 26 16             0.000662074
  22575833.17709  -1627904.71109  -1245925.69307  22575834.37209  22575839.26807
  22871880.93709   3456964.72109   2683654.08207  22871882.97409  22871888.06907
  24311980.55109   -907170.06809   -687975.07606  24311980.38509  24311985.38306
  20832466.90709   1538690.99109   1199854.55408  20832468.00809  20832471.83708
  23688397.26509    -49386.24709    -26919.58206  23688398.29109  23688403.45506
  24815028.48209    720095.94709    568292.66206  24815028.94109  24815032.35706
  22108828.15809  -2285882.46009  -1753324.14607  22108830.02409  22108833.42207
  21398350.80709   1651288.14209   1287392.90008  21398351.28109  21398355.44608
 94  3 17  8 49 20.0000000  0  8  2 19 31 27 17 28 26 16             0.000644277
  22560472.22209  -1708635.80809  -1308833.03407  22560471.82909  22560476.64007
  22878071.19909   3489481.11609   2708991.49007  22878070.85209  22878075.83707
  24303205.06009   -953280.76009   -723905.48706  24303205.91409  24303211.26206
  20833125.62509   1542149.54409   1202549.50908  20833126.12609  20833130.10708
  23684152.14109    -71701.46109    -44308.07606  23684151.80609  23684156.92306
  24812756.44009    708167.71109    558997.93406  24812759.32309  24812762.51506
  22094376.59309  -2361822.63909  -1812498.31307  22094379.14109  22094382.38907
  21399575.82009   1657730.80409   1292413.14108  21399577.34909  21399581.40208
 94  3 17  8 49 40.0000000  0  8  2 19 31 27 17 28 26 16             0.000626445
  22545129.17209  -1789260.29409  -1371657.30807  22545129.56709  22545134.32307
  22884262.78109   3522026.16209   2734351.23007  22884264.01609  22884268.61807
  24294462.88609   -999214.84009   -759698.27206  24294464.01609  24294469.37006
  20833809.29709   1545741.15709   1205348.14708  20833809.62209  20833813.55708
  23679944.16909    -93801.78009    -61529.11806  23679946.29809  23679951.22006
  24810522.72009    696423.33009    549846.47606  24810523.83309  24810528.13306
  22079938.03309  -2437707.23109  -1871629.16607  22079938.59409  22079942.05807
  21400838.34609   1664354.78409   1297574.66708  21400837.86509  21400842.09008
 94  3 17  8 50  0.0000000  0  8  2 19 31 27 17 28 26 16             0.000608580
  22529809.61309  -1869766.58309  -1434389.47407  22529809.76409  22529814.49607
  22890463.42509   3554610.17509   2759741.33407  22890464.70009  22890469.57207
  24285757.16509  -1044966.88809   -795349.21706  24285758.08209  24285763.80006
  20834519.75709   1549477.99509   1208259.94808  20834520.92609  20834524.80208
  23675781.38109   -115684.07609    -78580.26506  23675782.35409  23675787.10806
  24808325.82109    684880.92109    540852.36506  24808327.54909  24808332.90706
  22065509.67709  -2513523.23309  -1930706.57007  22065511.37809  22065514.73607
  21402134.00509   1671165.09209   1302881.38408  21402134.00309  21402138.12808
 94  3 17  8 50 20.0000000  0  8  2 19 31 27 17 28 26 16             0.000590682
  22514512.47009  -1950150.63809  -1497026.39707  22514513.14709  22514517.97507
  22896671.54709   3587232.91009   2785161.60907  22896672.68909  22896677.47907
  24277086.27509  -1090533.96409   -830856.03106  24277087.84509  24277092.24506
  20835260.12509   1553365.17309   1211288.89608  20835260.42809  20835264.32008
  23671659.05309   -137347.77009    -95461.07906  23671660.18509  23671665.03206
  24806168.69908    673545.30908    532019.44105  24806170.03108  24806173.55505
  22051096.32109  -2589266.72809  -1989727.47607  22051097.92409  22051101.27007
  21403466.21109   1678163.57509   1308334.73008  21403465.62409  21403469.77208
 94  3 17  8 50 40.0000000  0  8  2 19 31 27 17 28 26 16             0.000572756
  22499242.28409  -2030398.91609  -1559557.51807  22499242.34209  22499247.29507
  22902886.93509   3619900.16109   2810616.57507  22902888.71609  22902893.91307
  24268454.32209  -1135901.63509   -866207.47106  24268454.05209  24268459.70506
  20836031.18009   1557415.28709   1214444.80808  20836031.03209  20836035.08508
  23667580.62409   -158782.09609   -112163.15706  23667581.45609  23667585.82106
  24804052.69808    662427.86108    523356.50606  24804054.38908  24804060.23706
  22036699.18109  -2664930.12809  -2048685.97007  22036699.62609  22036703.11607
  21404833.87709   1685357.23009   1313940.15708  21404834.43509  21404838.74808
 94  3 17  8 51  0.0000000  0  8  2 19 31 27 17 28 26 16             0.000554809
  22483997.76909  -2110504.95409  -1621977.80507  22483998.45309  22484003.49707
  22909113.43509   3652620.53309   2836112.92407  22909115.25009  22909120.78707
  24259861.76509  -1181053.29609   -901390.59206  24259861.71909  24259866.47806
  20836832.45809   1561635.64209   1217733.37408  20836834.20609  20836838.24408
  23663546.63509   -179978.49009   -128679.82606  23663547.93909  23663552.41606
  24801981.47408    651538.24608    514871.03305  24801981.93108  24801987.29005
  22022317.31209  -2740507.80309  -2107577.66707  22022317.54209  22022320.92707
  21406240.43709   1692748.88909   1319699.87008  21406241.03009  21406245.22808
 94  3 17  8 51 20.0000000  0  8  2 19 31 27 17 28 26 16             0.000536834
  22468778.71209  -2190478.50509  -1684294.85207  22468779.95109  22468785.01407
  22915351.91509   3685394.01409   2861650.65907  22915351.98909  22915357.35607
  24251310.28009  -1225988.24009   -936404.86306  24251311.79809  24251315.86806
  20837668.11109   1566026.67309   1221154.93408  20837669.78309  20837673.90008
  23659558.87509   -200934.27309   -145009.01206  23659559.80109  23659564.55906
  24799950.77008    640868.54108    506556.94305  24799951.58008  24799956.78605
  22007949.94509  -2816002.87009  -2166404.99407  22007951.21109  22007954.66507
  21407683.85209   1700333.14309   1325609.65908  21407684.51909  21407688.61308
 94  3 17  8 51 40.0000000  0  8  2 19 31 27 17 28 26 16             0.000518812
  22453581.15309  -2270348.76509  -1746531.41607  22453581.23109  22453586.40007
  22921595.21209   3718203.67409   2887216.58707  22921595.56509  22921600.94307
  24242795.67409  -1270728.53809   -971267.45006  24242797.41109  24242802.55006
  20838533.04809   1570567.25809   1224693.03208  20838533.82909  20838537.89308
  23655611.64709   -221672.38409   -161168.58906  23655613.59509  23655618.39906
  24797958.04808    630397.83808    498397.93205  24797959.65608  24797964.45905
  21993594.94209  -2891431.99709  -2225180.93907  21993597.80409  21993601.21907
  21409157.99809   1708084.38909   1331649.57108  21409159.45909  21409163.87408
 94  3 17  8 52  0.0000000  0  8  2 19 31 27 17 28 26 16             0.000500741
  22438402.52309  -2350116.72009  -1808688.26007  22438401.76809  22438407.06307
  22927846.63209   3751058.91309   2912818.02907  22927847.69209  22927853.00407
  24234322.77109  -1315263.10809  -1005969.74206  24234323.19009  24234327.36606
  20839427.77809   1575264.45309   1228353.16208  20839427.85709  20839431.82308
  23651707.90109   -242186.76109   -177153.81806  23651709.82409  23651714.53506
  24796002.55508    620129.64708    490396.69705  24796005.50308  24796010.24405
  21979258.58909  -2966782.65909  -2283895.74607  21979259.04709  21979262.36707
  21410668.48809   1716008.29609   1337824.02208  21410667.27609  21410671.77708
 94  3 17  8 52 20.0000000  0  8  2 19 31 27 17 28 26 16             0.000482619
  22423238.97609  -2429793.68809  -1870774.20507  22423239.67209  22423245.02107
  22934104.87909   3783948.05009   2938445.88607  22934106.51609  22934111.83307
  24225886.15009  -1359594.70909  -1040513.87906  24225886.99209  24225891.05006
  20840348.78609   1580107.35009   1232126.82808  20840349.34609  20840353.39208
  23647847.80709   -262479.30209   -192966.20006  23647848.39509  23647853.01106
  24794088.07008    610049.45408    482541.97605  24794086.95508  24794092.40205
  21964933.34609  -3042062.07109  -2342555.03207  21964933.64609  21964937.13807
  21412208.83909   1724101.89109   1344130.69708  21412207.39409  21412211.93008
 94  3 17  8 52 40.0000000  0  8  2 19 31 27 17 28 26 16             0.000464450
  22408093.27509  -2509383.55909  -1932792.28107  22408094.12209  22408099.38107
  22940367.58709   3816861.23809   2964092.47807  22940369.38709  22940374.95307
  24217487.38709  -1403728.94509  -1074904.23106  24217488.31909  24217492.79006
  20841294.34809   1585080.72509   1236002.16408  20841295.61509  20841299.61908
  23644027.43509   -282552.46409   -208607.64706  23644028.63509  23644033.14606
  24792204.51208    600152.00808    474829.63105  24792203.93008  24792209.21505
  21950619.15909  -3117278.44909  -2401165.20007  21950620.39909  21950623.92407
  21413777.53209   1732358.57609   1350564.45708  21413778.68409  21413783.16408
 94  3 17  8 53  0.0000000  0  8  2 19 31 27 17 28 26 16             0.000446239
  22392965.26609  -2588888.98809  -1994744.55807  22392964.91509  22392970.03707
  22946636.68309   3849800.21009   2989759.16307  22946637.56809  22946642.92907
  24209126.39409  -1447662.72809  -1109138.37606  24209127.93909  24209132.39606
  20842264.66109   1590177.36009   1239973.54608  20842265.53609  20842269.64408
  23640249.43509   -302410.51909   -224081.47806  23640249.79709  23640254.11106
  24790352.91708    590436.27908    467258.92305  24790355.62608  24790360.88005
  21936317.00009  -3192434.80609  -2459728.59507  21936318.39909  21936322.07607
  21415380.13009   1740775.96609   1357123.44308  21415380.53909  21415385.01308
 94  3 17  8 53 20.0000000  0  8  2 19 31 27 17 28 26 16             0.000427987
  22377852.35309  -2668300.36409  -2056623.55007  22377853.33309  22377858.60307
  22952910.56309   3882774.77309   3015453.59207  22952912.37209  22952917.94707
  24200805.02809  -1491393.25709  -1143214.14206  24200807.11909  24200811.57406
  20843259.72809   1595405.48009   1244047.38208  20843260.47509  20843264.54508
  23636510.94609   -322047.14709   -239382.76606  23636513.01209  23636517.45006
  24788538.63708    580907.25708    459833.70605  24788541.73308  24788546.47505
  21922029.04309  -3267521.51409  -2518237.71707  21922029.93709  21922033.77107
  21417015.84209   1749369.22109   1363819.46508  21417015.89309  21417020.25808
 94  3 17  8 53 40.0000000  0  7  2 19 31 27 17 26 16                0.000409639
  22362758.34709  -2747619.46409  -2118430.64107  22362759.58209  22362764.73407
  22959192.40909   3915776.50209   3041169.18307  22959192.61709  22959197.81507
  24192522.97009  -1534926.02509  -1177135.82606  24192522.95609  24192526.97806
  20844277.33709   1600755.49009   1248216.20008  20844278.65809  20844282.54708
  23632816.27509   -341468.75109   -254516.48406  23632817.22509  23632821.52306
  21907754.22409  -3342541.73709  -2576695.03507  21907754.00109  21907757.91107
  21418684.13709   1758136.82809   1370651.34608  21418684.28009  21418688.55208
 94  3 17  8 54  0.0000000  0  7  2 19 31 27 17 26 16                0.000391334
  22347688.85409  -2826814.30409  -2180140.90807  22347689.38109  22347694.40507
  22965480.01009   3948823.24809   3066919.85007  22965481.26009  22965486.76507
  24184279.93409  -1578236.14909  -1210884.01606  24184280.96709  24184285.88806
  20845323.71109   1606250.38909   1252497.92108  20845324.33309  20845328.33008
  23629166.54109   -360647.53509   -269460.99106  23629167.59409  23629172.05506
  21893493.94709  -3417476.21509  -2635085.53807  21893494.64309  21893498.38207
  21420389.00709   1767103.46809   1377638.31508  21420390.48209  21420394.92608
 94  3 17  8 54 20.0000000  0  7  2 19 31 27 17 26 16                0.000373013
  22332641.42109  -2905882.75309  -2241752.68307  22332643.06709  22332648.07907
  22971775.79909   3981905.66709   3092698.31307  22971776.61309  22971781.85907
  24176080.15609  -1621328.24609  -1244462.30606  24176080.86609  24176084.78606
  20846396.79809   1611883.77909   1256887.55208  20846396.37109  20846400.36608
  23625563.24209   -379585.61109   -284217.92906  23625563.90609  23625568.36906
  21879246.96709  -3492334.65609  -2693416.79607  21879249.68609  21879253.40507
  21422132.59209   1776258.79809   1384772.31308  21422132.97409  21422137.17508
 94  3 17  8 54 40.0000000  0  7  2 19 31 27 17 26 16                0.000354680
  22317622.11009  -2984815.60309  -2303258.79507  22317622.79409  22317627.72807
  22978077.77909   4015029.20909   3118508.82807  22978079.78609  22978085.23007
  24167920.94009  -1664201.17209  -1277869.82506  24167922.26709  24167926.34206
  20847494.67709   1617659.95609   1261388.44808  20847495.65109  20847499.53808
  23622004.87109   -398285.05009   -298788.92706  23622005.70809  23622009.99906
  21865015.74309  -3567116.50509  -2751688.37107  21865019.13009  21865022.77207
  21423909.54909   1785601.14009   1392052.04508  21423910.70909  21423914.90808
 94  3 17  8 55  0.0000000  0  7  2 19 31 27 17 26 16                0.000336334
  22302630.75009  -3063601.50209  -2364650.40507  22302630.32609  22302635.20107
  22984394.10309   4048214.22909   3144367.24107  22984394.62709  22984400.08107
  24159807.25309  -1706844.60509  -1311098.50706  24159807.86609  24159812.48506
  20848623.87209   1623598.31109   1266015.71808  20848625.67409  20848629.57908
  23618494.10409   -416740.02009   -313169.42006  23618493.77809  23618498.06206
  21850804.53409  -3641807.92309  -2809889.47907  21850805.76609  21850809.50507
  21425725.07809   1795140.07909   1399484.96408  21425725.88609  21425730.12708
 94  3 17  8 55 20.0000000  0  7  2 19 31 27 17 26 16                0.000317961
  22287661.32809  -3142253.80409  -2425937.91307  22287663.33809  22287668.18307
  22990717.13109   4081448.88809   3170264.33607  22990719.09909  22990724.79507
  24151733.00109  -1749276.88709  -1344162.64906  24151733.06309  24151737.93006
  20849783.89609   1629692.18709   1270764.17208  20849785.25509  20849789.25708
  23615026.74709   -434959.64109   -327366.52606  23615026.46109  23615030.80706
  21836605.58709  -3716418.96709  -2868027.96407  21836607.92209  21836611.23507
  21427574.56709   1804868.38109   1407065.43308  21427576.92209  21427581.43708
 94  3 17  8 55 40.0000000  0  7  2 19 31 27 17 26 16                0.000299567
  22272721.73809  -3220768.79909  -2487118.43007  22272722.44709  22272727.38807
  22997052.37209   4114736.02409   3196202.32007  22997053.39409  22997059.09907
  24143699.59009  -1791491.06109  -1377056.84806  24143699.50109  24143704.63206
  20850973.65609   1635944.36709   1275635.97708  20850974.95809  20850978.99808
  23611605.00109   -452934.67109   -341373.04606  23611605.87509  23611610.19906
  21822423.65109  -3790946.16809  -2926101.11707  21822425.88209  21822429.39307
  21429462.98309   1814787.65409   1414794.71108  21429464.63509  21429469.09708
 94  3 17  8 56  0.0000000  0  7  2 19 31 27 17 26 16                0.000281153
  22257807.18009  -3299144.03709  -2548190.04907  22257808.09809  22257813.11107
  23003398.13909   4148075.28809   3222180.92807  23003397.66909  23003403.28807
  24135708.76109  -1833482.82009  -1409777.71706  24135709.27709  24135714.14706
  20852194.63009   1642357.95709   1280633.55808  20852195.52309  20852199.61008
  23608231.42609   -470664.78909   -355188.73206  23608231.85509  23608236.72706
  21808259.03609  -3865389.65709  -2984109.03607  21808259.89909  21808263.50207
  21431386.70009   1824894.54109   1422670.18308  21431387.94209  21431392.29108
 94  3 17  8 56 20.0000000  0  7  2 19 31 27 17 26 16                0.000262712
  22242917.89509  -3377383.62809  -2609155.96707  22242919.48009  22242924.49107
  23009750.28409   4181468.93609   3248201.91407  23009752.26409  23009758.02507
  24127759.77909  -1875250.77009  -1442324.20706  24127760.83509  24127765.66006
  20853446.02609   1648931.85809   1285756.05708  20853446.56709  20853450.62208
  23604900.27509   -488159.48809   -368820.97206  23604902.86809  23604907.34206
  21794110.03609  -3939747.70809  -3042050.38307  21794110.27409  21794113.71207
  21433345.48109   1835187.64009   1430690.75208  21433346.62709  21433351.10508
 94  3 17  8 56 40.0000000  0  7  2 19 31 27 17 26 16                0.000244242
  22228056.82609  -3455485.84809  -2670014.83907  22228057.15709  22228061.99207
  23016117.59309   4214924.07909   3274270.81907  23016118.64509  23016124.11707
  24119856.07109  -1916791.08009  -1474693.29506  24119856.62109  24119861.07206
  20854729.19009   1655675.73309   1291011.00208  20854729.99909  20854734.03508
  23601616.33109   -505419.08209   -382270.01506  23601618.28709  23601622.96106
  21779979.34809  -4014012.24909  -3099918.86307  21779978.05409  21779981.32207
  21435341.23309   1845676.44309   1438863.81508  21435342.53609  21435347.21608
 94  3 17  8 57  0.0000000  0  7  2 19 31 27 17 26 16                0.000225741
  22213218.78009  -3533454.14409  -2730769.35707  22213220.16909  22213225.08507
  23022495.56109   4248438.19309   3300385.68207  23022495.94609  23022501.97207
  24111993.00609  -1958103.43309  -1506884.75706  24111994.22109  24111998.48406
  20856044.29509   1662588.30809   1296397.40408  20856045.43709  20856049.40708
  23598378.07609   -522443.78609   -395536.02806  23598378.67309  23598383.41306
  21765864.36409  -4088176.76209  -3157709.40207  21765864.93209  21765868.33207
  21437374.91409   1856360.94909   1447189.37608  21437375.67209  21437380.19908
 94  3 17  8 57 20.0000000  0  7  2 19 31 27 17 26 16                0.000207209
  22198410.22109  -3611284.99809  -2791416.77107  22198409.81009  22198414.52307
  23028883.28209   4282007.94109   3326543.89107  23028884.23309  23028890.06107
  24104176.24009  -1999183.92809  -1538895.54606  24104177.45809  24104183.09106
  20857392.09509   1669671.47509   1301916.73208  20857393.38509  20857397.30108
  23595184.66509   -539228.14109   -408614.74906  23595185.15209  23595189.22806
  21751770.89209  -4162235.28009  -3215417.34508  21751771.99609  21751775.60108
  21439446.62709   1867245.29209   1455670.65308  21439446.96209  21439451.53208
 94  3 17  8 57 40.0000000  0  7  2 19 31 27 17 26 16                0.000188648
  22183622.56409  -3688979.00409  -2851957.55307  22183625.06209  22183629.61107
  23035279.97609   4315625.87009   3352739.64907  23035281.39109  23035287.68907
  24096405.34409  -2040029.20309  -1570723.03006  24096405.39509  24096409.79106
  20858771.48809   1676918.59709   1307563.81808  20858772.56409  20858776.33308
  23592034.55109   -555778.55809   -421511.18606  23592035.46109  23592039.90506
  21737698.64009  -4236187.51109  -3273042.46907  21737699.05109  21737702.75407
  21441554.66309   1878321.91009   1464301.74908  21441554.96709  21441559.35208
 94  3 17  8 58  0.0000000  0  7  2 19 31 27 17 26 16                0.000170054
  22168866.94409  -3766529.46609  -2912386.48807  22168867.57009  22168872.16407
  23041686.28709   4349291.19209   3378972.32507  23041688.06009  23041693.83207
  24088675.83809  -2080641.17209  -1602368.73006  24088677.01309  24088681.20506
  20860181.84709   1684330.63209   1313339.40908  20860182.96409  20860186.78808
  23588929.17109   -572101.10709   -434230.06706  23588929.24809  23588933.92606
  21723646.52909  -4310028.60009  -3330580.98407  21723647.50309  21723651.25607
  21443697.75909   1889590.71109   1473082.60008  21443699.27209  21443703.82908
 94  3 17  8 58 20.0000000  0  7  2 19 31 27 17 26 16                0.000151425
  22154137.20609  -3843932.72509  -2972700.71707  22154138.24809  22154142.93307
  23048102.67209   4383011.45309   3405247.82007  23048104.68209  23048110.30607
  24080989.96408  -2121021.31908  -1633833.79606  24080992.06808  24080996.51206
  20861625.27309   1691911.20109   1319246.32708  20861625.47909  20861629.33808
  23585866.87709   -588194.87009   -446770.66506  23585866.90609  23585871.11006
  21709616.93809  -4383752.28709  -3388028.01807  21709618.48609  21709622.27407
  21445880.88009   1901056.07509   1482016.61708  21445881.19309  21445885.76008
 94  3 17  8 58 40.0000000  0  7  2 19 31 27 17 26 16                0.000132757
  22139435.53009  -3921194.91009  -3032905.01607  22139435.74109  22139440.57307
  23054529.82109   4416779.91409   3431560.87307  23054530.79709  23054536.77207
  24073349.79509  -2161179.87609  -1665126.17206  24073350.54309  24073355.05106
  20863098.47409   1699656.06809   1325281.26508  20863099.13409  20863103.13108
  23582846.32509   -604062.16009   -459134.80606  23582847.45909  23582851.56206
  21695608.97009  -4457366.90609  -3445390.06007  21695610.21109  21695613.86607
  21448097.43409   1912709.50809   1491097.18108  21448098.95609  21448103.35408
 94  3 17  8 59  0.0000000  0  7  2 19 31 27 17 26 16                0.000114060
  22124761.65409  -3998306.04909  -3092991.61707  22124761.87209  22124766.53307
  23060966.77809   4450599.09909   3457913.44807  23060967.00309  23060971.96007
  24065751.05709  -2201114.10109  -1696243.74206  24065751.65509  24065755.24806
  20864603.44409   1707563.45709   1331442.84308  20864603.89909  20864607.90108
  23579871.33409   -619695.89309   -471316.94006  23579872.88709  23579877.07906
  21681620.34809  -4530867.53709  -3502663.28207  21681623.37809  21681627.31607
  21450351.69709   1924551.50809   1500324.67008  21450352.39609  21450356.89808
 94  3 17  8 59 20.0000000  0  7  2 19 31 27 17 26 16                0.000095340
  22110116.66309  -4075259.09909  -3152955.02707  22110118.20409  22110122.87507
  23067411.23909   4484470.99709   3484307.09507  23067412.10909  23067417.81207
  24058195.00109  -2240818.87009  -1727182.50806  24058195.86509  24058200.72206
  20866138.37409   1715632.75009   1337730.58108  20866139.44609  20866143.55108
  23576941.51409   -635093.16909   -483314.82706  23576942.90209  23576947.00106
  21667657.01209  -4604255.47609  -3559848.69008  21667658.27309  21667662.17008
  21452642.31409   1936583.99809   1509700.59508  21452642.05209  21452646.70208
 94  3 17  8 59 40.0000000  0  7  2 19 31 27 17 26 16                0.000076600
  22095504.70709  -4152051.77509  -3212793.47507  22095505.07409  22095509.61507
  23073867.54409   4518399.21409   3510744.63507  23073868.52009  23073874.06107
  24050682.74209  -2280291.69409  -1757940.55806  24050684.29609  24050689.11706
  20867704.11509   1723861.20309   1344142.33908  20867705.38209  20867709.46008
  23574056.40109   -650250.20809   -495125.51506  23574058.11209  23574062.94506
  21653713.96709  -4677530.64409  -3616946.22808  21653714.41909  21653718.18808
  21454967.27409   1948808.97009   1519226.50308  21454968.40909  21454973.07408
 94  3 17  9  0  0.0000000  0  7  2 19 31 27 17 26 16                0.000057860
  22080925.86809  -4228664.24709  -3272491.50407  22080926.23209  22080930.90107
  23080340.03609   4552407.08909   3537244.24807  23080339.74109  23080345.17807
  24043218.59809  -2319517.94109  -1788506.44606  24043218.96209  24043223.42106
  20869304.13109   1732265.63309   1350691.22008  20869304.69809  20869308.74308
  23571222.89909   -665144.40709   -506731.39506  23571224.04909  23571228.42206
  21639794.84409  -4750677.54109  -3673943.81308  21639795.05209  21639798.59008
  21457335.13609   1961248.72009   1528919.77208  21457335.59809  21457340.33208
 94  3 17  9  0 20.0000000  0  7  2 19 31 27 17 26 16                0.000039106
  22066374.79909  -4305127.18609  -3332073.01207  22066375.70509  22066380.57007
  23086820.86909   4586468.65309   3563785.68607  23086821.91609  23086827.39007
  24035796.60209  -2358520.19209  -1818897.81606  24035797.67209  24035802.15206
  20870930.31009   1740815.52209   1357353.44808  20870931.65309  20870935.62908
  23568434.22209   -679801.04209   -518152.16606  23568434.80109  23568439.30406
  21625894.60709  -4823726.41109  -3730865.01408  21625894.71709  21625898.10108
  21459737.18909   1973875.02209   1538758.40008  21459738.32909  21459743.09008
 94  3 17  9  0 40.0000000  0  7  2 19 31 27 17 26 16                0.000020338
  22051852.50109  -4381441.64309  -3391538.81707  22051853.75509  22051858.24907
  23093311.14509   4620577.81709   3590364.21707  23093312.55509  23093318.06307
  24028418.85509  -2397294.39109  -1849111.46406  24028419.82209  24028423.90706
  20872585.09109   1749509.70209   1364128.11008  20872586.20709  20872590.25808
  23565691.23409   -694220.54909   -529388.15006  23565691.39409  23565695.24206
  21612011.01709  -4896678.48609  -3787710.79008  21612012.16809  21612015.63408
  21462176.35209   1986686.50209   1548741.33308  21462176.31109  21462180.93108
 94  3 17  9  1  0.0000000  0  7  2 19 31 27 17 26 16                0.000001563
  22037361.84409  -4457594.98609  -3450879.08207  22037362.19809  22037366.90907
  23099812.79409   4654739.46509   3616983.64307  23099813.04209  23099818.63407
  24021085.59709  -2435831.75409  -1879140.58406  24021086.39009  24021090.64406
  20874267.76109   1758353.54809   1371019.39308  20874268.93009  20874273.19608
  23562992.35009   -708394.31309   -540432.63706  23562993.67109  23562998.17606
  21598148.72509  -4969523.01409  -3844472.76608  21598150.39109  21598153.81608
  21464650.55909   1999693.89909   1558876.92708  21464651.55309  21464656.15908
 94  3 17  9  1 20.0000000  0  7  2 19 31 27 17 26 16               -0.000017222
  22022898.66409  -4533596.57809  -3510101.09907  22022899.63409  22022904.29107
  23106322.67809   4688942.87909   3643635.62007  23106322.04709  23106327.43707
  24013796.85909  -2474136.75209  -1908988.62906  24013797.32509  24013801.25706
  20875977.98909   1767339.52509   1378021.42608  20875978.76809  20875983.07108
  23560340.32009   -722326.84809   -551289.15406  23560342.46409  23560347.04806
  21584305.99609  -5042266.63509  -3901156.11308  21584307.73609  21584311.12008
  21467163.76309   2012893.61209   1569162.38408  21467163.44209  21467168.07408
 94  3 17  9  1 40.0000000  0  7  2 19 31 27 17 26 16                0.000963991
  22308258.95009  -3034012.76509  -2341594.22807  22308260.97809  22308265.80807
  23412631.11209   6298620.10609   4897929.51607  23412633.43209  23412638.51907
  24306347.04409   -936774.42309   -711043.95406  24306347.07009  24306351.41706
  21177510.01709   3351903.51509   2612746.58308  21177511.44709  21177515.71908
  23857530.77709    839416.49609    665653.71606  23857532.48209  23857537.22306
  21870278.15409  -3539474.49909  -2730149.26408  21870279.44809  21870283.04808
  21769507.54609   3601719.97009   2807208.86008  21769507.31909  21769511.74508
 94  3 17  9  2  0.0000000  0  7  2 19 31 27 17 26 16                0.000945195
  22293858.59709  -3109694.64109  -2400567.11507  22293859.25809  22293864.14707
  23419160.52709   6332926.45009   4924661.68807  23419161.64009  23419167.35607
  24299148.01109   -974597.08009   -740516.15606  24299149.78909  24299154.18406
  21179280.67509   3361201.35409   2619991.63008  21179280.70809  21179285.00308
  23854975.50209    825987.83609    655189.80806  23854977.33809  23854981.51706
  21856477.11809  -3612003.26209  -2786665.18908  21856477.66309  21856481.29608
  21772097.44509   3615328.13509   2817812.59208  21772096.87209  21772101.31708
 94  3 17  9  2 20.0000000  0  7  2 19 31 27 17 26 16                0.000926390
  22279488.35409  -3185208.20609  -2459408.84907  22279489.46809  22279494.34907
  23425696.39809   6367281.27009   4951431.63407  23425699.07909  23425704.89207
  24291998.83409  -1012174.59409   -769797.33206  24291998.98909  24292002.96706
  21181079.95209   3370661.14309   2627362.86508  21181080.84809  21181085.20308
  23852470.92109    812812.05809    644922.95306  23852470.25909  23852473.84106
  21842696.64109  -3684421.43509  -2843094.94308  21842697.14809  21842700.76108
  21774723.51409   3629136.97209   2828572.69108  21774724.50809  21774728.94908
 94  3 17  9  2 40.0000000  0  7  2 19 31 27 17 26 16                0.000907577
  22265153.19009  -3260545.27609  -2518113.05407  22265153.29909  22265158.15607
  23432245.01909   6401688.29209   4978242.25407  23432246.82209  23432252.10307
  24284894.21809  -1049504.24909   -798885.37506  24284895.49709  24284899.87006
  21182913.01109   3380294.05409   2634868.99908  21182913.88009  21182918.38008
  23850012.37309    799899.83009    634861.45706  23850012.72409  23850016.76806
  21828937.89609  -3756718.90109  -2899430.64008  21828939.31009  21828942.82808
  21777391.36909   3643152.91609   2839494.16908  21777391.59709  21777396.17408
 94  3 17  9  3  0.0000000  0  7  2 19 31 27 17 26 16                0.000888749
  22250849.05609  -3335715.03709  -2576686.89007  22250848.94609  22250853.81007
  23438801.88609   6436140.07209   5005087.75307  23438802.68409  23438808.41307
  24277834.78909  -1086607.03109   -827796.62806  24277835.05709  24277838.94406
  21184776.48609   3390086.86809   2642499.73708  21184777.61409  21184781.93108
  23847603.53809    787239.36709    624996.15406  23847603.71309  23847607.53406
  21815200.65009  -3828908.00509  -2955681.90008  21815202.09409  21815205.70008
  21780095.29709   3657363.30009   2850567.16208  21780095.88809  21780100.27808
 94  3 17  9  3 20.0000000  0  7  2 19 31 27 17 26 16                0.000869910
  22236576.65009  -3410714.59109  -2635128.09607  22236577.04609  22236581.74707
  23445366.83909   6470643.28309   5031973.32907  23445368.33809  23445374.23307
  24270817.48809  -1123475.86709   -856525.59306  24270818.87209  24270823.81406
  21186670.57709   3400039.80009   2650255.24108  21186671.64009  21186675.95808
  23845241.52409    774834.86209    615330.31506  23845243.03209  23845247.26906
  21801485.22209  -3900981.90009  -3011843.38208  21801486.69209  21801490.43708
  21782836.57009   3671767.44209   2861791.13508  21782837.01709  21782841.11108
 94  3 17  9  3 40.0000000  0  7  2 19 31 27 17 26 16                0.000851059
  22222338.83509  -3485534.18509  -2693429.07307  22222339.27709  22222344.14107
  23451945.68409   6505207.96509   5058906.80007  23451945.75909  23451951.66307
  24263848.82709  -1160102.59009   -885065.92406  24263850.20709  24263853.90806
  21188597.35809   3410164.56709   2658144.64308  21188598.40309  21188602.69908
  23842931.90109    762689.72909    605866.55406  23842932.20409  23842935.91206
  21787794.12109  -3972929.73609  -3067906.63508  21787795.65809  21787799.27308
  21785615.35709   3686367.19009   2873167.53108  21785615.37809  21785619.65908
 94  3 17  9  4  0.0000000  0  7  2 19 31 27 17 26 16                0.000832186
  22208133.96909  -3560176.40109  -2751591.83007  22208135.35909  22208140.17407
  23458532.89409   6539831.30209   5085885.97507  23458534.36709  23458540.35607
  24256923.41709  -1196492.36409   -913421.60006  24256924.18809  24256928.58006
  21190556.81709   3420458.68009   2666166.00608  21190557.26709  21190561.35608
  23840669.01009    750798.00209    596600.26306  23840669.26909  23840673.39806
  21774127.79509  -4044747.80609  -3123868.77208  21774129.24809  21774132.77908
  21788430.20309   3701154.94509   2884690.42208  21788429.33409  21788433.64608
 94  3 17  9  4 20.0000000  0  7  2 19 31 27 17 26 16                0.000813285
  22193963.67109  -3634648.59809  -2809622.10907  22193963.73709  22193968.60407
  23465132.36109   6574511.03209   5112909.10007  23465134.00709  23465139.78307
  24250044.91509  -1232646.35009   -941593.53506  24250045.30109  24250048.70306
  21192546.19409   3430919.61609   2674317.36208  21192548.01909  21192552.24108
  23838453.11809    739153.02609    587526.23806  23838453.29109  23838456.92806
  21760485.54309  -4116434.21309  -3179728.31508  21760487.91509  21760491.31808
  21791277.50709   3716120.24609   2896351.66208  21791277.06209  21791281.48708
 94  3 17  9  4 40.0000000  0  7  2 19 31 27 17 26 16                0.000794355
  22179821.59109  -3708959.94009  -2867527.04107  22179822.67609  22179827.73707
  23471744.21109   6609247.47409   5139976.41107  23471743.75909  23471750.13607
  24243209.84009  -1268564.61709   -969581.79706  24243209.54809  24243214.48306
  21194568.98109   3441545.10109   2682596.93408  21194570.04509  21194574.23908
  23836282.10209    727751.39809    578641.83806  23836283.74109  23836287.68806
  21746870.66309  -4187988.51709  -3235484.92108  21746871.52409  21746874.97408
  21794159.86309   3731268.33309   2908155.33508  21794159.79009  21794163.99708
 94  3 17  9  5  0.0000000  0  7  2 19 31 27 17 26 16                0.000775383
  22165708.31909  -3783126.25809  -2925318.97007  22165709.34009  22165714.30507
  23478362.33809   6644025.05509   5167075.78207  23478362.02409  23478367.97707
  24236417.00609  -1304259.64309   -997396.09606  24236417.70209  24236422.32106
  21196619.26209   3452316.09309   2690989.89108  21196619.85609  21196623.80408
  23834157.72109    716568.83809    569928.14406  23834155.74509  23834160.28606
  21733275.34409  -4259429.86209  -3291153.50308  21733276.62909  21733280.11708
  21797073.34109   3746579.78509   2920086.30808  21797073.54809  21797077.88508
 94  3 17  9  5 20.0000000  0  7  2 19 31 27 17 26 16                0.000756386
  22151626.31509  -3857130.00909  -2982984.21907  22151627.05809  22151631.81307
  23484988.30009   6678857.76509   5194218.11307  23484990.65209  23484996.47307
  24229673.81809  -1339701.22909  -1025012.94206  24229673.42309  24229677.52906
  21198700.36109   3463253.04009   2699512.16408  21198701.14409  21198705.21608
  23832072.54109    705625.39909    561400.76606  23832072.87709  23832077.13006
  21719704.70409  -4330740.99509  -3346720.62108  21719706.65209  21719710.03908
  21800021.28109   3762073.96709   2932159.66908  21800021.99409  21800026.19108
 94  3 17  9  5 40.0000000  0  7  2 19 31 27 17 26 16                0.000737361
  22137574.79209  -3930972.65109  -3040523.93507  22137575.27709  22137579.91007
  23491625.90709   6713745.05609   5221402.97907  23491629.33709  23491635.29507
  24222976.63909  -1374884.89309  -1052428.77806  24222977.91009  24222982.58006
  21200814.39009   3474361.63309   2708168.18408  21200814.92009  21200819.19208
  23830035.62909    694922.57709    553060.90506  23830036.42009  23830041.08206
  21706157.57009  -4401923.88609  -3402187.81608  21706160.94809  21706164.37808
  21803005.33109   3777755.10109   2944378.70608  21803006.00409  21803010.22408
 94  3 17  9  6  0.0000000  0  7  2 19 31 27 17 26 16                0.000718317
  22123551.83309  -4004661.06509  -3097943.47107  22123552.79409  22123557.44307
  23498275.92109   6748685.20509   5248629.01907  23498278.00109  23498284.36107
  24216328.19409  -1409813.88009  -1079646.18706  24216330.39109  24216336.12706
  21202958.26809   3485631.57609   2716949.92908  21202959.45309  21202963.57308
  23828043.66309    684457.73609    544906.46706  23828045.03409  23828049.76706
  21692635.41609  -4472987.99109  -3457562.44808  21692637.94709  21692641.37408
  21806023.87109   3793624.50409   2956744.43908  21806025.65709  21806030.31008
 94  3 17  9  6 20.0000000  0  7  2 19 31 27 17 26 16                0.000699266
  22109560.19109  -4078188.17809  -3155237.32207  22109561.07309  22109565.61907
  23504937.26409   6783685.71609   5275902.09806  23504938.42909  23504944.27506
  24209733.16009  -1444476.76909  -1106656.22806  24209734.52909  24209739.41906
  21205133.99709   3497066.77409   2725860.44508  21205135.50009  21205139.71608
  23826100.04609    674238.64609    536943.53206  23826100.61409  23826105.09306
  21679136.32909  -4543930.99909  -3512842.72108  21679137.92409  21679141.31408
  21809083.16809   3809693.28309   2969265.53708  21809083.57909  21809088.18908
 94  3 17  9  6 40.0000000  0  7  2 19 31 27 17 26 16                0.000680210
  22095599.05109  -4151553.24709  -3212404.90407  22095600.13909  22095604.85907
  23511608.40609   6818740.12409   5303217.18606  23511609.28509  23511614.97906
  24203188.77209  -1478875.91409  -1133460.78006  24203189.51609  24203192.48306
  21207342.22809   3508665.94309   2734898.72908  21207342.74609  21207346.98508
  23824200.88809    664260.64709    529168.46006  23824202.06409  23824206.18606
  21665659.79009  -4614757.78209  -3568032.42908  21665660.09709  21665663.63808
  21812178.25509   3825969.35009   2981948.15408  21812180.58209  21812185.64808
 94  3 17  9  7  0.0000000  0  7  2 19 31 27 17 26 16                0.000661143
  22081668.72509  -4224759.31209  -3269448.58607  22081669.33209  22081674.03207
  23518286.99909   6853836.50209   5330564.96406  23518288.01609  23518293.60706
  24196691.15409  -1513020.83809  -1160067.22006  24196691.81509  24196694.75706
  21209578.59609   3520421.38009   2744058.77908  21209579.90209  21209584.15008
  23822349.22009    654515.24509    521574.61406  23822348.03409  23822351.76406
  21652201.98309  -4685479.08409  -3623139.94108  21652202.18209  21652205.71408
  21815314.17009   3842439.77809   2994782.22508  21815314.93509  21815319.67708
 94  3 17  9  7 20.0000000  0  7  2 19 31 27 17 26 16                0.000642067
  22067768.21209  -4297805.65409  -3326367.80707  22067769.04709  22067773.79207
  23524972.04909   6888975.32809   5357945.82206  23524974.84809  23524980.78306
  24190240.14109  -1546914.96709  -1186478.24306  24190241.12009  24190245.67006
  21211845.01609   3532331.93209   2753339.69808  21211846.31209  21211850.62908
  23820536.58609    645008.75009    514166.95206  23820538.18109  23820542.75706
  21638762.51009  -4756093.45809  -3678164.13008  21638764.56809  21638768.07608
  21818485.43709   3859103.62409   3007767.00908  21818486.10809  21818490.81508
 94  3 17  9  7 40.0000000  0  7  2 19 31 27 17 26 16                0.000622986
  22053899.15109  -4370687.09509  -3383158.53407  22053900.20109  22053904.94107
  23531669.77809   6924167.15409   5385367.99306  23531671.30409  23531677.12906
  24183838.84709  -1580553.66109  -1212690.21706  24183839.94909  24183844.81006
  21214143.13109   3544403.15509   2762745.81608  21214143.33509  21214147.66908
  23818775.82609    635748.76409    506951.37106  23818776.66809  23818780.82206
  21625348.90509  -4826588.05809  -3733094.99108  21625349.75309  21625353.43208
  21821695.05209   3875968.72809   3020908.61608  21821695.63209  21821700.19008
 94  3 17  9  8  0.0000000  0  7  2 19 31 27 17 26 16                0.000603896
  22040062.63009  -4443397.80509  -3439816.22707  22040063.97809  22040068.51307
  23538376.57009   6959410.25909   5412830.11606  23538377.82009  23538384.10506
  24177485.48409  -1613939.40609  -1238705.08306  24177486.59809  24177491.67406
  21216470.80609   3556635.57509   2772277.54408  21216471.06109  21216475.44108
  23817059.57609    626733.18509    499926.22106  23817060.70509  23817065.38106
  21611956.99909  -4896957.72909  -3787928.49908  21611958.95909  21611962.60708
  21824941.60409   3893033.09209   3034205.48908  21824942.93409  21824947.45708
 94  3 17  9  8 20.0000000  0  7  2 19 31 27 17 26 16                0.000584795
  22026260.02909  -4515934.17109  -3496338.06507  22026260.61609  22026265.18707
  23545089.92709   6994697.54709   5440326.65406  23545092.81509  23545098.95606
  24171180.08409  -1647073.58209  -1264523.92506  24171181.27809  24171186.84106
  21218829.03809   3569031.79209   2781936.90708  21218830.10609  21218834.48908
  23815388.98709    617960.31909    493090.21206  23815391.10809  23815396.31206
  21598590.54809  -4967198.85909  -3842661.85008  21598592.25509  21598596.00008
  21828228.57909   3910297.41509   3047658.18008  21828228.09509  21828232.99308
 94  3 17  9  8 40.0000000  0  7  2 19 31 27 17 26 16                0.000565678
  22012491.47509  -4588291.38909  -3552720.30907  22012491.41009  22012496.23707
  23551813.14509   7030025.69609   5467855.04306  23551815.66909  23551821.69106
  24164922.25809  -1679961.25509  -1290150.68206  24164924.32209  24164928.57306
  21221219.68309   3581595.10809   2791726.47608  21221220.72209  21221225.04908
  23813767.67409    609431.18809    486444.12406  23813768.15709  23813773.06406
  21585247.84109  -5037310.82109  -3897294.54908  21585250.68809  21585254.33908
  21831550.16909   3927757.73309   3061263.59108  21831550.73209  21831555.48708
 94  3 17  9  9  0.0000000  0  7  2 19 31 27 17 26 16                0.000546540
  21998755.01609  -4660473.46709  -3608966.07707  21998755.67909  21998760.39407
  23558542.16309   7065388.34209   5495410.30606  23558545.41509  23558551.14006
  24158708.11209  -1712616.56509  -1315596.41406  24158709.79509  24158714.87406
  21223639.76309   3594312.02009   2801635.73208  21223640.81409  21223645.07408
  23812190.42308    601144.30308    479986.81206  23812190.89508  23812196.03906
  21571930.81009  -5107301.92909  -3951833.07708  21571931.99509  21571935.56908
  21834905.60609   3945396.44509   3075008.01208  21834907.21709  21834911.79008
 94  3 17  9  9 20.0000000  0  7  2 19 31 27 17 26 16                0.000527391
  21985054.15909  -4732468.04309  -3665065.74307  21985055.55109  21985060.31807
  23565282.40209   7100798.34209   5523002.47006  23565283.39309  23565289.29206
  24152541.48709  -1745034.66309  -1340857.27206  24152542.06909  24152543.92906
  21226090.30109   3607185.86209   2811667.27208  21226090.63109  21226094.91008
  23810660.82609    593110.33309    473726.56006  23810662.09809  23810667.31006
  21558636.79609  -5177160.61109  -4006268.41608  21558638.35909  21558641.85808
  21838299.90309   3963220.99209   3088897.23908  21838299.21609  21838304.01908
 94  3 17  9  9 40.0000000  0  7  2 19 31 27 17 26 16                0.000508229
  21971389.05409  -4804278.87809  -3721022.23407  21971390.24909  21971395.09907
  23572029.48509   7136252.77509   5550629.25806  23572030.32209  23572036.51406
  24146416.20809  -1777216.91009  -1365934.37606  24146416.77109  24146420.38706
  21228568.86909   3620214.13509   2821819.15208  21228569.82209  21228574.20508
  23809179.94808    585320.04608    467656.19206  23809179.84708  23809184.95006
  21545367.83009  -5246886.45309  -4060600.24508  21545370.00809  21545373.51808
  21841725.40309   3981236.76309   3102935.47208  21841727.41109  21841732.25908
 94  3 17  9 10  0.0000000  0  7  2 19 31 27 17 26 16                0.000489052
  21957761.30209  -4875896.34609  -3776828.05107  21957761.96809  21957766.86507
  23578785.44409   7171748.76109   5578288.42806  23578785.03009  23578790.83006
  24140334.93609  -1809162.48609  -1390827.03606  24140336.57809  24140341.25306
  21231078.16409   3633400.24909   2832094.02108  21231079.08909  21231083.44808
  23807742.74308    577771.30408    461774.04206  23807743.56208  23807748.80906
  21532126.32909  -5316475.78409  -4114825.70008  21532127.51109  21532131.05908
  21845193.10609   3999451.11609   3117128.44408  21845193.43509  21845198.30608
 94  3 17  9 10 20.0000000  0  7  2 19 31 27 17 26 16                0.000469863
  21944167.82309  -4947328.03009  -3832489.09907  21944169.00709  21944173.95107
  23585545.62809   7207280.34609   5605975.34006  23585546.09209  23585552.87106
  24134299.55009  -1840883.35609  -1415544.59706  24134301.16509  24134304.97906
  21233614.86409   3646732.79209   2842482.99208  21233616.33609  21233620.62308
  23806351.78408    570456.75908    456074.37806  23806351.49408  23806357.08806
  21518906.87809  -5385940.26209  -4168953.86808  21518908.90009  21518912.36008
  21848694.88109   4017860.66409   3131473.51308  21848696.50909  21848701.36608
 94  3 17  9 10 40.0000000  0  7  2 19 31 27 17 26 16                0.000450658
  21930610.46709  -5018573.76609  -3888005.25408  21930611.40509  21930616.31908
  23592313.50909   7242853.65509   5633694.74706  23592315.54509  23592321.65906
  24128307.29609  -1872382.25009  -1440089.17406  24128307.07409  24128312.03106
  21236180.11009   3660209.41909   2852984.23508  21236180.79409  21236185.03208
  23805004.29608    563375.43908    450556.46406  23805003.46808  23805009.57706
  21505712.79609  -5455280.40709  -4222985.15308  21505714.03609  21505717.40908
  21852234.33509   4036456.03809   3145963.38207  21852235.23309  21852240.05407
 94  3 17  9 11  0.0000000  0  7  2 19 31 27 17 26 16                0.000431438
  21917087.69109  -5089638.37309  -3943380.27408  21917088.27909  21917093.19508
  23599091.36609   7278465.87409   5661444.48406  23599092.44809  23599098.90006
  24122355.49309  -1903659.45309  -1464461.01906  24122355.48509  24122360.01706
  21238768.66009   3673818.72009   2863588.86108  21238770.39509  21238775.05708
  23803698.28608    556521.53208    445215.75306  23803699.62608  23803704.94106
  21492540.89409  -5524495.03009  -4276918.62808  21492542.82409  21492546.18408
  21855807.21709   4055228.37309   3160591.14107  21855807.64109  21855812.44907
 94  3 17  9 11 20.0000000  0  7  2 19 31 27 17 26 16                0.000412203
  21903600.14009  -5160517.29809  -3998610.60108  21903600.39609  21903605.43308
  23605879.19709   7314124.78209   5689230.61006  23605878.22709  23605884.00606
  24116448.35009  -1934699.36409  -1488647.96406  24116448.85809  24116452.94306
  21241386.50009   3687569.32809   2874303.59508  21241387.18009  21241391.73408
  23802439.43708    549894.22008    440051.62406  23802438.43008  23802444.11206
  21479398.00309  -5593571.01909  -4330744.07808  21479397.88009  21479401.37208
  21859416.47509   4074190.68309   3175366.93107  21859416.06909  21859420.91607
 94  3 17  9 11 40.0000000  0  7  2 19 31 27 17 26 16                0.000392954
  21890147.29909  -5231209.28709  -4053695.27008  21890148.13109  21890153.17508
  23612671.01509   7349829.38909   5717052.34206  23612673.17209  23612678.79106
  24110589.83309  -1965486.94609  -1512638.29106  24110590.36809  24110594.11506
  21244031.07909   3701467.14609   2885133.03908  21244031.91109  21244036.41508
  23801218.98208    543491.94908    435062.80706  23801220.01908  23801226.06706
  21466278.36109  -5662505.43209  -4384459.21108  21466280.19009  21466283.65208
  21863061.14109   4093346.02209   3190293.13307  21863061.29509  21863066.15607
 94  3 17  9 12  0.0000000  0  7  2 19 31 27 17 26 16                0.000373687
  21876731.36709  -5301711.99709  -4108632.44308  21876732.03909  21876737.08408
  23619474.62909   7385575.07409   5744906.08706  23619474.94709  23619480.94206
  24104777.59409  -1996021.64109  -1536431.56206  24104778.82909  24104783.52306
  21246702.71509   3715510.07709   2896075.55708  21246704.21609  21246708.77208
  23800045.56208    537316.48708    430250.73506  23800044.77608  23800051.00506
  21453186.15409  -5731300.40009  -4438065.68208  21453188.96609  21453192.39208
  21866740.59909   4112680.35109   3205358.81107  21866740.51709  21866745.47607
 94  3 17  9 12 20.0000000  0  7  2 19 31 27 17 26 16                0.000354400
  21863349.49609  -5372030.34309  -4163425.96108  21863350.92709  21863355.96808
  23626285.21009   7421364.65809   5772794.03806  23626285.55709  23626291.22206
  24099013.43709  -2026307.58009  -1560030.99806  24099015.61009  24099020.33506
  21249402.52409   3729692.81709   2907127.01908  21249403.19509  21249407.49308
  23798911.68408    531367.19608    425614.89806  23798913.09308  23798918.89906
  21440121.09709  -5799964.45909  -4491570.14708  21440122.45609  21440126.02208
  21870447.93209   4132177.12909   3220551.07307  21870450.59309  21870455.49707
 94  3 17  9 12 40.0000000  0  7  2 19 31 27 17 26 16                0.000335092
  21850004.06909  -5442165.38309  -4218076.64108  21850004.62909  21850009.48208
  23633105.66209   7457203.56409   5800720.42106  23633105.51409  23633111.43706
  24093300.99709  -2056335.44109  -1583429.31106  24093301.52909  24093306.87406
  21252128.79909   3744020.93609   2918291.76108  21252129.74709  21252134.05808
  23797824.24708    525649.62308    421159.61506  23797825.33208  23797830.59206
  21427081.99309  -5868492.10109  -4544968.31208  21427082.10309  21427085.56608
  21874190.46309   4151829.65509   3235864.69607  21874190.20509  21874195.31007
 94  3 17  9 13  0.0000000  0  7  2 19 31 27 17 26 16                0.000315763
  21836692.48609  -5512119.43509  -4272586.29407  21836692.60209  21836697.47107
  23639933.49409   7493087.19009   5828681.64706  23639933.78209  23639939.93406
  24087636.41009  -2086099.75909  -1606622.28906  24087637.29609  24087641.77906
  21254883.05909   3758493.82609   2929569.31608  21254883.83309  21254888.17608
  23796780.83308    520166.30308    416886.87406  23796781.41008  23796786.95306
  21414065.84509  -5936882.71609  -4598259.70208  21414067.76909  21414071.47708
  21877959.65609   4171640.98309   3251302.06207  21877960.43809  21877965.30407
 94  3 17  9 13 20.0000000  0  7  2 19 31 27 17 26 16                0.000296421
  21823414.29109  -5581890.98209  -4326953.73407  21823415.61409  21823420.70207
  23646770.84809   7529018.00909   5856679.64706  23646771.58309  23646777.60506
  24082025.61909  -2115595.43409  -1629605.93906  24082025.69609  24082029.62306
  21257666.26609   3773120.78509   2940966.92208  21257667.34609  21257671.68108
  23795780.34808    514919.99708    412798.83906  23795782.81408  23795788.78306
  21401077.76209  -6005137.07709  -4651444.91908  21401079.46109  21401083.13308
  21881761.32809   4191621.82009   3266871.51607  21881762.54409  21881767.58607
 94  3 17  9 13 40.0000000  0  7  2 19 31 27 17 26 16                0.000277068
  21810174.02909  -5651474.04209  -4381174.30007  21810174.53409  21810179.46507
  23653617.66809   7564998.47109   5884716.33306  23653618.11109  23653624.23406
  24076462.51209  -2144822.36609  -1652380.17406  24076462.30009  24076467.02606
  21260481.35709   3787907.10409   2952488.70708  21260481.15609  21260485.56208
  23794829.41308    509922.17108    408904.41506  23794831.47708  23794838.08706
  21388115.14009  -6073255.34609  -4704524.09108  21388116.89609  21388120.70708
  21885597.41409   4211774.77309   3282575.08107  21885597.53409  21885602.68407
 94  3 17  9 14  0.0000000  0  7  2 19 31 27 17 26 16                0.000257712
  21796970.27709  -5720865.86309  -4435245.85408  21796969.64809  21796974.67108
  23660473.78309   7601036.30809   5912797.72606  23660476.26009  23660482.02806
  24070951.06009  -2173784.61209  -1674948.15506  24070951.91209  24070955.28506
  21263325.38209   3802859.09909   2964139.58308  21263326.30109  21263330.74108
  23793929.40008    505186.49108    405214.25706  23793930.47608  23793936.27406
  21375180.06909  -6141230.83709  -4757492.00908  21375181.65209  21375185.62808
  21889464.41309   4232104.91909   3298416.71807  21889466.09809  21889471.34507
 94  3 17  9 14 20.0000000  0  7  2 19 31 27 17 26 16                0.000238350
  21783798.86209  -5790075.28709  -4489175.27508  21783799.28009  21783804.52408
  23667342.52309   7637125.60209   5940919.22006  23667344.00909  23667349.49406
  24065487.20009  -2202492.04609  -1697317.58806  24065488.93609  24065493.27406
  21266200.17009   3817971.59209   2975915.52708  21266202.27109  21266206.61308
  23793076.13708    500705.67308    401722.70906  23793078.26408  23793084.51306
  21362271.02609  -6209068.65709  -4810352.64608  21362272.52909  21362276.54608
  21893369.70909   4252613.65009   3314397.51207  21893368.83709  21893374.17407
 94  3 17  9 14 40.0000000  0  7  2 19 31 27 17 26 16                0.000218978
  21770662.58909  -5859108.65009  -4542967.50607  21770662.84709  21770668.02407
  23674217.10409   7673249.49409   5969067.66906  23674217.77609  23674223.84206
  24060075.46109  -2230951.03109  -1719493.42506  24060074.49509  24060077.07606
  21269107.46309   3833236.40209   2987810.16308  21269107.08909  21269111.49408
  23792271.11608    496472.44708    398424.08006  23792272.05808  23792278.46706
  21349386.92609  -6276774.21109  -4863110.22208  21349388.70809  21349392.43708
  21897305.12209   4273301.40109   3330517.80607  21897305.59709  21897310.87407
 94  3 17  9 15  0.0000000  0  7  2 19 31 27 17 26 16                0.000199601
  21757561.55509  -5927951.81809  -4596611.53408  21757562.44209  21757567.61508
  23681095.96009   7709406.11509   5997241.62106  23681098.24209  23681103.78906
  24054705.85609  -2259155.06309  -1741470.59906  24054706.60009  24054711.19506
  21272040.48109   3848657.49709   2999826.58008  21272041.52709  21272046.05108
  23791511.55708    492490.43708    395321.17706  23791514.85308  23791520.03306
  21336529.34309  -6344340.39709  -4915759.19708  21336531.31809  21336535.18208
  21901280.51409   4294182.68409   3346788.90207  21901279.30509  21901284.52207
 94  3 17  9 15 20.0000000  0  7  2 19 31 27 17 26 16                0.000180219
  21744498.75209  -5996605.96309  -4650108.27008  21744498.09409  21744503.11608
  23687983.47709   7745591.09309   6025437.67106  23687984.28509  23687990.22406
  24049387.05309  -2287111.81509  -1763255.10306  24049386.98809  24049391.65906
  21275004.24809   3864232.03809   3011962.56708  21275005.23309  21275009.77408
  23790801.29308    488750.24008    392406.71406  23790803.10908  23790808.93206
  21323696.76309  -6411769.87609  -4968301.65108  21323700.02009  21323703.76508
  21905289.16909   4315259.93909   3363212.70407  21905290.32309  21905295.34807
 94  3 17  9 15 40.0000000  0  7  2 19 31 27 17 26 16                0.000160828
  21731468.30209  -6065072.76309  -4703459.02508  21731469.07009  21731474.19908
  23694873.53909   7781802.11709   6053654.02106  23694874.75709  23694880.82906
  24044111.34409  -2314830.25009  -1784853.88306  24044112.27209  24044117.07206
  21277994.81609   3879953.45309   3024212.99908  21277996.96309  21278001.68908
  23790135.78608    485248.73808    389678.25806  23790136.58008  23790142.98606
  21310892.48909  -6479065.01909  -5020739.42208  21310894.25109  21310897.97508
  21909337.86609   4336528.71909   3379785.74007  21909337.55909  21909342.80507
 94  3 17  9 16  0.0000000  0  7  2 19 31 27 17 26 16                0.000141412
  21718473.57809  -6133365.48709  -4756674.13308  21718473.53709  21718478.57008
  23701767.61509   7818027.74809   6081881.75006  23701768.56309  23701774.42206
  24038880.13009  -2342324.46509  -1806277.96606  24038880.23609  24038884.82806
  21281014.07509   3895813.38309   3036571.37008  21281015.11609  21281019.62708
  23789512.00008    481967.81208    387121.66806  23789512.45208  23789517.59206
  21298110.92009  -6546233.63809  -5073078.60408  21298112.33809  21298116.32008
  21913416.74909   4357972.50509   3396495.14707  21913418.24809  21913423.36507
 94  3 17  9 16 20.0000000  0  7  2 19 31 27 17 26 16                0.000121969
  21705510.83509  -6201481.35909  -4809751.42908  21705511.41309  21705516.59908
  23708663.46909   7854268.17709   6110121.00206  23708664.59409  23708670.45006
  24033689.79809  -2369591.02609  -1827524.64606  24033691.58709  24033696.94206
  21284058.72209   3911812.17409   3049037.94408  21284059.59109  21284064.17908
  23788930.03208    478895.69108    384727.79306  23788928.50908  23788933.46906
  21285352.79409  -6613274.88309  -5125318.52908  21285354.83209  21285358.79908
  21917529.87909   4379592.04309   3413341.50307  21917532.36409  21917537.54107
 94  3 17  9 16 40.0000000  0  7  2 19 31 27 17 26 16                0.000102515
  21692585.76209  -6269398.97609  -4862674.24308  21692587.02209  21692592.13908
  23715567.85809   7890546.80009   6138390.03106  23715568.33809  23715574.34806
  24028549.44109  -2396603.42109  -1848573.26806  24028550.83209  24028557.34006
  21287133.19709   3927967.56809   3061626.54508  21287133.83409  21287138.36808
  23788383.73909    476048.53309    382509.21806  23788386.67909  23788391.48006
  21272624.40809  -6680169.68109  -5177444.34408  21272625.23509  21272629.11508
  21921680.79109   4401404.72309   3430338.36007  21921683.06509  21921688.29007
 94  3 17  9 17  0.0000000  0  7  2 19 31 27 17 26 16                0.000083052
  21679699.42809  -6337123.37109  -4915446.49508  21679699.57809  21679704.75708
  23722479.49309   7926876.24309   6166698.64806  23722481.91209  23722488.00706
  24023459.67809  -2423359.27009  -1869422.00306  24023459.68609  24023464.99306
  21290236.52609   3944279.63309   3074337.22908  21290237.97909  21290242.51008
  23787886.29809    473424.80809    380464.76906  23787887.11609  23787892.01306
  21259921.91209  -6746915.90709  -5229454.38708  21259923.68109  21259927.78208
  21925871.14409   4423409.64409   3447485.01607  21925870.50409  21925875.66107
 94  3 17  9 17 20.0000000  0  7  2 19 31 27 17 26 16                0.000063568
  21666842.66009  -6404682.28009  -4968089.80108  21666843.55709  21666848.65108
  23729402.18309   7963244.80209   6195037.73806  23729402.34609  23729408.42106
  24018411.10109  -2449884.72109  -1890091.19706  24018412.35609  24018417.10206
  21293366.92409   3960725.05009   3087151.82108  21293367.53309  21293372.23908
  23787422.81108    470999.24108    378574.71206  23787426.08808  23787430.72406
  21247246.18009  -6813537.07209  -5281366.98508  21247246.11809  21247250.05308
  21930087.89409   4445579.09209   3464759.87707  21930089.37109  21930094.46507
 94  3 17  9 17 40.0000000  0  7  2 19 31 27 17 26 16                0.000044060
  21654018.98209  -6472071.28309  -5020600.70808  21654019.80909  21654024.97808
  23736330.54709   7999657.45609   6223411.19106  23736331.70509  23736337.60906
  24013406.61109  -2476179.30209  -1910580.49706  24013407.93909  24013413.59906
  21296520.70609   3977304.05409   3100070.50308  21296522.19409  21296526.74708
  23787001.78409    468776.24209    376842.50506  23787002.49609  23787007.31406
  21234592.11109  -6880028.21409  -5333178.26608  21234593.26009  21234597.07408
  21934337.70609   4467903.12409   3482155.18607  21934337.41509  21934342.61707
 94  3 17  9 18  0.0000000  0  7  2 19 31 27 17 26 16                0.000024535
  21641230.72009  -6539269.76509  -5072963.15808  21641232.41309  21641237.60308
  23743267.93909   8036128.61209   6251830.22606  23743271.74309  23743277.71606
  24008453.51809  -2502217.30309  -1930869.85506  24008453.36509  24008458.07606
  21299705.14509   3994037.30209   3113109.38108  21299706.54409  21299711.21108
  23786620.05409    466772.33909    375281.03606  23786621.03009  23786626.74806
  21221966.99609  -6946368.10509  -5384871.69208  21221969.16609  21221973.08808
  21938615.73109   4490391.41509   3499678.49607  21938617.03209  21938621.94007
 94  3 17  9 18 20.0000000  0  7  2 19 31 27 17 26 16                0.000004996
  21628481.62609  -6606276.03509  -5125175.83108  21628481.64309  21628486.67108
  23750221.89709   8072655.94509   6280293.02706  23750222.66709  23750229.01406
  24003547.27309  -2527993.36509  -1950955.10306  24003548.51509  24003552.70806
  21302917.01209   4010916.53709   3126262.01608  21302918.66309  21302923.03308
  23786282.39009    464987.42009    373890.18806  23786281.66009  23786287.08806
  21209372.93409  -7012557.35409  -5436447.73408  21209373.76909  21209377.70908
  21942928.07609   4513044.02409   3517329.84507  21942927.58509  21942932.86207
 94  3 17  9 18 40.0000000  0  7  2 19 31 27 17 26 16                0.000985445
  21915559.67409  -5097669.24209  -3949638.06708  21915560.10009  21915565.25408
  24056972.14409   9684653.19609   7536394.72906  24056975.39309  24056981.82706
  24298483.97209   -978091.27409   -743239.21006  24298484.44809  24298490.52706
  21605947.24009   5603350.92709   4367119.96608  21605948.90209  21605953.19808
  24085775.63709   2038846.35409   1600273.76006  24085776.89409  24085781.46506
  21496597.43809  -5503178.20809  -4260308.13908  21496599.27809  21496603.15808
  22247057.31209   6111272.76709   4762702.85007  22247060.44209  22247065.60607
 94  3 17  9 19  0.0000000  0  7  2 19 31 27 17 26 16                0.000965873
  21902880.61609  -5164303.71709  -4001561.02608  21902879.87009  21902885.05008
  24063941.88308   9721270.85008   7564927.92306  24063943.88808  24063950.02906
  24293671.31508  -1003364.75408   -762932.85406  24293674.71508  24293681.08006
  21609210.76609   5620494.20409   4380478.35208  21609211.40709  21609215.81008
  24085523.10609   2037506.95809   1599230.06306  24085522.64109  24085526.81206
  21484056.11109  -5569086.49609  -4311665.24708  21484057.31309  21484061.13108
  22251428.18209   6134229.69709   4780591.33207  22251428.98709  22251434.02807
 94  3 17  9 19 20.0000000  0  7  2 19 31 27 17 26 16                0.000946292
  21890238.40909  -5230734.15909  -4053325.00108  21890238.52509  21890243.86708
  24070917.72109   9757931.69009   7593494.76806  24070920.40509  24070926.08206
  24288912.01208  -1028381.18408   -782426.17806  24288914.32408  24288920.19806
  21612499.27609   5637778.35509   4393946.50108  21612500.28609  21612504.78508
  24085312.94909   2036407.10909   1598373.02106  24085313.24409  24085318.31606
  21471543.28109  -5634844.54009  -4362905.28508  21471544.00209  21471547.83708
  22255827.38709   6157346.73509   4798604.57107  22255828.16509  22255833.42707
 94  3 17  9 19 40.0000000  0  7  2 19 31 27 17 26 16                0.000926692
  21877634.55209  -5296966.86309  -4104934.89508  21877634.90309  21877640.25308
  24077899.33009   9794617.54509   7622081.11306  24077901.42409  24077907.41206
  24284200.29208  -1053142.37808   -801720.63506  24284202.69808  24284208.82406
  21615814.66209   5655198.71009   4407520.78208  21615815.51809  21615819.95408
  24085148.13208   2035543.08308   1597699.74906  24085148.27008  24085153.89706
  21459057.08009  -5700455.77109  -4414030.92508  21459058.55709  21459062.31908
  22260256.98109   6180618.59409   4816738.44507  22260256.57409  22260261.76307
 94  3 17  9 20  0.0000000  0  7  2 19 31 27 17 26 16                0.000907081
  21865067.38009  -5363006.25709  -4156394.15608  21865067.90809  21865073.21308
  24084884.39209   9831324.80509   7650684.15006  24084886.24109  24084891.93006
  24279538.82508  -1077644.94608   -820813.54206  24279539.74608  24279545.02806
  21619154.94909   5672758.66909   4421203.84608  21619156.95109  21619161.30908
  24085025.53708   2034913.74308   1597209.34406  24085028.85308  24085033.31606
  21446598.04509  -5765924.27309  -4465045.34408  21446600.23209  21446603.99208
  22264713.79609   6204050.64009   4834997.14607  22264715.64209  22264720.81807
 94  3 17  9 20 20.0000000  0  7  2 19 31 27 17 26 16                0.000887466
  21852536.95509  -5428851.85509  -4207702.40908  21852538.00209  21852543.22408
  24091874.64009   9868059.31509   7679308.40806  24091876.97009  24091882.77206
  24274925.60309  -1101888.00509   -839704.23506  24274927.14109  24274931.89606
  21622523.49709   5690457.94209   4434995.46508  21622525.00409  21622529.53808
  24084955.49008   2034524.49008   1596906.02206  24084954.26708  24084959.75806
  21434168.11909  -5831250.43409  -4515948.84908  21434169.20909  21434172.79508
  22269205.77809   6227652.66109   4853388.28907  22269207.10609  22269212.19507
 94  3 17  9 20 40.0000000  0  7  2 19 31 27 17 26 16                0.000867845
  21840043.79009  -5494511.96209  -4258866.12308  21840043.25309  21840048.48008
  24098868.22608   9904817.18308   7707950.87906  24098871.42008  24098877.16906
  24270360.81709  -1125882.54209   -858401.29606  24270361.53809  24270366.73206
  21625917.10109   5708290.98009   4448891.31608  21625918.68609  21625923.02708
  24084924.29408   2034369.67508   1596785.38606  24084924.54908  24084930.46606
  21421762.04409  -5896444.41809  -4566749.36008  21421763.31009  21421766.85608
  22273727.08109   6251418.94609   4871907.43107  22273729.68009  22273734.86407
 94  3 17  9 21  0.0000000  0  7  2 19 31 27 17 26 16                0.000848216
  21827583.92109  -5559990.52609  -4309888.37508  21827583.09109  21827588.21808
  24105866.52208   9941593.46308   7736607.68106  24105869.62408  24105876.07606
  24265841.23709  -1149628.92209   -876904.98806  24265842.72009  24265847.60206
  21629337.66809   5726262.41709   4462895.00908  21629338.58609  21629342.96208
  24084937.42609   2034445.12109   1596844.16106  24084939.24309  24084944.00406
  21409381.01909  -5961506.55209  -4617447.13108  21409382.42209  21409386.04808
  22278284.93209   6275350.63709   4890555.46107  22278283.79809  22278288.77107
 94  3 17  9 21 20.0000000  0  7  2 19 31 27 17 26 16                0.000828577
  21815157.63209  -5625286.66609  -4360768.47508  21815157.65109  21815162.73508
  24112871.12908   9978386.06608   7765277.20406  24112871.30908  24112877.65506
  24261369.90609  -1173132.22209   -895219.24806  24261369.98609  24261375.27406
  21632782.23209   5744367.94209   4477003.19008  21632783.84809  21632788.14608
  24084996.61708   2034740.30908   1597074.16006  24084995.76808  24085000.83306
  21397025.47409  -6026436.11409  -4668041.59608  21397026.80809  21397030.25808
  22282868.54909   6299449.93509   4909334.09407  22282869.77609  22282875.01707
 94  3 17  9 21 40.0000000  0  7  2 19 31 27 17 26 16                0.000808926
  21802766.40209  -5690394.54809  -4411501.88408  21802768.13609  21802773.07508
  24119877.83508  10015199.75508   7793963.15606  24119876.26808  24119883.57406
  24256944.16009  -1196387.97409   -913340.62806  24256944.89809  24256949.41706
  21636254.56309   5762616.21509   4491222.60308  21636256.30609  21636260.63708
  24085094.12908   2035252.90208   1597473.56706  24085093.59408  24085098.14706
  21384697.07709  -6091226.27209  -4718527.43808  21384697.63709  21384701.01508
  22287485.60009   6323718.73909   4928244.81007  22287488.09809  22287492.89307
 94  3 17  9 22  0.0000000  0  7  2 19 31 27 17 26 16                0.000789261
  21790415.19209  -5755310.78009  -4462085.95208  21790414.95309  21790419.89608
  24126884.53108  10052040.11508   7822669.88406  24126887.49408  24126893.29706
  24252563.90509  -1219398.16209   -931270.64806  24252565.56009  24252569.40206
  21639754.78909   5781006.10309   4505552.36308  21639755.85109  21639760.17008
  24085228.03408   2035977.23408   1598037.96306  24085230.78708  24085236.76606
  21372393.01009  -6155879.99609  -4768906.96308  21372394.28709  21372397.90608
  22292138.22909   6348153.91509   4947285.16207  22292137.94209  22292143.19707
 94  3 17  9 22 20.0000000  0  8  2 19 31 23 27 17 26 16             0.000769572
  21778101.17609  -5820022.30209  -4512510.50708  21778100.72809  21778105.71708
  24133905.30909  10088911.33309   7851400.65606  24133903.68109  24133910.25206
  24248234.55209  -1242158.39809   -949005.88706  24248234.28709  24248238.44806
  25127193.34008  -2667699.37018  -1691296.03016  25127192.90908  25127197.43706
  21643282.14109   5799538.00809   4519992.78308  21643282.20909  21643286.68008
  24085410.21608   2036919.31408   1598772.03306  24085409.98508  24085415.57006
  21360117.53109  -6220389.29209  -4819173.94908  21360118.49609  21360122.14008
  22296819.00309   6372762.60009   4966460.72107  22296821.02309  22296826.03907
 94  3 17  9 22 40.0000000  0  8  2 19 31 23 27 17 26 16             0.000749884
  21765825.63509  -5884527.37509  -4562774.19308  21765825.92009  21765830.90908
  24140925.13309  10125811.84209   7880154.25606  24140925.80109  24140932.06206
  24243950.47909  -1264669.97809   -966547.39006  24243951.16709  24243954.83306
  25108689.94408  -2764915.33708  -1767048.72506  25108692.93608  25108697.60206
  21646834.43009   5818209.17409   4534541.71808  21646835.47209  21646839.95208
  24085631.03808   2038075.65208   1599673.05906  24085630.60308  24085634.66706
  21347867.85409  -6284750.99009  -4869325.92108  21347870.60109  21347874.58808
  22301536.70509   6397543.70609   4985770.63507  22301536.40009  22301541.59007
 94  3 17  9 23  0.0000000  0  8  2 19 31 23 27 17 26 16             0.000730183
  21753589.70509  -5948826.35909  -4612877.29108  21753590.10009  21753595.12608
  24147950.36909  10162735.17409   7908925.63906  24147951.72809  24147958.73006
  24239712.98609  -1286931.74609   -983894.21206  24239714.95609  24239718.75206
  25090214.18508  -2862041.61608  -1842731.63406  25090211.38608  25090215.53806
  21650413.55909   5837020.09609   4549199.55007  21650414.85409  21650419.44407
  24085887.67608   2039440.93608   1600736.89606  24085889.96608  24085895.13606
  21335650.59409  -6348959.92409  -4919358.85608  21335652.37309  21335656.23808
  22306284.67809   6422495.53209   5005213.57707  22306284.72109  22306289.66207
 94  3 17  9 23 20.0000000  0  8  2 19 31 23 27 17 26 16             0.000710471
  21741395.64709  -6012903.04909  -4662807.17308  21741396.54209  21741401.64208
  24154985.44809  10199694.13109   7937724.77606  24154985.31709  24154991.32106
  24235528.22309  -1308933.97209  -1001038.81506  24235528.48509  24235532.65606
  25071747.46108  -2959069.44608  -1918337.74005  25071747.72908  25071751.74205
  21654020.68309   5855976.84009   4563971.00907  21654022.11909  21654026.84307
  24086188.80508   2041024.25508   1601970.63306  24086191.09608  24086196.57706
  21323464.69809  -6413002.81809  -4969262.40908  21323465.41109  21323469.15908
  22311066.13609   6447625.80409   5024795.57107  22311066.86209  22311071.80007
 94  3 17  9 23 40.0000000  0  8  2 19 31 23 27 17 26 16             0.000690736
  21729240.60609  -6076774.47509  -4712577.10608  21729242.50409  21729247.29508
  24162018.12809  10236674.21409   7966540.38306  24162022.19209  24162028.02706
  24231387.25809  -1330689.43509  -1017991.12206  24231387.62409  24231391.70106
  25053299.81808  -3056001.42708  -1993869.09505  25053302.46908  25053306.73305
  21657654.16309   5875065.82609   4578845.50907  21657654.88409  21657659.43607
  24086529.62508   2042810.51608   1603362.50806  24086531.57608  24086536.34106
  21311305.57509  -6476890.92809  -5019045.35208  21311307.82809  21311311.67208
  22315877.09409   6472910.81109   5044498.13407  22315878.46209  22315883.80707
 94  3 17  9 24  0.0000000  0  8  2 19 31 23 27 17 26 16             0.000670981
  21717124.74709  -6140457.09309  -4762199.91908  21717124.08909  21717128.88808
  24169059.60909  10273672.20509   7995369.93606  24169062.85909  24169069.01606
  24227292.94809  -1352204.60809  -1034756.19006  24227294.23009  24227297.28606
  25034872.18308  -3152836.58808  -2069325.07105  25034873.45808  25034879.20105
  21661309.74409   5894271.66909   4593811.06807  21661309.76209  21661314.08807
  24086908.14108   2044794.66308   1604908.58606  24086909.71408  24086914.46506
  21299176.12409  -6540635.11809  -5068716.15008  21299177.74509  21299181.53308
  22320716.92409   6498339.91709   5064312.98807  22320717.61809  22320722.37807
 94  3 17  9 24 20.0000000  0  8  2 19 31 23 27 17 26 16             0.000651207
  21705040.84009  -6203952.34809  -4811676.73508  21705041.31309  21705046.15908
  24176103.87909  10310688.95909   8024214.11606  24176107.18409  24176112.98706
  24223245.71309  -1373478.88709  -1051333.54306  24223246.11509  24223250.35106
  25016458.50708  -3249582.20908  -2144711.25205  25016464.47108  25016468.78305
  21664984.23809   5913590.21909   4608864.45307  21664985.94309  21664990.41207
  24087323.84708   2046982.35308   1606613.26106  24087325.62308  24087330.81106
  21287073.58609  -6604232.07109  -5118272.22108  21287075.70409  21287079.50908
  22325584.28509   6523915.90209   5084242.28807  22325584.74909  22325589.82007
 94  3 17  9 24 40.0000000  0  8  2 19 31 23 27 17 26 16             0.000631405
  21692991.69509  -6267272.10609  -4861016.79708  21692991.94909  21692996.88208
  24183155.65709  10347715.39809   8053065.84406  24183153.02609  24183158.76206
  24219239.66309  -1394524.60909  -1067732.81106  24219240.57109  24219246.43506
  24998069.47108  -3346256.02208  -2220041.47605  24998067.47108  24998072.77505
  21668680.68309   5933012.92709   4623999.00507  21668682.04209  21668686.56107
  24087778.36408   2049365.45908   1608470.20806  24087778.63108  24087783.95106
  21274998.39909  -6667693.10109  -5167722.37408  21274999.56109  21275003.25108
  22330475.79409   6549624.41009   5104274.85207  22330476.78409  22330482.01907
 94  3 17  9 25  0.0000000  0  8  2 19 31 23 27 17 26 16             0.000611574
  21680975.26409  -6330413.25209  -4910217.68508  21680976.51909  21680981.47508
  24190198.21008  10384755.19008   8081927.99306  24190201.40108  24190207.07406
  24215279.08609  -1415342.13409  -1083954.27006  24215279.38709  24215282.80906
  24979683.33608  -3442852.84108  -2295311.70305  24979685.38108  24979692.13705
  21672398.32209   5952548.46909   4639221.47507  21672399.33209  21672403.94607
  24088267.66008   2051944.60908   1610479.91406  24088269.58308  24088274.81906
  21262947.11109  -6731014.25909  -5217063.53508  21262949.91809  21262953.58508
  22335393.25709   6575463.18709   5124408.92407  22335393.77509  22335398.44207
 94  3 17  9 25 20.0000000  0  8  2 19 31 23 27 17 26 16             0.000591723
  21668997.49609  -6393356.25109  -4959264.17008  21668998.97409  21669003.92308
  24197251.53509  10421826.62009   8110814.79106  24197256.06609  24197261.76706
  24211362.50209  -1435918.66809  -1099987.93106  24211363.62309  24211368.19206
  24961320.84408  -3539362.80208  -2370514.26905  24961320.96908  24961325.53905
  21676139.80209   5972213.58309   4654544.91207  21676141.56609  21676146.17207
  24088800.36908   2054739.14708   1612657.45706  24088801.72208  24088806.98006
  21250928.72209  -6794182.71809  -5266285.71308  21250929.39609  21250933.04608
  22340336.24309   6601445.35509   5144654.73407  22340337.85509  22340343.54307
 94  3 17  9 25 40.0000000  0  8  2 19 31 23 27 17 26 16             0.000571852
  21657057.81709  -6456106.61409  -5008160.55208  21657057.82709  21657062.79508
  24204315.35708  10458925.90108   8139723.27806  24204315.31908  24204321.47306
  24207491.72509  -1456260.35809  -1115838.59806  24207492.74209  24207496.80506
  24942970.19508  -3635791.25708  -2445653.32705  24942970.95208  24942975.82805
  21679906.82109   5992004.46609   4669966.35307  21679907.59509  21679912.20707
  24089372.23108   2057745.04508   1614999.70106  24089373.34308  24089378.70006
  21238935.77309  -6857205.44109  -5315394.33108  21238936.58609  21238940.22708
  22345309.52409   6627566.30209   5165008.68007  22345308.60309  22345313.64807
 94  3 17  9 26  0.0000000  0  8  2 19 31 23 27 17 26 16             0.000551970
  21645154.23209  -6518661.23109  -5056904.40208  21645154.19509  21645159.10508
  24211381.39109  10496056.79609   8168656.39606  24211381.62409  24211387.27206
  24203667.47509  -1476364.34309  -1131504.03206  24203667.67909  24203672.25306
  24924635.45709  -3732143.03809  -2520732.66406  24924635.74709  24924640.91706
  21683696.89509   6011920.86109   4685485.59007  21683697.70409  21683702.37607
  24089985.98608   2060967.27608   1617510.52106  24089986.99208  24089992.22206
  21226969.01009  -6920087.34909  -5364393.22408  21226970.48609  21226974.22708
  22350307.98609   6653834.90809   5185477.68507  22350307.01409  22350312.65607
 94  3 17  9 26 20.0000000  0  8  2 19 31 23 27 17 26 16             0.000532084
  21633291.47109  -6581000.10909  -5105480.14608  21633291.60509  21633296.49108
  24218452.68208  10533224.27508   8197618.02406  24218454.27308  24218461.01006
  24199888.80509  -1496220.31409  -1146976.23506  24199889.54109  24199892.84506
  24906318.40809  -3828413.77009  -2595748.81306  24906316.42509  24906321.21906
  21687513.62209   6031980.03509   4701116.08707  21687514.75609  21687519.51107
  24090642.43008   2064418.59208   1620199.83306  24090643.44008  24090647.96606
  21215032.72009  -6982815.83909  -5413272.56808  21215033.80009  21215037.56008
  22355337.12009   6680267.31509   5206074.32707  22355337.16509  22355342.87107
 94  3 17  9 26 40.0000000  0  8  2 19 31 23 27 17 26 16             0.000512188
  21621469.89609  -6643121.79009  -5153886.64708  21621470.26609  21621475.02908
  24225530.91109  10570420.38809   8226601.96206  24225532.21409  24225538.35206
  24196157.47209  -1515827.23709  -1162254.37306  24196157.99609  24196161.83006
  24888012.62709  -3924602.92109  -2670701.38906  24888011.96409  24888017.15506
  21691358.47909   6052186.83309   4716861.61507  21691359.80009  21691364.51007
  24091341.57208   2068094.58708   1623064.22106  24091343.07608  24091348.16106
  21203124.61209  -7045392.53209  -5462033.62908  21203125.97109  21203129.52208
  22360397.31809   6706860.05609   5226795.90107  22360397.71509  22360403.08707
 94  3 17  9 27  0.0000000  0  8  2 19 31 23 27 17 26 16             0.000492279
  21609688.26409  -6705033.75209  -5202129.73008  21609688.85009  21609693.61608
  24232616.07008  10607640.32308   8255604.45706  24232615.13508  24232621.38806
  24192473.73809  -1535186.64109  -1177339.61206  24192474.48409  24192477.49606
  24869722.07009  -4020708.54709  -2745588.89616  24869724.27109  24869728.17806
  21695232.28409   6072536.75809   4732718.66807  21695232.38409  21695237.08207
  24092082.50708   2071983.57508   1626094.59306  24092083.03708  24092088.53606
  21191244.93409  -7107819.71609  -5510678.19508  21191246.30309  21191249.95208
  22365486.54209   6733606.29209   5247637.08407  22365487.44109  22365492.83807
 94  3 17  9 27 20.0000000  0  8  2 19 31 23 27 17 26 16             0.000472361
  21597946.39109  -6766736.99509  -5250210.17708  21597947.02309  21597951.82708
  24239699.91509  10644885.06509   8284626.28006  24239702.61809  24239709.26606
  24188836.43709  -1554292.12309  -1192227.00106  24188838.11709  24188841.46106
  24851451.04009  -4116729.87109  -2820410.70006  24851451.75909  24851456.41906
  21699129.55009   6093025.17809   4748683.64207  21699131.34309  21699136.15407
  24092860.91508   2076090.46208   1629294.74406  24092864.51108  24092870.26506
  21179393.47109  -7170094.15809  -5559203.73708  21179395.82509  21179399.51608
  22370607.08309   6760509.96709   5268600.94607  22370607.14009  22370612.33707
 94  3 17  9 27 40.0000000  0  8  2 19 31 23 27 17 26 16             0.000452437
  21586244.28909  -6828232.58909  -5298128.82008  21586244.73909  21586249.54708
  24246795.04709  10682158.14509   8313670.19806  24246795.84009  24246801.90706
  24185252.40109  -1573139.91209  -1206913.58706  24185251.62409  24185254.10206
  24833195.30009  -4212660.54409  -2895161.85406  24833196.51509  24833201.46306
  21703054.72209   6113647.36609   4764752.85107  21703055.59509  21703060.41607
  24093688.98508   2080417.24608   1632666.25006  24093687.85108  24093693.33806
  21167574.24709  -7232211.89809  -5607607.17208  21167575.19509  21167578.88908
  22375755.74409   6787575.18609   5289690.68507  22375757.39109  22375763.08307
 94  3 17  9 28  0.0000000  0  8  2 19 31 23 27 17 26 16             0.000432519
  21574585.18309  -6889505.28209  -5345873.78008  21574584.76409  21574589.64208
  24253894.15509  10719475.93809   8342748.94606  24253897.46409  24253903.53406
  24181715.46309  -1591712.57309  -1221385.80106  24181717.02909  24181721.57206
  24814960.87909  -4308479.55609  -2969826.00106  24814962.81809  24814967.42406
  21707007.72009   6134417.78309   4780937.56007  21707008.14509  21707012.78807
  24094554.57808   2084977.39108   1636219.57906  24094555.53508  24094560.75906
  21155785.08509  -7294156.05609  -5655875.35208  21155787.54409  21155791.22308
  22380939.72809   6814817.14909   5310918.14507  22380941.48809  22380946.65807
 94  3 17  9 28 20.0000000  0  8  2 19 31 23 27 17 26 16             0.000412598
  21562965.77309  -6950559.18909  -5393448.25808  21562966.87509  21562971.59908
  24261001.73509  10756828.37609   8371854.70706  24261005.13509  24261010.83306
  24178232.21009  -1610016.51609  -1235648.64106  24178234.15809  24178238.50706
  24796750.50209  -4404189.34309  -3044405.04806  24796749.38009  24796754.89306
  21710986.38909   6155333.32309   4797235.35507  21710988.31309  21710992.88907
  24095464.49508   2089765.59708   1639950.63906  24095466.00008  24095472.41106
  21144031.17809  -7355926.09209  -5704007.85108  21144033.08409  21144036.70708
  22386156.38609   6842226.69509   5332276.18507  22386157.08809  22386162.78207
 94  3 17  9 28 40.0000000  0  8  2 19 31 23 27 17 26 16             0.000392666
  21551387.40509  -7011410.61109  -5440864.95408  21551387.30309  21551392.02308
  24268116.44209  10794206.90409   8400980.79906  24268118.02209  24268123.90206
  24174800.77109  -1628060.88309  -1249709.21906  24174800.79909  24174804.86306
  24778558.30309  -4499794.73909  -3118902.75506  24778557.17209  24778561.37206
  21714992.56109   6176379.39609   4813634.86207  21714993.17509  21714997.73207
  24096416.65208   2094764.61808   1643845.96206  24096418.14708  24096423.22606
  21132307.73409  -7417533.88109  -5752013.92208  21132309.50309  21132313.04908
  22391401.05209   6869786.17909   5353751.06107  22391401.91909  22391407.29207
 94  3 17  9 29  0.0000000  0  8  2 19 31 23 27 17 26 16             0.000372729
  21539846.68409  -7072055.51909  -5488120.72708  21539846.80909  21539851.58708
  24275236.68109  10831624.88609   8430137.62306  24275238.23509  24275243.97006
  24171416.94509  -1645842.12109  -1263564.74806  24171417.39209  24171420.71406
  24760384.50508  -4595287.38008  -3193312.61706  24760385.32808  24760389.35906
  21719024.17109   6197558.28209   4830137.86007  21719023.52109  21719028.11907
  24097409.98408   2099979.55308   1647909.52506  24097410.38108  24097416.50106
  21120616.49009  -7478972.24309  -5799887.97408  21120618.36909  21120621.94408
  22396674.48909   6897500.86309   5375346.87207  22396675.72909  22396681.15907
 94  3 17  9 29 20.0000000  0  8  2 19 31 23 27 17 26 16             0.000352782
  21528344.80309  -7132498.11209  -5535218.85408  21528344.81509  21528349.63708
  24282362.69908  10869074.39308   8459319.02406  24282364.71008  24282370.31506
  24168081.38309  -1663369.08309  -1277222.14606  24168081.43209  24168086.71006
  24742233.37108  -4690678.23808  -3267643.13506  24742232.63908  24742237.47506
  21723075.99209   6218859.36209   4846736.07407  21723076.92609  21723081.71507
  24098442.94608   2105403.27108   1652135.77606  24098442.33908  24098448.29006
  21108954.54509  -7540251.50209  -5847638.04608  21108957.19609  21108960.91808
  22401975.64409   6925362.47609   5397057.17707  22401977.60209  22401983.23007
 94  3 17  9 29 40.0000000  0  8  2 19 31 23 27 17 26 16             0.000332823
  21516881.22609  -7192735.10009  -5582156.76508  21516882.03509  21516886.82208
  24289497.91408  10906553.69808   8488523.63606  24289497.05308  24289502.55406
  24164791.65109  -1680649.74309  -1290687.60706  24164793.29009  24164796.98506
  24724098.18908  -4785966.78908  -3341893.92206  24724100.44308  24724104.36506
  21727152.02809   6240281.01109   4863428.23807  21727153.46909  21727158.05707
  24099510.17908   2111028.52408   1656519.06206  24099512.77508  24099519.10006
  21097324.74609  -7601374.46309  -5895266.32708  21097325.84209  21097329.59108
  22407305.66309   6953366.23009   5418878.23607  22407306.53009  22407312.19407
 94  3 17  9 30  0.0000000  0  8  2 19 31 23 27 17 26 16             0.000312858
  21505460.50509  -7252749.93109  -5628921.57508  21505461.63909  21505466.36508
  24296632.24108  10944071.29608   8517758.08206  24296635.45808  24296641.95906
  24161553.27609  -1697675.63009  -1303954.55106  24161553.75109  24161558.37906
  24705988.19808  -4881140.85608  -3416055.50306  24705989.18808  24705993.07906
  21731255.23609   6261843.18809   4880229.90407  21731256.64609  21731261.18507
  24100623.79308   2116867.50308   1661068.89806  24100623.97608  24100629.78506
  21085723.23809  -7662333.52209  -5942766.89808  21085725.62109  21085729.52108
  22412664.26909   6981520.93609   5440816.91507  22412664.52409  22412669.94507
 94  3 17  9 30 20.0000000  0  8  2 19 31 23 27 17 26 16             0.000292890
  21494084.30109  -7312535.03009  -5675507.37208  21494084.76709  21494089.65408
  24303782.08408  10981628.69008   8547023.53606  24303782.56708  24303789.70506
  24158362.83009  -1714436.57509  -1317015.04506  24158363.88309  24158368.14306
  24687898.32108  -4976196.40008  -3490124.73706  24687900.34708  24687904.56206
  21735386.71109   6283556.39609   4897149.25507  21735388.20709  21735393.11307
  24101776.27208   2122928.34608   1665791.61906  24101778.12708  24101782.54706
  21074156.25909  -7723121.39409  -5990134.07208  21074158.01809  21074161.97708
  22418052.13509   7009832.34609   5462877.70807  22418051.84109  22418057.18807
 94  3 17  9 30 40.0000000  0  8  2 19 31 23 27 17 26 16             0.000272919
  21482750.17309  -7372096.13709  -5721918.62908  21482750.77809  21482755.71008
  24310937.07908  11019225.62908   8576319.80906  24310937.01108  24310943.63606
  24155222.69209  -1730933.81109  -1329870.06106  24155224.63809  24155228.75406
  24669834.24908  -5071134.65908  -3564102.59105  24669833.92108  24669838.27205
  21739547.24909   6305416.16109   4914182.80207  21739548.01809  21739553.04307
  24102972.70008   2129207.34708   1670684.33806  24102972.16208  24102977.72006
  21062620.72009  -7783737.69809  -6037367.55708  21062623.09609  21062627.12208
  22423467.21709   7038297.20409   5485058.06607  22423468.71209  22423474.28407
 94  3 17  9 31  0.0000000  0  8  2 19 31 23 27 17 26 16             0.000252948
  21471459.82109  -7431424.96609  -5768148.89108  21471460.99309  21471465.81008
  24318097.86308  11056869.87208   8605652.93606  24318100.35608  24318107.67206
  24152134.66409  -1747165.56509  -1342518.17506  24152135.07109  24152139.42106
  24651793.40408  -5165954.25108  -3637987.94505  24651790.48408  24651795.82405
  21743735.45209   6327425.87309   4931333.19507  21743736.43209  21743741.54907
  24104210.74608   2135716.03208   1675756.03106  24104210.59708  24104215.98306
  21051122.05309  -7844172.62709  -6084459.71108  21051123.03409  21051126.77108
  22428915.06309   7066926.64909   5507366.67007  22428916.86609  22428922.21007
 94  3 17  9 31 20.0000000  0  8  2 19 31 23 27 17 26 16             0.000232974
  21460215.36009  -7490520.10309  -5814197.05708  21460215.54709  21460220.49408
  24325271.41909  11094549.89709   8635013.95506  24325271.41709  24325277.64206
  24149096.45709  -1763138.94709  -1354964.98606  24149095.86209  24149101.29206
  24633767.69608  -5260660.59608  -3711785.07005  24633767.54208  24633773.50505
  21747950.86909   6349577.57609   4948594.23107  21747951.90809  21747956.71607
  24105490.72408   2142450.70108   1681003.80905  24105492.38708  24105497.69305
  21039655.13209  -7904431.24809  -6131414.48708  21039656.14609  21039659.85008
  22434396.05009   7095716.33009   5529800.13607  22434395.40409  22434400.42207
 94  3 17  9 31 40.0000000  0  8  2 19 31 23 27 17 26 16             0.000213000
  21449014.32209  -7549379.61109  -5860061.61008  21449015.10409  21449019.88308
  24332446.72609  11132265.36309   8664402.58206  24332448.44509  24332454.69406
  24146104.59209  -1778853.98709  -1367210.49806  24146106.13309  24146110.41106
  24615768.70608  -5355246.95908  -3785488.69705  24615769.53908  24615775.03805
  21752193.96409   6371872.16809   4965966.60707  21752194.45709  21752199.38807
  24106814.14208   2149415.17108   1686430.65506  24106817.91408  24106822.59906
  21028223.50809  -7964506.29609  -6178226.21608  21028224.22109  21028227.94808
  22439903.95409   7124672.23109   5552363.12407  22439905.38609  22439910.93007
 94  3 17  9 32  0.0000000  0  8  2 19 31 23 27 17 26 16             0.000193029
  21437857.30209  -7608009.05409  -5905746.89408  21437858.27609  21437863.15808
  24339628.65708  11170010.55208   8693814.39706  24339631.85508  24339637.34906
  24143163.59209  -1794311.30009  -1379255.16806  24143164.43509  24143168.91006
  24597792.81908  -5449715.55608  -3859100.58605  24597792.72108  24597797.92605
  21756463.98109   6394310.52909   4983451.01207  21756463.96009  21756469.09807
  24108186.53208   2156613.91208   1692040.04606  24108188.12608  24108193.51806
  21016824.61609  -8024399.18209  -6224896.00008  21016826.76909  21016830.55608
  22445447.47409   7153797.25909   5575057.89607  22445447.67009  22445453.30207
 94  3 17  9 32 20.0000000  0  8  2 19 31 23 27 17 26 16             0.000173058
  21426742.96209  -7666409.91209  -5951254.05708  21426745.07609  21426750.00308
  24346818.49609  11207789.03409   8723252.12706  24346820.57909  24346827.08706
  24140271.81109  -1809504.19809  -1391093.78406  24140272.67709  24140277.73906
  24579835.18508  -5544061.80008  -3932617.16706  24579839.48708  24579844.17106
  21760759.23009   6416890.56009   5001045.80507  21760760.99809  21760766.07207
  24109600.32208   2164043.86608   1697829.61405  24109601.46708  24109605.89005
  21005465.15209  -8084100.99309  -6271416.89808  21005465.91509  21005469.79508
  22451023.57709   7183095.49409   5597887.63507  22451023.23509  22451028.82707
 94  3 17  9 32 40.0000000  0  8  2 19 31 23 27 17 26 16             0.000153095
  21415676.71009  -7724573.05609  -5996575.98408  21415676.97809  21415681.91508
  24354017.08909  11245614.23409   8752726.28606  24354018.16709  24354024.43506
  24137432.06709  -1824426.67709  -1402721.69606  24137433.54009  24137438.11206
  24561911.59409  -5638270.17509  -4006026.28606  24561911.62609  24561917.17006
  21765085.02009   6439615.35809   5018753.41007  21765085.43509  21765090.32807
  24111059.55708   2171710.57908   1703803.66105  24111060.60708  24111065.18705
  20994141.86009  -8143597.94909  -6317778.16408  20994143.98509  20994147.84808
  22456633.59809   7212575.36309   5620858.91007  22456633.03109  22456638.27007
 94  3 17  9 33  0.0000000  0  9  2  9 19 31 23 27 17 26 16          0.000133154
  21404652.76109  -7782502.93509  -6041716.15208  21404653.29009  21404658.20408
  24702540.85608   -950373.65718   -701662.08516  24702542.71508  24702548.38306
  24361225.72809  11283478.84709   8782231.14406  24361223.62609  24361229.79406
  24134642.38709  -1839087.21709  -1414145.48506  24134644.03809  24134648.36706
  24544010.43909  -5732346.07609  -4079332.17706  24544010.06509  24544015.57306
  21769434.31709   6462477.88009   5036568.32607  21769436.00309  21769441.14907
  24112561.72808   2179599.94708   1709951.20205  24112561.70208  24112567.09905
  20982856.34909  -8202903.34809  -6363990.16808  20982858.44509  20982862.32008
  22462274.50709   7242228.23709   5643964.98907  22462275.93009  22462281.61707
 94  3 17  9 33 20.0000000  0  9  2  9 19 31 23 27 17 26 16          0.000113196
  21393674.03509  -7840195.08409  -6086671.07508  21393674.80809  21393679.87608
  24683095.42408  -1052575.60008   -781299.95706  24683094.14208  24683099.77306
  24368432.04409  11321377.32509   8811762.39406  24368434.98209  24368441.74206
  24131903.55109  -1853481.00709  -1425361.45606  24131904.45509  24131909.36406
  24526133.04609  -5826283.73909  -4152530.37116  24526134.06409  24526139.05006
  21773813.00509   6485480.00809   5054492.02907  21773813.13409  21773818.36407
  24114103.47108   2187705.50508   1716267.20705  24114104.25508  24114108.61405
  20971607.52909  -8262019.62509  -6410054.80508  20971609.20009  20971613.13408
  22467947.16109   7272046.32709   5667199.81107  22467949.94509  22467955.78707
 94  3 17  9 33 40.0000000  0  9  2  9 19 31 23 27 17 26 16          0.000093237
  21382741.10609  -7897653.86109  -6131444.14608  21382740.73309  21382745.75908
  24663649.52508  -1154734.80408   -860904.55905  24663653.67908  24663659.54905
  24375652.88408  11359310.30308   8841320.52606  24375653.61808  24375660.10806
  24129218.25509  -1867600.79209  -1436363.89306  24129218.64609  24129221.89906
  24508285.09809  -5920078.24409  -4225617.00716  24508285.86609  24508291.22706
  21778217.33509   6508627.83109   5072529.26107  21778218.11009  21778223.18607
  24115683.91908   2196021.62608   1722747.29505  24115686.80808  24115691.86805
  20960394.54109  -8320943.28109  -6455969.34608  20960396.37909  20960400.29108
  22473654.95109   7302028.19109   5690562.24907  22473655.10409  22473660.98307
 94  3 17  9 34  0.0000000  0  9  2  9 19 31 23 27 17 26 16          0.000073270
  21371847.43809  -7954896.27309  -6176048.62208  21371847.78809  21371852.77608
  24644218.05408  -1256864.83108   -940486.41205  24644218.00508  24644224.83705
  24382874.20208  11397264.98108   8870895.56706  24382875.82708  24382882.42906
  24126578.88609  -1881456.84909  -1447160.81606  24126580.20809  24126585.86606
  24490460.39509  -6013744.77609  -4298603.92316  24490461.24209  24490466.43906
  21782647.48609   6531912.23609   5090672.92507  21782648.98009  21782653.95507
  24117303.38108   2204533.74308   1729380.08805  24117306.76708  24117311.45605
  20949216.72409  -8379687.18609  -6501743.82508  20949217.93609  20949221.86208
  22479386.03009   7332155.38409   5714037.92707  22479388.20409  22479394.34607
 94  3 17  9 34 20.0000000  0  9  2  9 19 31 23 27 17 26 16          0.000053295
  21360997.97109  -8011911.68209  -6220476.21008  21360998.11009  21361003.11608
  24624786.63708  -1358959.36308  -1020040.55505  24624789.83708  24624796.88205
  24390103.54808  11435248.76808   8900493.28205  24390103.88908  24390110.84605
  24123995.59409  -1895038.36609  -1457743.80506  24123996.29009  24124002.01906
  24472664.56509  -6107278.56809  -4371487.39706  24472662.73809  24472667.45806
  21787105.92609   6555338.16409   5108926.86807  21787106.71009  21787111.87807
  24118961.95508   2213244.04608   1736167.30705  24118964.52308  24118969.06405
  20938073.64209  -8438246.90009  -6547374.77308  20938074.17209  20938078.23708
  22485148.20209   7362424.72409   5737624.37207  22485148.29609  22485153.73107
 94  3 17  9 34 40.0000000  0  9  2  9 19 31 23 27 17 26 16          0.000033315
  21350191.67509  -8068696.55209  -6264724.15508  21350192.26109  21350197.26708
  24605368.36608  -1461022.65108  -1099570.35705  24605368.63608  24605374.76905
  24397335.58108  11473261.47608   8930113.54805  24397337.48708  24397343.74205
  24121463.96209  -1908342.24109  -1468110.45506  24121464.88809  24121470.55906
  24454887.24809  -6200680.66409  -4444268.23806  24454888.22109  24454894.08606
  21791589.82009   6578903.44609   5127289.39707  21791591.28109  21791596.28007
  24120655.32808   2222156.24408   1743111.85905  24120660.46508  24120665.91405
  20926965.26009  -8496624.67009  -6592863.94708  20926965.39509  20926969.31708
  22490934.36209   7392835.58209   5761321.09607  22490935.60809  22490941.20807
 94  3 17  9 35  0.0000000  0  9  2  9 19 31 23 27 17 26 16          0.000013328
  21339428.92309  -8125253.68309  -6308794.64508  21339429.67509  21339434.72208
  24585952.25708  -1563061.18908  -1179080.90806  24585951.68208  24585958.11306
  24404575.61708  11511298.53708   8959752.79705  24404575.88908  24404582.02405
  24118984.48109  -1921373.40609  -1478264.58606  24118985.44409  24118989.98006
  24437136.86009  -6293963.01209  -4516955.77506  24437137.62209  24437142.27506
  21796100.43809   6602607.73809   5145760.23807  21796101.89909  21796107.12407
  24122393.91408   2231268.10408   1750211.98306  24122394.47408  24122398.54706
  20915889.13809  -8554828.36509  -6638217.48108  20915889.71209  20915893.49108
  22496748.37909   7423384.52809   5785125.41207  22496748.86809  22496754.25907
 94  3 17  9 35 20.0000000  0  9  2  9 19 31 23 27 17 26 16         -0.000006666
  21328708.90109  -8181582.14809  -6352686.95208  21328710.70409  21328715.90808
  24566540.14408  -1665071.56408  -1258569.48806  24566539.77508  24566545.79706
  24411818.67208  11549357.95108   8989409.45305  24411817.79208  24411825.02805
  24116557.67909  -1934129.95409  -1488204.73406  24116557.93509  24116562.17306
  24419411.14009  -6387125.80509  -4589550.15006  24419409.45309  24419414.15006
  21800638.43309   6626450.27109   5164338.80407  21800638.99309  21800644.17607
  24124166.73608   2240586.93108   1757473.39206  24124167.58908  24124173.00706
  20904847.56309  -8612854.39809  -6683432.57708  20904847.83909  20904851.51708
  22502588.99609   7454073.17009   5809038.58307  22502588.76109  22502594.52007
 94  3 17  9 35 40.0000000  0  9  2  9 19 31 23 27 17 26 16          0.000973341
  21617827.05509  -6662261.67709  -5168800.87008  21617827.80909  21617833.08708
  24846925.74808   -191622.49308   -110427.33606  24846928.09708  24846934.21306
  24718857.03708  13162863.08008  10246686.14905  24718858.13508  24718865.03205
  24413972.05009   -371199.69209   -270337.00406  24413973.46909  24413978.39706
  24701494.32708  -4904745.75508  -3434448.80206  24701496.87808  24701501.06006
  22104993.70309   8225849.40509   6410623.81207  22104994.54409  22104999.89407
  24425773.62308   3825537.36208   2992499.66905  24425773.59608  24425778.96905
  21193630.41909  -7095280.11309  -5500907.16408  21193632.49509  21193636.25608
  22808248.31609   9060325.69009   7060663.86807  22808248.51309  22808253.97407
 94  3 17  9 36  0.0000000  0  9  2  9 19 31 23 27 17 26 16          0.000953348
  21607195.83309  -6718130.53209  -5212335.04308  21607196.39609  21607201.51008
  24827529.59908   -293558.36108   -189857.84005  24827528.91708  24827535.73205
  24726109.91708  13200989.44208  10276394.98106  24726113.55508  24726119.91206
  24411645.67709   -383427.64509   -279865.25907  24411646.75809  24411651.99407
  24683813.84209  -4997668.33709  -3506855.99306  24683814.14609  24683819.44106
  22109582.34209   8249967.59409   6429417.17507  22109584.34009  22109589.45807
  24427629.34208   3835290.17208   3000099.24206  24427629.63108  24427635.22206
  21182656.21109  -7152950.00109  -5545844.74208  21182658.23109  21182661.87808
  22814141.67609   9091311.61009   7084808.69007  22814144.58309  22814150.39507
 94  3 17  9 36 20.0000000  0  9  2  9 19 31 23 27 17 26 16          0.000933364
  21596610.33709  -6773753.45309  -5255677.57908  21596611.71409  21596616.76308
  24808138.39708   -395443.59408   -269248.86705  24808139.70308  24808148.04705
  24733375.31408  13239163.97408  10306141.34806  24733378.26808  24733384.74106
  24409367.60609   -395388.96609   -289185.75906  24409369.71609  24409375.66406
  24666159.53409  -5090457.99809  -3579159.60806  24666157.14309  24666161.94306
  22114199.98409   8274226.71309   6448320.35507  22114200.68909  22114206.13007
  24429529.87108   3845273.04708   3007878.07906  24429529.19908  24429534.17506
  21171719.32009  -7210437.06809  -5590639.86608  21171719.09709  21171722.66808
  22820071.01609   9122454.57609   7109075.87507  22820071.18009  22820077.02407
 94  3 17  9 36 40.0000000  0  9  2  9 19 31 23 27 17 26 16          0.000913385
  21586070.54609  -6829148.13209  -5298842.26208  21586070.46109  21586075.54608
  24788764.83408   -497289.68608   -348609.37905  24788760.21708  24788766.02705
  24740652.35208  13277378.27908  10335918.69306  24740650.29108  24740657.30106
  24407141.20809   -407097.58909   -298309.36706  24407141.40909  24407146.94906
  24648521.82808  -5183121.80208  -3651365.17706  24648523.73308  24648527.92606
  22118840.40309   8298610.67609   6467320.81007  22118840.70909  22118846.01607
  24431471.46408   3855469.55308   3015823.39306  24431470.73308  24431474.81806
  21160810.76309  -7267753.17909  -5635301.77708  21160812.11209  21160815.71808
  22826025.01009   9153750.23409   7133462.04707  22826026.53409  22826032.57007
 94  3 17  9 37  0.0000000  0  9  2  9 19 31 23 27 17 26 16          0.000893416
  21575572.02209  -6884309.64409  -5341825.25408  21575573.42909  21575578.51208
  24769388.05108   -599079.73208   -427926.27205  24769390.97908  24769396.32905
  24747929.85008  13315642.60908  10365735.03206  24747930.83108  24747937.90006
  24404962.81009   -418550.61609   -307233.80306  24404963.05909  24404967.27006
  24630914.16408  -5275647.68508  -3723463.25806  24630916.03408  24630920.83306
  22123506.23209   8323131.05209   6486427.56207  22123506.71509  22123512.28307
  24433448.48308   3865883.74308   3023938.34305  24433450.95708  24433456.18805
  21149939.28809  -7324887.13109  -5679821.74508  21149939.82509  21149943.57808
  22832012.58809   9185207.44209   7157974.10307  22832012.93109  22832018.42707
 94  3 17  9 37 20.0000000  0  9  2  9 19 31 23 27 17 26 16          0.000873450
  21565119.80709  -6939243.27309  -5384630.68108  21565119.98309  21565124.92408
  24750024.44608   -700821.48608   -507205.60805  24750030.91908  24750034.68705
  24755219.95708  13353946.33008  10395582.04306  24755221.34908  24755227.39806
  24402829.92509   -429758.20709   -315966.98107  24402830.25609  24402835.58307
  24613332.42908  -5368036.95508  -3795454.87006  24613335.39608  24613340.20206
  22128195.02709   8347777.05209   6505632.20507  22128196.93209  22128202.23407
  24435472.95908   3876507.31108   3032216.43305  24435472.23608  24435477.97905
  21139100.37609  -7381844.22409  -5724203.89708  21139101.02009  21139104.92708
  22838026.43709   9216818.36109   7182605.93307  22838028.11609  22838034.11707
 94  3 17  9 37 40.0000000  0  9  2  9 19 31 23 27 17 26 16          0.000853487
  21554708.30909  -6993954.69209  -5427262.95708  21554708.83009  21554713.55908
  24730678.43808   -802518.23108   -586449.86805  24730677.87808  24730683.01205
  24762511.95708  13392287.34908  10425458.10406  24762516.68108  24762523.12506
  24400743.09909   -440724.17609   -324511.89007  24400743.37209  24400748.72307
  24595776.25308  -5460294.93408  -3867344.17706  24595779.42108  24595783.83606
  22132909.74809   8372546.96309   6524933.40607  22132910.43409  22132915.75407
  24437530.00008   3887331.64608   3040650.95405  24437532.72808  24437537.57505
  21128294.56509  -7438627.73109  -5768450.79108  21128295.52809  21128299.27908
  22844075.43109   9248581.11409   7207356.07107  22844072.64209  22844078.18807
 94  3 17  9 38  0.0000000  0  9  2  9 19 31 23 27 17 26 16          0.000833523
  21544339.80209  -7048446.44809  -5469724.05908  21544339.44509  21544343.99808
  24711328.55908   -904177.33208   -665664.71805  24711332.29708  24711338.04405
  24769814.14908  13430659.43608  10455358.40206  24769818.31508  24769825.12606
  24398703.01309   -451440.73709   -332862.44706  24398704.11309  24398708.51806
  24578249.48408  -5552421.39708  -3939131.02006  24578248.42808  24578252.67306
  22137645.98809   8397439.29309   6544329.99607  22137647.44209  22137652.81907
  24439628.55408   3898349.10308   3049235.96205  24439629.33408  24439633.65405
  21117521.43009  -7495234.82009  -5812560.21208  21117523.69009  21117527.46908
  22850144.95509   9280492.76409   7232222.24007  22850145.29109  22850150.79507
 94  3 17  9 38 20.0000000  0  9  2  9 19 31 23 27 17 26 16          0.000813559
  21534010.95109  -7102720.62609  -5512015.62208  21534011.50109  21534015.99508
  24691998.03308  -1005796.00408   -744848.06605  24691994.54408  24692000.46505
  24777124.99008  13469056.27208  10485277.94606  24777125.54608  24777132.18406
  24396712.79709   -461896.85709   -341010.05507  24396714.59209  24396719.62907
  24560747.55908  -5644410.74308  -4010811.00406  24560743.14108  24560747.78206
  22142407.44809   8422457.87509   6563824.96907  22142408.19809  22142413.37107
  24441762.44408   3909560.83708   3057972.36805  24441762.48208  24441767.83305
  21106785.62209  -7551660.28809  -5856528.11708  21106786.40009  21106790.07908
  22856246.51609   9312555.29209   7257205.96707  22856246.33809  22856252.12407
 94  3 17  9 38 40.0000000  0  9  2  9 19 31 23 27 17 26 16          0.000793595
  21523723.92809  -7156778.60209  -5554138.72108  21523724.65409  21523729.20308
  24672660.19608  -1107378.51408   -824003.20205  24672663.68308  24672670.29405
  24784437.99808  13507476.20008  10515215.51906  24784436.60708  24784442.76006
  24394772.51609   -472090.88409   -348953.45107  24394774.21409  24394779.24407
  24543261.83609  -5736263.17909  -4082384.33106  24543264.68309  24543268.81906
  22147192.59609   8447605.28309   6583420.32007  22147193.68309  22147198.78207
  24443933.51008   3920969.54108   3066862.25105  24443933.76708  24443938.79105
  21096081.74109  -7607902.01509  -5900352.84508  21096083.86109  21096087.49208
  22862376.75409   9344774.32009   7282311.64807  22862377.90709  22862382.89307
 94  3 17  9 39  0.0000000  0  9  2  9 19 31 23 27 17 26 16          0.000773641
  21513483.44209  -7210592.62909  -5596071.72708  21513484.07909  21513488.73408
  24653346.85608  -1208905.43208   -903115.01305  24653343.21508  24653351.03105
  24791754.39509  13545936.07109  10545184.21206  24791755.83809  24791760.92506
  24392887.38309   -482007.56409   -356680.72106  24392887.53409  24392892.06906
  24525814.54109  -5827960.17209  -4153836.51506  24525814.97409  24525819.73006
  22152006.25209   8472902.88809   6603132.71107  22152007.81209  22152012.91107
  24446146.10908   3932597.12508   3075922.69205  24446146.50708  24446151.87505
  21085419.43809  -7663936.49609  -5944016.08108  21085420.85709  21085424.57808
  22868540.18509   9377164.43109   7307550.63907  22868541.62909  22868546.55007
 94  3 17  9 39 20.0000000  0  9  2  9 19 31 23 27 17 26 16          0.000753686
  21503288.21609  -7264170.95609  -5637821.07208  21503288.33509  21503293.10408
  24634027.41308  -1310399.69608   -982201.40705  24634030.35208  24634037.03805
  24799078.42609  13584416.56809  10575168.99806  24799078.11209  24799083.78606
  24391048.49209   -491666.44309   -364207.11106  24391049.13509  24391054.41306
  24508392.95109  -5919517.21509  -4225179.65006  24508392.36809  24508396.65106
  22156846.12909   8498334.41209   6622949.45207  22156847.38509  22156852.12007
  24448396.87508   3944428.94208   3085142.27106  24448397.48708  24448403.49206
  21074791.68309  -7719781.10409  -5987531.36408  21074793.97809  21074797.63608
  22874735.03409   9409704.52609   7332906.49907  22874733.32209  22874739.06707
 94  3 17  9 39 40.0000000  0  9  2  9 19 31 23 27 17 26 16          0.000733716
  21493133.47509  -7317533.69309  -5679402.42708  21493133.74609  21493138.57908
  24614722.22408  -1411873.53308  -1061271.89005  24614720.95308  24614726.95305
  24806399.23209  13622899.42409  10605155.61406  24806401.13809  24806406.93106
  24389253.91809   -501085.00809   -371546.25806  24389256.54409  24389261.53906
  24490993.56109  -6010948.71409  -4296424.97706  24490993.70909  24490998.36906
  22161708.47409   8523883.48409   6642857.78807  22161709.09209  22161713.96707
  24450685.04108   3956447.99108   3094507.75005  24450685.06008  24450691.28305
  21064197.74909  -7775454.32309  -6030913.09608  21064199.64309  21064203.35008
  22880948.17309   9442372.89509   7358362.30907  22880949.89609  22880955.41507
 94  3 17  9 40  0.0000000  0  9  2  9 19 31 23 27 17 26 16          0.000713735
  21483020.96209  -7370673.10209  -5720809.75708  21483021.80909  21483026.42908
  24595415.51409  -1513324.56109  -1140324.62405  24595416.09609  24595419.86805
  24813722.48809  13661383.98809  10635143.56806  24813724.16009  24813730.65606
  24387509.12709   -510261.14009   -378696.49006  24387510.65209  24387515.37206
  24473620.24909  -6102244.73809  -4367564.75006  24473620.27609  24473625.26706
  22166591.65809   8549547.09809   6662855.38307  22166592.76809  22166597.51207
  24453008.57708   3968659.85708   3104023.47905  24453008.92908  24453014.53505
  21053637.52509  -7830952.62009  -6074158.52808  21053638.64909  21053642.34408
  22887189.12609   9475166.54509   7383915.74107  22887190.75809  22887196.05207
 94  3 17  9 40 20.0000000  0  9  2  9 19 31 23 27 17 26 16          0.000693747
  21472954.15409  -7423578.77509  -5762034.95208  21472954.22709  21472958.73008
  24576115.82109  -1614738.85609  -1219348.76005  24576117.28109  24576119.96605
  24821050.68709  13699879.40209  10665139.99105  24821049.45509  24821055.77005
  24385810.85108   -519191.38708   -385655.12506  24385811.42308  24385816.42506
  24456273.39409  -6193395.29109  -4438591.15706  24456275.28509  24456279.83206
  22171497.19409   8575329.13809   6682945.25807  22171499.02209  22171503.93707
  24455370.87208   3981078.44808   3113700.29305  24455371.72508  24455377.25805
  21043110.43209  -7886269.68609  -6117262.74008  21043112.08309  21043115.78908
  22893453.63309   9508090.70509   7409570.87207  22893456.00009  22893462.00507
 94  3 17  9 40 40.0000000  0  9  2  9 19 31 23 27 17 26 16          0.000673757
  21462933.73809  -7476237.57509  -5803067.77908  21462933.54509  21462938.25908
  24556827.65708  -1716106.76908  -1298336.77205  24556827.24108  24556831.94505
  24828378.74609  13738400.46809  10695156.38805  24828379.51009  24828386.37905
  24384157.91508   -527872.72608   -392419.79806  24384158.47208  24384164.51406
  24438955.91709  -6284393.60009  -4509498.93206  24438958.89809  24438964.08106
  22176426.77509   8601236.59109   6703132.85407  22176429.09309  22176433.84207
  24457775.17908   3993709.98508   3123543.02705  24457776.37808  24457781.15705
  21032620.53309  -7941395.31509  -6160217.78308  21032621.94409  21032625.63008
  22899745.61809   9541150.08709   7435331.35707  22899747.07109  22899753.11507
 94  3 17  9 41  0.0000000  0  9  2  9 19 31 23 27 17 26 16          0.000653762
  21452958.80309  -7528649.73009  -5843908.41308  21452959.86209  21452964.59608
  24537546.73508  -1817424.61708  -1377285.74005  24537547.43208  24537553.55205
  24835716.88208  13776949.55808  10725194.60905  24835716.61108  24835721.30905
  24382551.56808   -536308.44708   -398993.10606  24382552.90008  24382559.16306
  24421672.45909  -6375242.00409  -4580289.90806  24421670.95209  24421675.92306
  22181382.39309   8627269.90609   6723418.52607  22181383.01409  22181387.94907
  24460216.55108   4006540.29708   3133540.66306  24460217.72108  24460222.23306
  21022168.11809  -7996326.10409  -6203021.00408  21022169.21109  21022172.81008
  22906061.87509   9574339.24209   7461192.97007  22906062.54409  22906068.29907
 94  3 17  9 41 20.0000000  0  9  2  9 19 31 23 27 17 26 16          0.000633765
  21443033.01409  -7580817.22209  -5884558.40208  21443032.65309  21443037.40808
  24518269.53108  -1918685.40608  -1456190.18905  24518276.65208  24518284.63905
  24843054.17608  13815526.79108  10755254.78005  24843056.38708  24843063.56605
  24380997.41608   -544488.35308   -405367.05906  24380997.58508  24381002.40806
  24404410.22209  -6465937.64209  -4650961.84306  24404412.20009  24404416.84806
  22186360.77709   8653431.62509   6743804.25107  22186361.49709  22186366.27507
  24462695.50008   4019568.34408   3143692.36805  24462696.14508  24462701.85405
  21011751.67909  -8051064.76309  -6245674.51308  21011752.88909  21011756.58008
  22912402.95809   9607662.30209   7487158.93007  22912404.31309  22912409.69007
 94  3 17  9 41 40.0000000  0  9  2  9 19 31 23 27 17 26 16          0.000613770
  21433148.76609  -7632748.25409  -5925024.13608  21433150.55609  21433155.21808
  24499015.28608  -2019880.59908  -1535043.46705  24499019.76908  24499026.59005
  24850400.74908  13854129.38208  10785334.70205  24850401.67408  24850409.38605
  24379486.62308   -552406.56308   -411537.10806  24379489.66708  24379495.62006
  24387181.34409  -6556484.36809  -4721517.74206  24387181.43909  24387186.79406
  22191363.68909   8679719.93709   6764288.62007  22191363.98709  22191368.76407
  24465210.11408   4032797.36808   3154000.69805  24465213.19708  24465219.45505
  21001371.30009  -8105612.78809  -6288179.47608  21001372.80309  21001376.40408
  22918771.38309   9641120.55009   7513230.22107  22918770.79909  22918777.15407
 94  3 17  9 42  0.0000000  0  9  2  9 19 31 23 27 17 26 16          0.000593773
  21423310.53009  -7684453.82209  -5965314.18208  21423311.41009  21423316.00308
  24479774.67808  -2121022.92408  -1613855.56705  24479773.67908  24479779.96905
  24857750.15108  13892748.97508  10815427.87005  24857751.72408  24857758.35205
  24378032.52308   -560068.81308   -417507.68106  24378032.86708  24378037.19006
  24369973.95209  -6646900.59009  -4791971.92006  24369975.63209  24369981.12706
  22196387.63109   8706120.28109   6784860.28707  22196387.87309  22196392.67207
  24467768.21908   4046213.29908   3164454.65705  24467767.02908  24467772.36205
  20991025.85709  -8159982.21809  -6330545.27108  20991026.84109  20991030.29008
  22925158.87109   9674703.48909   7539398.67507  22925161.43409  22925167.28407
 94  3 17  9 42 20.0000000  0  9  2  9 19 31 23 27 17 26 16          0.000573775
  21413513.64209  -7735936.23709  -6005430.34508  21413514.65709  21413519.48408
  24460538.28608  -2222106.92608  -1692622.27106  24460538.62408  24460545.27306
  24865101.42108  13931392.69408  10845539.81905  24865105.99708  24865112.41705
  24376623.11208   -567473.94308   -423277.90306  24376622.47408  24376628.78306
  24352794.22309  -6737188.69009  -4862326.27906  24352794.51509  24352799.53306
  22201433.79909   8732641.81109   6805526.38407  22201434.50509  22201439.61107
  24470354.54408   4059812.66708   3175051.55005  24470354.83408  24470360.15305
  20980714.04009  -8214169.67109  -6372769.27108  20980715.30809  20980718.76108
  22931575.63209   9708416.62909   7565668.59707  22931577.08609  22931582.46507
 94  3 17  9 42 40.0000000  0  8  2  9 31 23 27 17 26 16             0.000553759
  21403759.07009  -7787197.70609  -6045374.34208  21403759.80609  21403764.75408
  24441315.63509  -2323129.55009  -1771341.16506  24441314.68909  24441320.19406
  24375262.32108   -574623.08708   -428848.68006  24375262.33708  24375268.18106
  24335639.02809  -6827348.36409  -4932580.56506  24335637.73609  24335642.84906
  22206503.22709   8759286.97609   6826288.81607  22206505.07209  22206510.10407
  24472971.49508   4073581.87608   3185780.80005  24472975.10008  24472979.88405
  20970435.39309  -8268179.11409  -6414854.55708  20970437.46109  20970441.21208
  22938014.65909   9742259.59509   7592039.66307  22938017.07709  22938023.27507
 94  3 17  9 43  0.0000000  0  8  2  9 31 23 27 17 26 16             0.000533765
  21394047.33709  -7838232.13909  -6085141.42408  21394048.15809  21394053.14608
  24422098.96808  -2424089.67708  -1850011.37306  24422102.65108  24422107.44406
  24373948.31408   -581514.10008   -434218.32306  24373951.06208  24373956.81106
  24318506.56909  -6917374.20509  -5002730.56406  24318506.18009  24318511.12206
  22211600.43809   8786060.43209   6847151.21507  22211600.01509  22211605.14707
  24475627.50008   4087521.22608   3196642.60305  24475627.15108  24475632.40305
  20960192.67709  -8322008.98009  -6456799.91308  20960194.10009  20960197.69108
  22944483.95509   9776237.43609   7618515.84607  22944482.94709  22944488.80507
 94  3 17  9 43 20.0000000  0  8  2  9 31 23 27 17 26 16             0.000513777
  21384379.24309  -7889040.45509  -6124732.31708  21384379.70909  21384384.68008
  24402905.51708  -2524989.39008  -1928634.53005  24402901.96308  24402905.55805
  24372688.03509   -588151.53909   -439390.39506  24372689.06709  24372693.69006
  24301398.74409  -7007269.21509  -5072778.61706  24301399.92409  24301404.92306
  22216715.98209   8812951.72809   6868105.44507  22216717.00009  22216722.45107
  24478313.10108   4101638.72908   3207643.22605  24478314.59708  24478320.09005
  20949981.73409  -8375668.50309  -6498612.53308  20949982.95509  20949986.45108
  22950973.53309   9810345.38809   7645093.40007  22950973.80309  22950979.46007
 94  3 17  9 43 40.0000000  0  8  2  9 31 23 27 17 26 16             0.000493782
  21374752.65109  -7939629.28509  -6164152.18208  21374753.15609  21374757.96808
  24383711.54208  -2625837.58308  -2007217.54105  24383711.18808  24383715.64305
  24371468.38908   -594548.04208   -444374.68506  24371470.59108  24371476.12906
  24284316.21408  -7097036.96508  -5142727.50906  24284317.66008  24284322.73106
  22221853.49409   8839949.95309   6889142.98707  22221854.67809  22221859.95407
  24481034.69908   4115934.01808   3218782.39405  24481035.18108  24481039.50105
  20939802.01709  -8429157.96209  -6540292.63508  20939804.23609  20939807.86708
  22957486.19909   9844570.56809   7671762.31107  22957486.52009  22957492.07407
 94  3 17  9 44  0.0000000  0  8  2  9 31 23 27 17 26 16             0.000473784
  21365171.03909  -7989981.72509  -6203387.84108  21365171.33209  21365176.17008
  24364524.46508  -2726630.51708  -2085757.43105  24364529.35608  24364536.18305
  24370300.22509   -600695.19109   -449164.66706  24370301.83209  24370306.37206
  24267262.62109  -7186660.24609  -5212563.83006  24267262.29809  24267267.92606
  22227014.57409   8867065.66909   6910272.07907  22227014.66009  22227019.93007
  24483790.23008   4130415.00008   3230066.27005  24483790.39908  24483794.94005
  20929659.97909  -8482455.84109  -6581823.45408  20929661.85309  20929665.70308
  22964025.11209   9878924.11609   7698531.24307  22964023.81609  22964029.92407
 94  3 17  9 44 20.0000000  0  8  2  9 31 23 27 17 26 16             0.000453783
  21355636.43709  -8040090.26809  -6242433.44808  21355635.85409  21355640.87208
  24345357.39908  -2827364.57308  -2164251.41205  24345361.58008  24345368.83305
  24369178.67308   -606589.00508   -453757.24706  24369180.09908  24369185.28906
  24250237.51008  -7276122.78508  -5282274.89706  24250238.65708  24250243.77406
  22232197.16409   8894307.94509   6931499.78807  22232198.74709  22232204.06707
  24486580.65608   4145086.06908   3241498.24305  24486582.10608  24486586.34605
  20919557.44609  -8535551.02909  -6623196.33008  20919558.29409  20919561.96508
  22970587.77009   9913413.58409   7725406.07807  22970586.96309  22970593.07407
 94  3 17  9 44 40.0000000  0  8  2  9 31 23 27 17 26 16             0.000433782
  21346146.23909  -8089951.83909  -6281286.61408  21346147.44709  21346152.56208
  24326202.15208  -2928042.88008  -2242701.97206  24326202.69908  24326209.53706
  24368105.52408   -612232.73808   -458154.99306  24368106.34008  24368111.23406
  24233243.74908  -7365418.70508  -5351856.10606  24233246.11308  24233251.56306
  22237405.12809   8921669.89609   6952820.75207  22237405.79509  22237410.76907
  24489410.31008   4159949.88808   3253080.41405  24489410.05208  24489415.14905
  20909491.49409  -8588444.55909  -6664412.07308  20909492.98509  20909496.60908
  22977172.89909   9948037.20509   7752385.44907  22977175.27609  22977181.48007
 94  3 17  9 45  0.0000000  0  8  2  9 31 23 27 17 26 16             0.000413770
  21336704.41209  -8139572.17809  -6319951.80808  21336704.88709  21336710.06808
  24307053.91309  -3028682.81109  -2321122.66706  24307052.94309  24307058.52406
  24367077.34709   -617633.57709   -462363.46806  24367078.86409  24367082.92606
  24216281.48308  -7454557.72208  -5421315.07506  24216283.62408  24216288.41506
  22242632.19209   8949144.48409   6974229.48807  22242634.06409  22242638.93607
  24492275.15508   4175010.30208   3264815.79805  24492275.89108  24492281.88605
  20899464.51209  -8641137.12309  -6705471.21608  20899465.88309  20899469.47908
  22983788.20509   9982781.23609   7779458.65807  22983787.17509  22983793.13807
 94  3 17  9 45 20.0000000  0  8  2  9 31 23 27 17 26 16             0.000393748
  21327307.63509  -8188953.17509  -6358430.50408  21327308.10309  21327313.23908
  24287907.64709  -3129284.72009  -2399513.75006  24287908.43709  24287914.11606
  24366097.95209   -622787.61809   -466379.59906  24366098.15709  24366102.67406
  24199349.21409  -7543541.78509  -5490653.28906  24199350.68209  24199355.31406
  22247883.49409   8976733.44509   6995727.34407  22247884.14409  22247889.07407
  24495179.65008   4190274.79108   3276710.18305  24495180.77608  24495187.23005
  20889474.89509  -8693627.09309  -6746372.49508  20889477.28109  20889480.91508
  22990420.30209  10017640.68209   7806621.78207  22990421.06309  22990427.02707
 94  3 17  9 45 40.0000000  0  8  2  9 31 23 27 17 26 16             0.000373718
  21317955.91809  -8238095.42809  -6396723.16608  21317956.64509  21317961.93008
  24268769.78808  -3229845.95308  -2477873.13006  24268772.25708  24268777.13006
  24365163.16909   -627688.84909   -470198.72606  24365164.22409  24365169.82006
  24182448.33109  -7632365.95809  -5559866.92606  24182447.82509  24182452.78506
  22253156.20609   9004441.32709   7017317.86307  22253156.84409  22253162.04607
  24498121.76908   4205738.09308   3288759.49805  24498123.53708  24498129.54505
  20879526.59509  -8745911.86609  -6787113.87908  20879527.93709  20879531.50608
  22997078.09009  10052618.56209   7833877.20907  22997076.94009  22997082.92207
 94  3 17  9 46  0.0000000  0  8  2  9 31 23 27 17 26 16             0.000353674
  21308647.46309  -8287010.20309  -6434838.57008  21308648.50109  21308653.75608
  24249634.35408  -3330382.36808  -2556213.16205  24249639.64508  24249645.40405
  24364277.37109   -632348.85109   -473829.89506  24364279.01509  24364283.00306
  24165572.36909  -7721044.28709  -5628966.90206  24165572.92509  24165578.10306
  22258448.55809   9032262.37309   7038996.55507  22258450.98309  22258456.08707
  24501099.28508   4221376.74208   3300945.43605  24501100.27008  24501104.55805
  20869613.50209  -8798007.00209  -6827707.49608  20869614.51909  20869618.17608
  23003752.07909  10087709.96909   7861221.09207  23003754.72309  23003760.60507
 94  3 17  9 46 20.0000000  0  8  2  9 31 23 27 17 26 16             0.000333627
  21299383.43609  -8335692.69409  -6472772.97608  21299384.57809  21299389.66508
  24230510.53508  -3430882.94108  -2634525.23605  24230514.28308  24230520.75805
  24363438.12309   -636763.85509   -477270.15906  24363438.32209  24363442.67306
  24148724.88009  -7809570.36909  -5697948.25006  24148727.08109  24148731.94406
  22263765.89409   9060204.02009   7060769.22607  22263768.24909  22263773.36007
  24504106.26408   4237191.69308   3313268.75805  24504108.77808  24504114.08605
  20859734.37709  -8849920.12509  -6868159.28208  20859735.88909  20859739.59508
  23010453.36509  10122917.88309   7888655.76807  23010454.57909  23010460.63907
 94  3 17  9 46 40.0000000  0  8  2  9 31 23 27 17 26 16             0.000313580
  21290164.98109  -8384140.42109  -6510524.45208  21290165.18609  21290170.33708
  24211399.62608  -3531340.62308  -2712803.90105  24211399.18808  24211404.23405
  24362643.42809   -640934.55709   -480520.07406  24362644.41109  24362649.20906
  24131909.74209  -7897940.80209  -5766808.32406  24131910.48409  24131915.21306
  22269108.01609   9088267.66709   7082636.96307  22269108.70709  22269113.31507
  24507153.80208   4253188.15508   3325733.51505  24507152.77108  24507158.72105
  20849890.97309  -8901651.15609  -6908469.17908  20849891.82109  20849895.41208
  23017175.50409  10158243.08909   7916181.83107  23017176.56309  23017182.97007
 94  3 17  9 47  0.0000000  0  8  2  9 31 23 27 17 26 16             0.000293534
  21280988.93509  -8432357.01309  -6548095.81708  21280989.92509  21280995.02508
  24192291.35609  -3631758.13409  -2791051.31806  24192290.99309  24192295.70406
  24361897.59209   -644860.53309   -483579.30606  24361897.59609  24361901.61506
  24115120.81009  -7986163.47709  -5835553.25706  24115122.10309  24115127.30706
  22274471.82609   9116453.96009   7104600.27407  22274472.31209  22274477.10607
  24510228.06408   4269360.17408   3338335.06705  24510230.46008  24510235.45405
  20840081.37409  -8953199.06009  -6948636.38008  20840082.47509  20840086.13108
  23023918.92409  10193683.65909   7943797.79207  23023921.10109  23023927.00107
 94  3 17  9 47 20.0000000  0  8  2  9 31 23 27 17 26 16             0.000273482
  21271855.99209  -8480350.68909  -6585493.48008  21271856.99109  21271862.17708
  24173189.29709  -3732138.73709  -2869269.97306  24173189.04209  24173194.58306
  24361195.80509   -648546.98809   -486451.90606  24361196.00709  24361200.22306
  24098357.38509  -8074244.13209  -5904187.52706  24098361.46409  24098366.03406
  22279855.99909   9144753.15909   7126651.55607  22279857.50909  22279862.44707
  24513334.17708   4285691.12708   3351060.46205  24513338.94708  24513343.24005
  20830304.86409  -9004572.00209  -6988667.24708  20830306.45709  20830310.24408
  23030686.72409  10229236.99709   7971501.62107  23030686.53309  23030692.35707
 94  3 17  9 47 40.0000000  0  8  2  9 31 23 27 17 26 16             0.000253430
  21262766.41709  -8528116.99609  -6622713.97208  21262767.40709  21262772.47008
  24154093.86909  -3832469.83309  -2947450.02406  24154096.71309  24154102.53406
  24360539.60209   -651990.30109   -489135.02206  24360540.23709  24360544.98906
  24081630.15509  -8162169.39609  -5972700.72506  24081629.37709  24081634.51506
  22285263.81609   9173166.58309   7148791.84807  22285264.28809  22285269.24107
  24516474.31708   4302178.37008   3363907.64905  24516475.75408  24516480.73205
  20820564.54209  -9055759.80309  -7028553.84508  20820565.79609  20820569.59908
  23037475.85209  10264917.15909   7999304.28207  23037476.42909  23037482.94907
 94  3 17  9 48  0.0000000  0  8  2  9 31 23 27 17 26 16             0.000233377
  21253721.07909  -8575653.23409  -6659755.19008  21253721.54509  21253726.72908
  24135012.96208  -3932747.33408  -3025588.30006  24135014.47108  24135020.82306
  24359931.01509   -655193.11609   -491630.71506  24359931.12209  24359935.61806
  24064928.11609  -8249932.01109  -6041087.18206  24064928.72409  24064932.99106
  22290692.73509   9201698.79509   7171024.70007  22290693.94909  22290698.99607
  24519641.29208   4318827.02708   3376880.58705  24519643.54108  24519649.09605
  20810860.43809  -9106752.41409  -7068288.35108  20810861.96909  20810865.85008
  23044289.82009  10300727.57109   8027208.41907  23044291.06509  23044297.24307
 94  3 17  9 48 20.0000000  0  8  2  9 31 23 27 17 26 16             0.000213322
  21244717.69409  -8622961.76509  -6696618.97308  21244718.88509  21244724.08308
  24115943.97308  -4032968.39008  -3103682.57006  24115941.65008  24115948.66206
  24359366.70009   -658154.07809   -493937.94806  24359367.81409  24359372.44506
  24048259.96609  -8337532.41909  -6109347.23906  24048259.18009  24048264.00506
  22296144.70109   9230345.26509   7193346.58807  22296145.14709  22296150.01407
  24522839.92508   4335642.56408   3389983.60105  24522844.21008  24522849.19205
  20801193.52909  -9157549.33509  -7107870.36708  20801195.78709  20801199.73408
  23051125.90509  10336655.68609   8055204.30007  23051127.85509  23051134.22307
 94  3 17  9 48 40.0000000  0  8  2  9 31 23 27 17 26 16             0.000193262
  21235759.32809  -8670037.29509  -6733301.20108  21235760.54109  21235765.76408
  24096881.69208  -4133128.24908  -3181729.11806  24096881.58808  24096888.94306
  24358849.67109   -660868.72609   -496053.27506  24358851.21509  24358855.13206
  24031620.99109  -8424968.71109  -6177479.41006  24031620.85109  24031625.34606
  22301617.62409   9259106.99509   7215758.28907  22301618.35509  22301623.29407
  24526074.83908   4352633.89008   3403223.55605  24526076.90008  24526082.52305
  20791567.70009  -9208138.20309  -7147290.26408  20791569.04709  20791573.00108
  23057985.97809  10372703.90909   8083293.73607  23057987.91309  23057993.85107
 94  3 17  9 49  0.0000000  0  8  2  9 31 23 27 17 26 16             0.000173197
  21226847.48209  -8716872.69609  -6769796.31608  21226848.12509  21226853.33108
  24077827.65908  -4233223.93808  -3259725.66306  24077835.59208  24077839.49506
  24358382.09509   -663327.85309   -497969.49806  24358383.33809  24358387.65706
  24015011.75209  -8512244.31709  -6245486.37006  24015012.76509  24015017.35206
  22307113.73909   9287988.04109   7238262.96707  22307114.14509  22307119.18307
  24529343.92008   4369801.13408   3416600.61405  24529344.29808  24529348.42205
  20781981.58709  -9258514.36709  -7186544.42008  20781982.69409  20781986.52408
  23064871.16809  10408872.71409   8111477.16307  23064870.28809  23064876.69107
 94  3 17  9 49 20.0000000  0  8  2  9 31 23 27 17 26 16             0.000153127
  21217980.06009  -8763470.66909  -6806106.42108  21217980.83809  21217986.12308
  24058801.06209  -4333257.09809  -3337673.58406  24058800.33109  24058803.76506
  24357963.84709   -665535.68109   -499689.90806  24357963.75409  24357967.87906
  23998434.50509  -8599360.78909  -6313369.32306  23998435.03609  23998439.42306
  22312631.03309   9316979.35709   7260853.57007  22312631.31509  22312636.23207
  24532642.84308   4387138.75308   3430110.42505  24532643.01808  24532648.13205
  20772434.52609  -9308684.91309  -7225638.35108  20772435.76609  20772439.61908
  23071772.37909  10445151.81909   8139746.52407  23071774.56609  23071780.18307
 94  3 17  9 49 40.0000000  0  8  2  9 31 23 27 17 26 16             0.000133057
  21209158.81609  -8809828.71109  -6842229.56708  21209159.20009  21209164.51908
  24039778.32609  -4433219.85709  -3415566.64906  24039777.77809  24039781.68506
  24357589.57709   -667494.31709   -501216.14006  24357590.36209  24357594.52606
  23981889.92109  -8686309.05409  -6381121.23006  23981889.48309  23981894.14606
  22318170.09009   9346084.54509   7283532.89907  22318169.81309  22318174.89007
  24535978.53508   4404661.26408   3443764.31205  24535978.18008  24535983.03705
  20762925.73609  -9358652.37509  -7264574.03808  20762927.22209  20762931.12508
  23078697.57809  10481541.92209   8168102.37407  23078699.06009  23078705.35007
 94  3 17  9 50  0.0000000  0  8  2  9 31 23 27 17 26 16             0.000112992
  21200384.58009  -8855938.33009  -6878159.13608  21200384.97909  21200390.16708
  24020770.90409  -4533112.38709  -3493404.98416  24020768.50409  24020773.80506
  24357265.32209   -669199.81009   -502545.13206  24357265.94809  24357270.64806
  23965371.90009  -8773087.56909  -6448740.84206  23965376.19609  23965380.51906
  22323729.41209   9375309.84009   7306305.81907  22323731.33909  22323736.45207
  24539347.71508   4422379.03108   3457570.34905  24539349.64508  24539354.20605
  20753456.66409  -9408418.64809  -7303352.95508  20753457.15809  20753460.97508
  23085642.31409  10518040.85509   8196543.03207  23085644.80609  23085650.57207
 94  3 17  9 50 20.0000000  0  8  2  9 31 23 27 17 26 16             0.000092929
  21191659.58309  -8901795.02209  -6913891.62108  21191658.85609  21191663.93608
  24001768.77108  -4632940.16008  -3571192.80506  24001771.97708  24001777.73306
  24356990.07609   -670647.26209   -503672.99806  24356991.51309  24356994.56206
  23948892.93009  -8859701.90909  -6516232.51906  23948893.95909  23948898.58706
  22329312.74109   9404657.08609   7329173.77007  22329315.80609  22329321.10807
  24542756.99808   4440293.34508   3471529.54905  24542758.62508  24542763.22205
  20744022.44409  -9457987.46709  -7341978.01208  20744024.60709  20744028.37808
  23092610.14809  10554646.48209   8225066.83807  23092610.78509  23092616.72007
 94  3 17  9 50 40.0000000  0  8  2  9 31 23 27 17 26 16             0.000072872
  21182980.39809  -8947398.95409  -6949427.15008  21182980.77709  21182985.68608
  23982786.12308  -4732709.49008  -3648935.06806  23982785.41708  23982792.01606
  24356760.83809   -671843.71209   -504605.26916  24356762.51709  24356766.31806
  23932443.39809  -8946151.52909  -6583595.84906  23932443.28709  23932447.42306
  22334920.74009   9434119.74209   7352131.64407  22334922.21109  22334927.77807
  24546204.35708   4458400.00308   3485638.61005  24546203.91908  24546208.85205
  20734626.74709  -9507363.63709  -7380452.95508  20734628.58009  20734632.36008
  23099596.73709  10591365.55309   8253679.01007  23099597.96309  23099604.55407
 94  3 17  9 51  0.0000000  0  8  2  9 31 23 27 17 26 16             0.000052819
  21174349.44809  -8992753.24209  -6984768.15108  21174350.07309  21174355.13008
  23963815.15208  -4832423.55308  -3726634.24206  23963810.11408  23963816.74306
  24356582.78609   -672794.98009   -505346.48116         0.00009         0.00006
  23916021.17709  -9032437.47409  -6650831.64106  23916023.70709  23916027.95506
  22340548.72309   9463691.14709   7375174.26407  22340549.59309  22340554.93507
  24549682.58908   4476693.76708   3499893.48005  24549685.33208  24549689.90205
  20725267.39909  -9556552.55909  -7418781.98608  20725268.30209  20725271.91108
  23106607.04109  10628198.66509   8282380.07807  23106607.44709  23106613.01207
 94  3 17  9 51 20.0000000  0  8  2  9 31 23 27 17 26 16             0.000032769
  21165765.35709  -9037861.72609  -7019917.61308  21165766.15409  21165771.13508
  23944841.89308  -4932087.17108  -3804294.11106  23944846.16108  23944851.50106
  24356446.44409   -673504.33209   -505899.24216  24356447.12909  24356451.24706
  23899634.88909  -9118553.41709  -6717934.97806  23899636.04909  23899640.94506
  22346196.29609   9493367.44409   7398298.61507  22346196.73209  22346202.48407
  24553200.92908   4495173.92808   3514293.59005  24553201.65008  24553206.65105
  20715943.31909  -9605549.78809  -7456961.65108  20715944.55309  20715948.13708
  23113637.56209  10665150.98609   8311174.00807  23113639.12909  23113645.26207
 94  3 17  9 51 40.0000000  0  8  2  9 31 23 27 17 26 16             0.000012727
  21157229.34609  -9082719.15809  -7054871.44608  21157230.09009  21157235.07108
  23925890.61109  -5031695.26509  -3881910.77306  23925891.59409  23925896.17306
  24356356.46209   -673969.59809   -506261.79816  24356356.96209  24356361.41506
  23883284.61009  -9204489.35409  -6784898.02906  23883283.25209  23883287.46306
  22351864.72309   9523162.20509   7421515.27007  22351866.52309  22351872.03507
  24556752.49808   4513852.17508   3528848.05005  24556756.48108  24556759.93005
  20706657.62509  -9654344.70009  -7494983.66308  20706658.96409  20706662.58308
  23120695.68209  10702235.63409   8340071.06907  23120695.76909  23120701.93607
 94  3 17  9 52  0.0000000  0  8  2  9 31 23 27 17 26 16            -0.000007309
  21148741.30409  -9127321.91709  -7089626.83808  21148742.58109  21148747.41708
  23906946.22409  -5131247.06709  -3959483.59106  23906947.43409  23906951.26606
  24356315.62109   -674187.19009   -506431.35016  24356316.77109  24356320.82406
  23866963.63809  -9290251.61009  -6851725.75506  23866962.87209  23866967.84006
  22357556.22209   9553075.28109   7444824.12107  22357558.74009  22357564.36907
  24560346.43808   4532718.05608   3543548.71905  24560345.48908  24560351.09105
  20697413.09409  -9702927.72709  -7532840.57008  20697414.01409  20697417.57808
  23127778.68309  10739452.65709   8369071.26507  23127778.63909  23127785.07807
 94  3 17  9 52 20.0000000  0  7  2  9 31 23 27 26 16                0.000972660
  21440093.49109  -7596256.10609  -5896588.54008  21440094.74209  21440099.48908
  24187804.27208  -3655323.08408  -2809412.94106  24187805.71108  24187810.09606
  24656114.61809    901260.68309    721190.38706  24656114.90409  24656118.68706
  24150466.99209  -7800425.05809  -5690821.92406  24150467.35609  24150472.22006
  22663061.81909  11158516.70009   8695817.38907  22663063.90509  22663069.71107
  20988001.61809  -8175874.05409  -6342928.61808  20988002.68609  20988006.22808
  23434676.01209  12352215.37609   9625769.41107  23434676.84609  23434682.84107
 94  3 17  9 52 40.0000000  0  7  2  9 31 23 27 26 16                0.000952606
  21431699.35609  -7640375.95609  -5930967.64008  21431698.93709  21431703.72408
  24168878.40208  -3754773.33508  -2886906.61006  24168879.94408  24168886.19106
  24656162.39109    901521.12809    721393.32806  24656163.83509  24656168.90306
  24134211.09509  -7885857.66809  -5757392.77506  24134209.97709  24134214.82606
  22668793.60709  11188637.16009   8719287.84007  22668795.64309  22668801.20407
  20978836.30209  -8224034.04409  -6380455.88408  20978838.02909  20978841.57608
  23441807.90709  12389682.83709   9654964.76007  23441806.69009  23441813.81207
 94  3 17  9 53  0.0000000  0  7  2  9 31 23 27 26 16                0.000932552
  21423349.35009  -7684245.36509  -5965151.59108  21423350.79409  21423355.62408
  24149970.50608  -3854152.40908  -2964344.77306  24149969.26308  24149975.25306
  24656259.71208    902027.62908    721788.00216  24656261.13408  24656265.74706
  24117988.63609  -7971111.12909  -5823824.03906  24117986.41809  24117991.79206
  22674546.43409  11218866.74909   8742843.33107  22674548.36509  22674554.08607
  20969715.54209  -8271967.56209  -6417806.68008  20969716.71109  20969720.30208
  23448961.43809  12427282.79209   9684263.35207  23448962.30409  23448968.40407
 94  3 17  9 53 20.0000000  0  7  2  9 31 23 27 26 16                0.000912496
  21415049.16309  -7727870.23009  -5999144.98808  21415049.38009  21415054.10708
  24131066.33708  -3953464.90608  -3041731.04506  24131070.47408  24131077.14506
  24656398.74308    902776.60208    722371.62606  24656401.75808  24656407.23106
  24101797.12609  -8056190.76609  -5890119.85206  24101796.54209  24101801.37806
  22680321.78009  11249207.69909   8766485.59207  22680321.89909  22680327.73007
  20960636.78509  -8319677.63709  -6454983.36008  20960637.71009  20960641.32308
  23456138.04209  12465009.95409   9713661.06707  23456140.78909  23456147.53007
 94  3 17  9 53 40.0000000  0  7  2  9 31 23 27 26 16                0.000892440
  21406792.17009  -7771256.36209  -6032952.35708  21406793.20909  21406797.82708
  24112185.64909  -4052709.11209  -3119064.13106  24112185.67309  24112191.16606
  24656588.41208    903760.48508    723138.27306  24656590.24608  24656595.03306
  24085635.49809  -8141102.77009  -5956285.03606  24085637.98709  24085642.96506
  22686116.39209  11279659.70609   8790214.39607  22686116.80109  22686122.30707
  20951597.10909  -8367176.86509  -6491995.74608  20951598.90909  20951602.66008
  23463341.49509  12502854.19109   9743150.02107  23463342.86309  23463348.64907
 94  3 17  9 54  0.0000000  0  7  2  9 31 23 27 26 16                0.000872381
  21398581.73009  -7814408.28309  -6066577.22508  21398581.67909  21398586.32108
  24093310.10109  -4151885.87009  -3196344.68306  24093312.48309  24093318.29606
  24656820.02508    904973.95708    724083.84006  24656820.28608  24656825.42206
  24069512.61809  -8225855.21809  -6022325.89606  24069510.31009  24069515.34206
  22691928.39209  11310208.26009   8814018.42207  22691930.11109  22691935.73007
  20942595.24709  -8414480.42909  -6528855.66408  20942597.09109  20942600.90808
  23470561.63809  12540803.95909   9772721.18607  23470564.21009  23470571.46607
 94  3 17  9 54 20.0000000  0  7  2  9 31 23 27 26 16                0.000852317
  21390412.80609  -7857332.04609  -6100024.30408  21390413.45709  21390418.32708
  24074449.07408  -4251005.83708  -3273580.98506  24074450.94608  24074455.79606
  24657092.19208    906406.54408    725200.12006  24657093.94208  24657098.66106
  24053412.88209  -8310449.09509  -6088243.19306  24053412.41109  24053417.56006
  22697758.54009  11340845.58109   8837891.62307  22697760.13409  22697765.76707
  20933627.97409  -8461604.11409  -6565575.41608  20933629.85909  20933633.69108
  23477805.14209  12578850.10709   9802367.46607  23477803.64209  23477809.99207
 94  3 17  9 54 40.0000000  0  7  2  9 31 23 27 26 16                0.000832259
  21382290.61809  -7900015.85709  -6133284.41008  21382291.13409  21382295.77708
  24055603.73008  -4350056.93508  -3350763.61006  24055601.58108  24055607.39306
  24657410.01608    908065.66208    726492.92506  24657409.51808  24657414.36706
  24037348.74909  -8394865.02609  -6154021.84206  24037349.05009  24037354.18106
  22703607.65209  11371585.96909   8861845.13507  22703609.87209  22703615.78507
  20924696.92409  -8508542.07609  -6602150.44808  20924697.89009  20924701.74808
  23485064.66609  12617002.55309   9832096.57307  23485064.67509  23485071.68307
 94  3 17  9 55  0.0000000  0  7  2  9 31 23 27 26 16                0.000812204
  21374213.75709  -7942460.79409  -6166358.38608  21374214.06309  21374218.80308
  24036757.29208  -4449042.37108  -3427895.05106  24036765.35108  24036770.09606
  24657767.83308    909952.17108    727962.89506  24657767.92208  24657773.50606
  24021318.74909  -8479107.62609  -6219665.43306  24021317.79209  24021322.91806
  22709478.79209  11402430.03609   8885879.43307  22709479.46709  22709485.13307
  20915799.16909  -8555295.42309  -6638581.62608  20915800.99109  20915804.91408
  23492341.20709  12655257.10109   9861905.23907  23492343.39509  23492349.91507
 94  3 17  9 55 20.0000000  0  7  2  9 31 23 27 26 16                0.000792158
  21366181.76609  -7984662.44209  -6199242.78208  21366183.10609  21366188.05808
  24017941.91208  -4547959.02408  -3504972.93206  24017942.32108  24017946.99206
  24658170.11908    912074.04908    729616.25306  24658171.82608  24658176.92006
  24005322.38309  -8563172.49109  -6285170.51206  24005321.58509  24005326.37106
  22715371.26009  11433392.22509   8910005.77507  22715371.52109  22715376.70207
  20906938.50309  -8601861.16309  -6674866.61408  20906939.73809  20906943.66208
  23499643.89509  12693617.98709   9891796.77007  23499643.69009  23499651.72507
 94  3 17  9 55 40.0000000  0  7  2  9 31 23 27 26 16                0.000772117
  21358196.62009  -8026626.78109  -6231942.26508  21358197.83409  21358202.78508
  23999130.67509  -4646814.81709  -3582003.39206  23999131.17109  23999137.03606
  24658619.67108    914429.18608    731451.38406  24658619.89408  24658625.89406
  23989355.81709  -8647062.28609  -6350539.18406  23989357.64109  23989362.74206
  22721284.30409  11464464.31409   8934217.75207  22721284.05109  22721289.74907
  20898112.78609  -8648242.05709  -6711007.56808  20898114.00609  20898117.82308
  23506960.01109  12732072.79309   9921761.46007  23506962.20709  23506967.87607
 94  3 17  9 56  0.0000000  0  7  2  9 31 23 27 26 16                0.000752072
  21350255.54409  -8068356.04109  -6264458.56808  21350256.85209  21350261.94408
  23980327.65009  -4745618.68009  -3658993.36006  23980329.19309  23980334.65806
  24659111.15308    917016.92308    733467.75406  24659113.23308  24659118.36406
  23973425.39709  -8730778.85509  -6415772.87806  23973426.48309  23973431.62006
  22727213.43409  11495635.17109   8958506.69807  22727216.06509  22727221.30407
  20889321.79709  -8694436.87509  -6747003.53108  20889323.31409  20889327.14008
  23514292.62109  12770613.10209   9951792.80907  23514295.27109  23514303.29107
 94  3 17  9 56 20.0000000  0  7  2  9 31 23 27 26 16                0.000732022
  21342360.36009  -8109850.07009  -6296791.57208  21342360.77109  21342365.83808
  23961537.70609  -4844372.19909  -3735944.11006  23961536.99609  23961542.11006
  24659648.59508    919843.05208    735669.92606  24659650.37708  24659656.01506
  23957530.70909  -8814314.31509  -6480865.44506  23957530.34809  23957535.20306
  22733165.84409  11526911.51009   8982877.83407  22733167.78709  22733173.26507
  20880569.81409  -8740430.22009  -6782842.50008  20880571.01009  20880574.86108
  23521645.40209  12809238.90509   9981890.73407  23521646.54409  23521652.47507
 94  3 17  9 56 40.0000000  0  7  2  9 31 23 27 26 16                0.000711971
  21334510.39609  -8151103.25009  -6328936.90108  21334510.54609  21334515.66008
  23942755.98008  -4943063.50708  -3812846.38706  23942756.23308  23942761.51106
  24660237.11708    922921.51308    738068.75306  24660236.82608  24660241.92306
  23941667.08209  -8897660.50409  -6545810.52506  23941670.29009  23941674.80306
  22739140.40009  11558301.71309   9007337.69207  22739141.02909  22739146.44407
  20871859.62909  -8786201.94009  -6818508.77808  20871861.09909  20871864.89908
  23529012.99309  12847963.35709  10012065.56607  23529014.86709  23529022.27007
 94  3 17  9 57  0.0000000  0  7  2  9 31 23 27 26 16                0.000691914
  21326703.52809  -8192125.15909  -6360902.02308  21326704.22809  21326709.37808
  23923986.33008  -5041700.02308  -3889705.95806  23923985.66608  23923991.75606
  24660869.15708    926242.58908    740656.58406  24660869.21708  24660874.04506
  23925842.49509  -8980830.04309  -6610617.96606  23925843.51609  23925848.45806
  22745132.59609  11589793.90809   9031877.02307  22745133.86409  22745139.55607
  20863190.11509  -8831761.37809  -6854009.64408  20863191.41409  20863195.25608
  23536402.60909  12886778.59509  10042311.11107  23536401.58109  23536408.60107
 94  3 17  9 57 20.0000000  0  7  2  9 31 23 27 26 16                0.000671856
  21318943.45809  -8232904.55709  -6392678.17008  21318944.20809  21318949.28608
  23905231.81408  -5140272.07008  -3966515.27906  23905228.35708  23905234.05806
  24661548.49708    929810.95508    743437.11806  24661548.17908  24661552.90806
  23910052.24409  -9063813.94609  -6675280.73806  23910051.81109  23910057.41106
  22751145.12209  11621397.13209   9056502.87607  22751147.71909  22751153.43607
  20854561.79409  -8877103.45709  -6889341.13508  20854563.03609  20854566.93108
  23543804.93109  12925693.17209  10072634.08407  23543807.39709  23543812.62807
 94  3 17  9 57 40.0000000  0  7  2  9 31 23 27 26 16                0.000651790
  21311227.51609  -8273451.91209  -6424273.51008  21311228.46409  21311233.49308
  23886481.57309  -5238786.83909  -4043280.00906  23886482.52509  23886487.59106
  24662270.63708    933616.79708    746402.66206  24662272.45608  24662277.44906
  23894295.50909  -9146620.20109  -6739805.08106  23894294.97109  23894299.65206
  22757178.46209  11653094.38809   9081201.99607  22757179.68009  22757185.23707
  20845973.62009  -8922237.12809  -6924510.23008  20845974.58309  20845978.38108
  23551227.89609  12964696.02909  10103025.85307  23551228.14709  23551237.09007
 94  3 17  9 58  0.0000000  0  7  2  9 31 23 27 26 16                0.000631721
  21303557.19509  -8313763.13009  -6455684.84808  21303557.48409  21303562.46308
  23867744.54609  -5337237.80009  -4119995.02306  23867747.54109  23867752.23806
  24663040.62909    937659.53709    749552.85406  24663041.52009  24663046.36806
  23878570.82009  -9229248.98309  -6804191.15706  23878571.04609  23878575.67006
  22763229.07409  11684885.56609   9105974.30407  22763229.23209  22763234.87007
  20837424.06909  -8967162.31309  -6959516.87408  20837425.59909  20837429.32308
  23558670.40009  13003794.92209  10133492.43007  23558669.78009  23558674.95807
 94  3 17  9 58 20.0000000  0  7  2  9 31 23 27 26 16                0.000611648
  21295930.00209  -8353843.23209  -6486916.09408  21295930.57009  21295935.52508
  23849022.84509  -5435622.44909  -4196658.35306  23849025.28809  23849030.53706
  24663853.08609    941932.27509    752882.27006  24663854.16309  24663859.65206
  23862879.10509  -9311707.03809  -6868444.18706  23862879.95909  23862884.81406
  22769294.99109  11716769.73709   9130819.07707  22769296.46409  22769302.23007
  20828913.82809  -9011886.47109  -6994366.87008  20828914.78509  20828918.45508
  23566124.71209  13042990.86409  10164034.66707  23566127.49409  23566136.11707
 94  3 17  9 58 40.0000000  0  7  2  9 31 23 27 26 16                0.000591577
  21288347.15109  -8393689.05309  -6517964.78408  21288348.07509  21288353.07808
  23830314.92708  -5533936.74708  -4273266.85206  23830316.37108  23830322.38106
  24664709.26109    946427.88909    756385.33006  24664709.61009  24664714.84906
  23847220.24909  -9393995.83409  -6932565.33007  23847220.96109  23847225.84407
  22775382.58109  11748747.43309   9155736.72607  22775381.98909  22775387.63707
  20820439.65209  -9056416.31709  -7029065.46208  20820440.93909  20820444.52608
  23573607.04709  13082288.35809  10194656.00307  23573607.17709  23573611.94207
 94  3 17  9 59  0.0000000  0  7  2  9 31 23 27 26 16                0.000571513
  21280812.42209  -8433288.75809  -6548821.69308  21280812.48209  21280817.41808
  23811623.26708  -5632177.19608  -4349817.79906  23811621.58708  23811627.22106
  24665607.59709    951146.79209    760062.38807  24665608.13609  24665613.09907
  23831596.42009  -9476109.74709  -6996550.18807  23831594.76509  23831599.77607
  22781484.61309  11780826.53009   9180733.39207  22781486.07009  22781491.76807
  20812000.96409  -9100754.87209  -7063614.99308  20812003.48909  20812007.13108
  23581101.76309  13121689.91409  10225358.46207  23581103.74309  23581111.82707
 94  3 17  9 59 20.0000000  0  7  2  9 31 23 27 26 16                0.000551460
  21273324.99909  -8472630.12509  -6579477.30108  21273326.09209  21273331.00708
  23792941.10108  -5730335.16108  -4426304.48206  23792942.66608  23792948.04706
  24666549.37309    956098.38409    763920.73407  24666550.30809  24666554.90107
  23816003.92909  -9558037.97709  -7060390.36207  23816004.68909  23816009.58007
  22787611.27209  11813016.74009   9205816.64107  22787611.98509  22787617.36707
  20803602.29909  -9144892.89109  -7098008.26008  20803604.45109  20803608.19208
  23588618.74609  13161198.31609  10256144.11207  23588622.75109  23588629.64207
 94  3 17  9 59 40.0000000  0  7  2  9 31 23 27 26 16                0.000531408
  21265885.79609  -8511725.26509  -6609941.04308  21265886.52509  21265891.54708
  23774276.18009  -5828419.43309  -4502733.75306  23774278.21109  23774283.21906
  24667534.58709    961277.15709    767956.10507  24667535.83309  24667540.70607
  23800449.17109  -9639787.15709  -7124091.01807  23800448.32909  23800453.22207
  22793754.67609  11845306.23309   9230977.25907  22793756.25309  22793762.20807
  20795242.03809  -9188832.92009  -7132247.24908  20795242.95209  20795246.71408
  23596156.56709  13200801.70409  10287003.86506  23596158.43809  23596164.58506
 94  3 17 10  0  0.0000000  0  7  2  9 31 23 27 26 16                0.000511351
  21258491.93009  -8550586.72409  -6640222.69608  21258491.50309  21258496.39608
  23755622.97209  -5926441.47509  -4579114.54506  23755625.07709  23755630.04106
  24668560.64009    966668.82809    772157.43107  24668561.51509  24668566.12907
  23784923.58809  -9721367.10009  -7187659.79706  23784924.08709  23784928.74206
  22799916.68409  11877681.93809   9256205.05807  22799917.59209  22799922.93907
  20786916.10409  -9232580.80909  -7166336.51708  20786917.97909  20786921.68808
  23603708.76509  13240486.07709  10317926.67007  23603710.78509  23603718.51007
 94  3 17 10  0 20.0000000  0  7  2  9 31 23 27 26 16                0.000491292
  21251142.38109  -8589201.58909  -6670312.19608  21251143.35209  21251148.17308
  23736986.94409  -6024389.53909  -4655437.68906  23736985.97909  23736991.11106
  24669628.76609    972281.03009    776530.60206  24669629.65709  24669634.33306
  23769432.99909  -9802758.50809  -7251081.66406  23769435.89909  23769440.54306
  22806094.99409  11910156.19309   9281509.65207  22806097.07409  22806102.69607
  20778629.75009  -9276126.03209  -7200267.86308  20778631.51609  20778635.24808
  23611275.88309  13280258.44309  10348918.02606  23611278.86309  23611284.98406
 94  3 17 10  0 40.0000000  0  7  2  9 31 23 27 26 16                0.000471233
  21243840.02109  -8627571.21209  -6700210.60008  21243841.79209  21243846.68008
  23718359.86609  -6122268.34209  -4731706.85306  23718360.58409  23718366.28906
  24670738.39409    978113.26309    781075.22806  24670739.27409  24670744.27606
  23753982.79309  -9883958.39309  -7314354.29606  23753983.97909  23753988.90906
  22812296.83709  11942725.55309   9306888.35607  22812294.75509  22812300.34207
  20770382.86609  -9319466.98609  -7234040.03908  20770383.83609  20770387.59408
  23618862.08509  13320111.70509  10379972.46707  23618861.76609  23618871.16707
 94  3 17 10  1  0.0000000  0  7  2  9 31 23 27 26 16                0.000451159
  21236584.69809  -8665710.37309  -6729929.42008  21236584.23409  21236588.88808
  23699745.69709  -6220091.43909  -4807932.60106  23699745.24709  23699750.89706
  24671888.56309    984155.76109    785783.65906  24671888.84309  24671894.15606
  23738565.01509  -9964979.82209  -7377487.86606  23738565.94709  23738570.74906
  22818506.03409  11975373.99009   9332328.66507  22818507.72609  22818512.96207
  20762172.11809  -9362614.35909  -7267661.37508  20762173.41309  20762177.12908
  23626459.12809  13360028.99309  10411076.71206  23626459.52409  23626462.88306
 94  3 17 10  1 20.0000000  0  7  2  9 31 23 27 26 16                0.000431071
  21229368.62709  -8703623.48009  -6759472.09608  21229369.63609  21229374.42708
  23681138.49209  -6317853.71609  -4884110.95606  23681142.29509  23681147.59406
  24673078.87409    990414.38209    790660.45506  24673080.33509  24673084.31206
  23723179.95709 -10045819.44609  -7440479.76806  23723182.86809  23723187.93606
  22824734.47709  12008101.63509   9357830.70707  22824735.13809  22824741.22307
  20754000.55909  -9405560.79609  -7301126.13608  20754001.01909  20754004.72108
  23634063.91609  13400010.00809  10442230.75306  23634066.30509  23634075.26206
 94  3 17 10  1 40.0000000  0  7  2  9 31 23 27 26 16                0.000410974
  21222197.09409  -8741311.36409  -6788839.27608  21222197.71509  21222202.66508
  23662550.55809  -6415545.27509  -4960234.22406  23662552.34009  23662557.67306
  24674313.30709    996898.51709    795713.02306  24674314.21209  24674318.67606
  23707835.15909 -10126468.19309  -7503322.94606  23707835.76409  23707840.54606
  22830980.01209  12040915.38309   9383399.84207  22830979.70109  22830985.41707
  20745868.68609  -9448291.03309  -7334422.42708  20745869.83909  20745873.47508
  23641687.30309  13440066.60209  10473443.51206  23641691.07909  23641696.60306
 94  3 17 10  2  0.0000000  0  7  2  9 31 23 27 26 16                0.000390867
  21215067.80609  -8778779.01209  -6818034.84508  21215068.07409  21215072.83508
  23643974.82309  -6513171.58209  -5036306.63206  23643974.51109  23643979.78306
  24675587.23409   1003601.00909    800935.70306  24675589.36509  24675593.68406
  23692526.09209 -10206931.17409  -7566021.37106  23692524.18309  23692529.22306
  22837237.82409  12073810.07909   9409032.05207  22837239.00809  22837245.23907
  20737776.82809  -9490811.64809  -7367555.37608  20737778.45509  20737781.99108
  23649322.13909  13480194.52109  10504711.99806  23649324.43009  23649331.79606
 94  3 17 10  2 20.0000000  0  7  2  9 31 23 27 26 16                0.000370760
  21207983.57509  -8816007.38409  -6847043.96608  21207983.71609  21207988.52508
  23625411.34709  -6610724.23209  -5112321.66106  23625410.89809  23625415.50406
  24676907.35109   1010532.95209    806337.21906  24676908.40009  24676913.75206
  23677249.31009 -10287200.45309  -7628568.86206  23677249.68209  23677254.82906
  22843517.52809  12106801.17509   9434739.38907  22843517.32009  22843523.50607
  20729725.91809  -9533117.22709  -7400520.76508  20729727.93009  20729731.51308
  23656979.15109  13520404.79209  10536044.56106  23656978.58409  23656985.57406
 94  3 17 10  2 40.0000000  0  7  2  9 31 23 27 26 16                0.000350639
  21200939.90909  -8853013.40809  -6875879.82708  21200941.64609  21200946.53208
  23606855.85509  -6708223.99109  -5188295.48106  23606857.03909  23606862.44106
  24678268.12609   1017680.48709    811906.72406  24678268.66809  24678273.93706
  23662005.94309 -10367301.69209  -7690985.40806  23662007.25609  23662011.76806
  22849808.30209  12139870.14909   9460507.38907  22849810.04909  22849816.11307
  20721713.64909  -9575225.16809  -7433332.15408  20721714.93209  20721718.55808
  23664640.54609  13560681.61809  10567429.02906  23664641.21709  23664646.65306
 94  3 17 10  3  0.0000000  0  7  2  9 31 23 27 26 16                0.000330510
  21193942.29909  -8889791.00709  -6904537.69608  21193943.14009  21193948.03208
  23588314.80009  -6805662.40809  -5264221.48906  23588314.77709  23588320.33506
  24679669.17709   1025047.31309    817647.09406  24679670.70709  24679676.15606
  23646795.19109 -10447232.13709  -7753268.88306  23646796.66309  23646801.49906
  22856118.13909  12173024.23409   9486341.71707  22856119.23709  22856125.39007
  20713738.06709  -9617130.58409  -7465985.73108  20713740.62309  20713744.19408
  23672322.38509  13601035.47709  10598873.52607  23672322.39709  23672330.04507
 94  3 17 10  3 20.0000000  0  7  2  9 31 23 27 26 16                0.000310369
  21186987.10609  -8926343.45909  -6933020.12708  21186987.31509  21186992.31108
  23569779.89709  -6903047.36209  -5340105.83606  23569783.64409  23569788.63406
  24681112.93809   1032625.86209    823552.40906  24681113.06709  24681117.13006
  23631619.53709 -10526994.97909  -7815421.75006  23631618.28309  23631623.29506
  22862438.75509  12206258.36009   9512238.41007  22862443.51709  22862449.43507
  20705801.46009  -9658839.93309  -7498486.52708  20705803.71809  20705807.15308
  23680009.98209  13641462.57009  10630375.01606  23680012.76009  23680019.61106
 94  3 17 10  3 40.0000000  0  7  2  9 31 23 27 26 16                0.000290214
  21180073.42109  -8962673.72909  -6961329.42808  21180073.73609  21180078.76608
  23551258.19309  -7000384.10509  -5415952.63406  23551260.79209  23551266.25306
  24682591.97208   1040410.72908    829618.59405  24682593.50108  24682598.59505
  23616471.94009 -10606593.52909  -7877446.60206  23616471.43109  23616475.94906
  22868780.81609  12239564.14009   9538190.92807  22868781.27309  22868787.52307
  20697901.18909  -9700358.16109  -7530838.39808  20697903.22109  20697906.76808
  23687721.06708  13681960.29408  10661931.68106  23687721.37208  23687727.91806
 94  3 17 10  4  0.0000000  0  7  2  9 31 23 27 26 16                0.000270044
  21173203.88009  -8998774.36709  -6989459.79708  21173204.02909  21173208.91408
  23532745.08009  -7097676.78909  -5491765.08806  23532746.24809  23532751.53106
  24684112.05508   1048395.48708    835840.53605  24684112.61908  24684118.05605
  23601354.13509 -10686029.88309  -7939345.06806  23601354.96309  23601359.83106
  22875130.95709  12272933.48009   9564192.97107  22875131.48709  22875137.39007
  20690035.84509  -9741695.06909  -7563048.97608  20690037.00909  20690040.70908
  23695440.40909  13722524.79509  10693540.21306  23695439.49509  23695447.48206
 94  3 17 10  4 20.0000000  0  8  2  9 31 12 23 27 26 16             0.000249876
  21166381.45909  -9034626.72709  -7017396.70508  21166381.49809  21166386.51308
  23514243.45909  -7194911.76609  -5567532.57206  23514243.20209  23514248.62706
  24685671.66108   1056593.13608    842228.32005  24685672.95808  24685678.20005
  24391740.84408   4883951.68618   3840616.28417  24391742.89308  24391751.00307
  23586273.31109 -10765287.67709  -8001104.39107  23586272.92009  23586277.51607
  22881492.68409  12306379.75409   9590254.96707  22881496.06209  22881502.20307
  20682206.16909  -9782838.22809  -7595108.58408  20682207.65909  20682211.44508
  23703173.88108  13763167.87308  10725210.10506  23703174.68208  23703179.48506
 94  3 17 10  4 40.0000000  0  8  2  9 31 12 23 27 26 16             0.000229698
  21159605.43709  -9070230.04809  -7045139.55808  21159606.39309  21159611.32608
  23495751.34209  -7292077.31909  -5643245.95706  23495753.08609  23495758.35206
  24687275.12308   1065014.75908    848790.63205  24687274.99508  24687281.02105
  24371503.20609   4777609.61209   3757752.32207  24371507.04209  24371515.41007
  23571228.34209 -10844352.85609  -8062713.61807  23571227.22909  23571231.98607
  22887876.71909  12339906.15509   9616379.39307  22887875.99809  22887882.11807
  20674417.06609  -9823775.42209  -7627007.70308  20674417.65109  20674421.41408
  23710922.62709  13803899.31409  10756948.75506  23710924.83709  23710933.62506
 94  3 17 10  5  0.0000000  0  8  2  9  7 12 23 27 26 16             0.000209540
  21152875.22309  -9105598.99309  -7072699.77808  21152875.87109  21152880.89908
  23477271.49409  -7389181.32909  -5718911.39906  23477274.86109  23477279.56006
  24901915.35908   5890653.15018   4629907.07715  24901914.40808  24901921.69605
  24351281.68708   4671328.03008   3674935.52207  24351281.95108  24351290.87607
  23556216.73809 -10923226.13309  -8124173.31407  23556217.86009  23556223.06507
  22894267.39009  12373502.23809   9642558.12407  22894269.14909  22894274.97807
  20666664.55309  -9864513.20509  -7658751.43208  20666665.44409  20666669.18508
  23718692.36908  13844709.12208  10788748.51606  23718691.64308  23718696.78706
 94  3 17 10  5 20.0000000  0  8  2  9  7 12 23 27 26 16             0.000189340
  21146187.94209  -9140733.95309  -7100077.67508  21146189.92209  21146195.09208
  23458809.28709  -7486228.03809  -5794532.18406  23458807.32109  23458812.75606
  24883184.40708   5792245.51908   4553225.83405  24883187.30608  24883194.99905
  24331062.18508   4565106.02708   3592165.17807  24331067.93008  24331077.73407
  23541245.60009 -11001902.20509  -8185479.34007  23541246.43809  23541251.87207
  22900673.27509  12407167.93609   9668791.09207  22900675.58709  22900681.59807
  20658950.23609  -9905049.44009  -7690338.11208  20658951.62009  20658955.45108
  23726468.41809  13885593.90009  10820606.72406  23726471.51409  23726478.59006
 94  3 17 10  5 40.0000000  0  8  2  9  7 12 23 27 26 16             0.000169130
  21139547.24409  -9175638.56509  -7127276.08308  21139547.73909  21139553.01908
  23440349.78709  -7583220.28309  -5870110.51406  23440350.40009  23440355.61706
  24864470.74408   5693885.08408   4476581.38205  24864470.19308  24864478.65905
  24310865.02808   4458942.99508   3509440.84807  24310864.40108  24310875.46507
  23526310.74909 -11080386.30709  -8246635.78907  23526311.73409  23526316.57007
  22907091.69809  12440903.66809   9695078.63307  22907095.00509  22907100.99307
  20651275.34309  -9945383.69809  -7721767.40408  20651276.18309  20651280.01508
  23734264.88709  13926546.52909  10852517.74006  23734264.44209  23734273.10106
 94  3 17 10  6  0.0000000  0  8  2  9  7 12 23 27 26 16             0.000148915
  21132950.10809  -9210309.35409  -7154292.28908  21132950.25609  21132955.42708
  23421905.02909  -7680154.96409  -5945644.00206  23421904.06209  23421909.04106
  24845762.99708   5595570.78608   4399972.87305  24845761.08708  24845768.89405
  24290671.70808   4352842.16708   3426765.03207  24290674.18208  24290685.16607
  23511412.75109 -11158674.74809  -8307639.76807  23511413.44309  23511418.56207
  22913529.60409  12474715.79209   9721425.69507  22913529.68209  22913535.36207
  20643639.22409  -9985511.31409  -7753035.68008  20643640.00509  20643643.90208
  23742068.97909  13967564.37209  10884479.58806  23742069.37209  23742074.15306
 94  3 17 10  6 20.0000000  0  8  2  9  7 12 23 27 26 16             0.000128692
  21126394.61209  -9244753.45309  -7181131.85408  21126395.99309  21126400.97308
  23403467.79309  -7777033.58609  -6021133.80206  23403468.71509  23403474.44406
  24827060.05508   5497296.88708   4323395.83905  24827061.23008  24827068.49905
  24270496.75708   4246802.80408   3344137.09607  24270496.98308  24270506.64707
  23496551.30409 -11236770.10509  -8368493.29107  23496552.64609  23496557.52607
  22919975.99909  12508609.00709   9747835.94507  22919979.37709  22919984.95407
  20636040.47009 -10025433.97509  -7784144.24808  20636042.77409  20636046.66508
  23749885.92109  14008642.51909  10916488.50206  23749887.69409  23749895.83006
 94  3 17 10  6 40.0000000  0  8  2  9  7 12 23 27 26 16             0.000108459
  21119882.25009  -9278981.95909  -7207803.42508  21119882.46309  21119887.37608
  23385041.74509  -7873860.14809  -6096583.03106  23385042.92009  23385048.48706
  24808364.28708   5399059.82108   4246847.52805  24808367.42308  24808374.97705
  24250324.85208   4140820.91208   3261553.87607  24250329.91508  24250338.46607
  23481725.13109 -11314680.77509  -8429202.91107  23481726.51809  23481731.55107
  22926443.52109  12542582.11409   9774308.44607  22926444.24009  22926449.75807
  20628482.03009 -10065156.32409  -7815096.73408  20628484.01309  20628487.93808
  23757714.38009  14049776.71209  10948540.93106  23757714.48709  23757721.45906
 94  3 17 10  7  0.0000000  0  8  2  9  7 12 23 27 26 16             0.000088226
  21113410.65709  -9312986.79309  -7234300.70408  21113411.73409  21113416.70908
  23366628.05209  -7970626.98609  -6171985.72906  23366628.92709  23366634.06506
  24789681.68808   5300865.62308   4170332.61205  24789681.21808  24789688.72505
  24230173.30308   4034905.06108   3179022.08907  24230174.43408  24230182.13707
  23466935.66509 -11392399.55009  -8489762.99507  23466937.15509  23466942.45707
  22932926.14809  12576651.59709   9800856.04107  22932927.34709  22932932.84607
  20620963.97809 -10104674.94909  -7845890.47108  20620963.92409  20620967.73808
  23765555.92609  14090974.28509  10980642.92606  23765555.15009  23765560.55006
 94  3 17 10  7 20.0000000  0  8  2  9  7 12 23 27 26 16             0.000067985
  21106981.27209  -9346773.84709  -7260628.28308  21106982.30809  21106987.24008
  23348221.72309  -8067337.79509  -6247344.78306  23348225.54009  23348230.92306
  24770999.70008   5202699.59808   4093839.63205  24771000.66808  24771009.60505
  24210029.15308   3929046.28708   3096534.78207  24210030.01008  24210036.18307
  23452182.25609 -11469938.83409  -8550183.21607  23452181.67409  23452186.77707
  22939425.73509  12610809.86809   9827472.83707  22939427.55709  22939433.44007
  20613478.77609 -10143999.19109  -7876532.74308  20613480.88009  20613484.68308
  23773404.93809  14132225.15809  11012786.30606  23773403.64909  23773413.59606
 94  3 17 10  7 40.0000000  0  8  2  9  7 12 23 27 26 16             0.000047736
  21100592.86009  -9380343.00909  -7286786.07508  21100594.36609  21100599.30408
  23329835.75409  -8163988.61009  -6322657.08306  23329833.41709  23329838.81406
  24752324.35808   5104558.49308   4017366.07305  24752324.85408  24752332.23705
  24189896.31108   3823243.85108   3014091.30607  24189896.30708  24189902.61507
  23437459.48809 -11547304.26009  -8610467.96407  23437459.77609  23437464.64507
  22945943.47409  12645054.06809   9854156.57807  22945944.14109  22945949.60207
  20606033.66009 -10183132.91809  -7907026.56208  20606033.96709  20606037.93908
  23781265.56409  14173525.87609  11044968.59506  23781264.07209  23781267.72406
 94  3 17 10  8  0.0000000  0  8  2  9  7 12 23 27 26 16             0.000027481
  21094248.95409  -9413686.65609  -7312768.14508  21094249.23509  21094254.15708
  23311457.10909  -8260569.10509  -6397914.58306  23311455.48709  23311460.32006
  24733654.45708   5006446.81708   3940915.44705  24733654.34808  24733662.54005
  24169764.78207   3717505.39007   2931697.76507  24169773.61907  24169782.83107
  23422772.73509 -11624483.73409  -8670607.82007  23422772.90109  23422778.11807
  22952476.09209  12679383.91009   9880907.05807  22952477.01709  22952482.60307
  20598622.93109 -10222071.77809  -7937368.53508  20598623.94809  20598628.01208
  23789129.73809  14214885.55709  11077196.86406  23789133.43409  23789142.74806
 94  3 17 10  8 20.0000000  0  8  2  9  7 12 23 27 26 16             0.000007226
  21087947.27609  -9446796.53109  -7338568.05208  21087948.38609  21087953.49708
  23293088.95109  -8357073.42609  -6473112.72706  23293090.92709  23293095.73706
  24714988.24308   4908369.67508   3864491.75105  24714991.75908  24714999.03205
  24149667.91907   3611834.24707   2849356.76007  24149664.15507  24149675.58307
  23408121.69609 -11701470.26409  -8730597.31607  23408123.08009  23408128.21307
  22959025.75409  12713802.87709   9907726.99007  22959026.76509  22959032.46807
  20591249.98009 -10260815.54809  -7967558.48708  20591251.23009  20591255.27208
  23797017.11609  14256310.53509  11109475.91806  23797018.39509  23797025.98006
 94  3 17 10  8 40.0000000  0  8  2  9  7 12 23 27 26 16             0.000986977
  21381487.23309  -7904241.02309  -6136576.74908  21381486.98909  21381492.05308
  23574536.39609  -6878071.06809  -5320643.33306  23574535.95209  23574540.42606
  24996130.08308   6385762.84008   5015707.24605  24996130.29108  24996137.66205
  24429360.09808   5081662.03908   3994677.32107  24429363.43008  24429374.53707
  23693302.45709 -10202834.74009  -7562829.38007  23693304.09309  23693308.73507
  23265387.76209  14323735.06109  11162219.56207  23265386.50209  23265392.41107
  20883708.36509  -8723935.79509  -6769989.85208  20883710.02009  20883714.02708
  24104705.31409  15873224.82409  12369409.06006  24104705.10009  24104709.75206
 94  3 17 10  9  0.0000000  0  8  2  9  7 12 23 27 26 16             0.000966725
  21375277.92409  -7936863.59309  -6161996.93908  21375279.10209  21375284.37908
  23556202.47809  -6974417.81909  -5395718.70006  23556201.47709  23556206.47106
  24977482.07708   6287771.87308   4939350.69705  24977482.84408  24977491.26005
  24409277.16908   4976133.79908   3912447.65007  24409284.18608  24409293.26607
  23678725.68509 -10279425.33309  -7622510.35907  23678729.11409  23678733.66507
  23271968.30609  14358332.47009  11189178.53507  23271970.15709  23271976.04507
  20876412.99909  -8762277.29609  -6799866.35208  20876413.81009  20876417.88608
  24112615.80509  15914783.25309  12401792.19207  24112615.08309  24112624.05307
 94  3 17 10  9 20.0000000  0  8  2  9  7 12 23 27 26 16             0.000946460
  21369115.77109  -7969243.30409  -6187227.88608  21369117.38809  21369122.63808
  23537880.52409  -7070693.61309  -5470738.76906  23537881.08809  23537885.31706
  24958838.14808   6189815.29308   4863020.93705  24958843.42708  24958849.83305
  24389216.46209   4870670.08409   3830268.20907  24389215.42209  24389223.77307
  23664190.32509 -10355823.70809  -7682041.55707  23664191.11709  23664195.83507
  23278565.73609  14392997.75809  11216190.40607  23278566.72409  23278572.84907
  20869154.39409  -8800416.62009  -6829585.31008  20869155.98909  20869160.07808
  24120530.08209  15956398.64709  12434219.61406  24120533.01909  24120538.34606
 94  3 17 10  9 40.0000000  0  8  2  9  7 12 23 27 26 16             0.000926179
  21363001.93309  -8001381.95609  -6212270.99508  21363001.57509  21363006.77908
  23519570.24909  -7166908.64609  -5545711.50106  23519571.90809  23519576.50906
  24940207.25908   6091887.55908   4786713.64505  24940206.96608  24940215.33205
  24369153.53709   4765265.86609   3748135.13207  24369157.45109  24369165.49507
  23649688.33009 -10432034.38909  -7741426.49007  23649688.78009  23649693.12007
  23285174.48809  14427723.59409  11243249.45407  23285174.89809  23285180.79907
  20861935.02709  -8838358.20309  -6859150.18408  20861936.07509  20861940.05908
  24128459.67009  15998062.01209  12466684.58806  24128462.63109  24128469.62406
 94  3 17 10 10  0.0000000  0  8  2  9  7 12 23 27 26 16             0.000905882
  21356930.88009  -8033282.60909  -6237128.65008  21356931.01209  21356936.10508
  23501272.39009  -7263067.23209  -5620640.23907  23501273.71509  23501278.47607
  24921575.09908   5993989.94808   4710429.86605  24921578.22508  24921585.64105
  24349109.09708   4659920.96808   3666048.19407  24349110.83808  24349115.62207
  23635220.50109 -10508054.51009  -7800662.94107  23635222.43309  23635227.03807
  23291793.02509  14462506.59509  11270353.04607  23291794.21209  23291800.01907
  20854752.25009  -8876101.73909  -6888560.73908  20854753.92309  20854757.80808
  24136401.49809  16039775.64409  12499188.53306  24136398.42209  24136408.57906
 94  3 17 10 10 20.0000000  0  8  2  9  7 12 23 27 26 16             0.000885573
  21350906.73209  -8064936.69609  -6261794.17208  21350907.48809  21350912.67908
  23482984.22509  -7359157.15309  -5695515.47507  23482988.44009  23482992.52007
  24902956.17908   5896134.51108   4634178.91305  24902955.64108  24902964.28805
  24329075.65908   4554644.42908   3584014.42307  24329075.83508  24329080.96307
  23620793.21609 -10583878.02409  -7859746.19507  23620793.85509  23620798.07507
  23298423.96409  14497359.30609  11297510.96407  23298426.14209  23298431.69007
  20847610.02309  -8913633.84309  -6917806.54008  20847611.83409  20847615.54908
  24144348.61209  16081546.63609  12531737.30106  24144350.02009  24144351.76306
 94  3 17 10 10 40.0000000  0  7  2  9  7 23 27 26 16                0.000865240
  21344932.39009  -8096335.63909  -6286260.88108  21344932.40609  21344937.60808
  23464720.14409  -7455162.00209  -5770324.42807  23464719.43209  23464723.56107
  24884342.62808   5798338.42708   4557974.23905  24884346.39708  24884355.03405
  23606405.52409 -10659494.89309  -7918668.43607  23606404.23609  23606408.41707
  23305071.33809  14532294.60909  11324733.24206  23305073.88509  23305079.96006
  20840512.43709  -8950935.62409  -6946872.86708  20840513.51909  20840517.25608
  24152311.35008  16123389.04208  12564341.72406  24152308.70108  24152320.29606
 94  3 17 10 11  0.0000000  0  8  2  9  7 12 23 27 26 16             0.000844911
  21339001.06809  -8127502.54809  -6310546.78008  21339001.54509  21339006.67908
  23446464.30309  -7551094.04909  -5845076.65607  23446464.09909  23446468.57407
  24865742.70708   5700588.41008   4481805.42405  24865744.62208  24865754.12805
  24289059.41608    -45035.71218     -9212.21115         0.00008         0.00005
  23592051.20909 -10734916.58009  -7977438.58007  23592052.24809  23592056.36507
  23311735.05509  14567290.81909  11352002.96906  23311733.96309  23311739.91706
  20833455.38709  -8988018.79309  -6975768.85108  20833456.77409  20833460.57508
  24160286.05609  16165288.24509  12596990.26406  24160285.63609  24160292.59006
 94  3 17 10 11 20.0000000  0  8  2  9  7 12 23 27 26 16             0.000824582
  21333115.32509  -8158430.78409  -6334646.70108  21333116.28009  21333121.39808
  23428222.50109  -7646935.27209  -5919758.11107  23428226.02909  23428230.33907
  24847157.57608   5602900.24908   4405684.82805  24847155.42508  24847163.51905
  24269049.12409   -150072.74109    -91059.11717  24269062.52409  24269074.00807
  23577739.38009 -10810128.89809  -8036045.56907  23577739.89609  23577743.91007
  23318405.01609  14602364.73309  11379333.25306  23318408.21509  23318413.89406
  20826441.98609  -9024875.25509  -7004488.18008  20826443.28909  20826447.06008
  24168266.70908  16207261.63608  12629696.76406  24168269.97308  24168275.43606
 94  3 17 10 11 40.0000000  0  8  2  9  7 12 23 27 26 16             0.000804265
  21327277.40709  -8189111.30709  -6358553.60108  21327277.85109  21327282.92108
  23410007.33009  -7742669.03609  -5994355.82907  23410008.22409  23410012.71307
  24828580.72008   5505291.92408   4329626.45005  24828581.34508  24828589.63705
  24249093.58309   -255011.95309   -172829.87707  24249096.90709  24249106.30407
  23563468.78309 -10885119.11109  -8094479.50507  23563469.60809  23563473.57107
  23325101.47009  14637531.45109  11406735.85706  23325100.57709  23325106.18606
  20819473.34709  -9061497.93109  -7033025.34308  20819474.35609  20819478.08408
  24176275.78709  16249318.42109  12662468.20306  24176275.45609  24176284.30806
 94  3 17 10 12  0.0000000  0  8  2  9  7 12 23 27 26 16             0.000783958
  21321483.10409  -8219559.16409  -6382279.19908  21321483.64209  21321488.78508
  23391810.36109  -7838301.97009  -6068874.97707  23391809.83609  23391814.24507
  24810020.82608   5407760.60608   4253628.06505  24810021.82808  24810030.83205
  24229143.58708   -359861.37708   -254530.66807  24229145.71808  24229154.38707
  23549241.43209 -10959893.13309  -8152744.96607  23549240.61309  23549244.34007
  23331805.51609  14672783.25309  11434204.76006  23331808.19009  23331814.46906
  20812545.76909  -9097896.91109  -7061388.19008  20812547.69309  20812551.49008
  24184292.72508  16291448.61708  12695296.76906  24184290.51008  24184297.97506
 94  3 17 10 12 20.0000000  0  8  2  9  7 12 23 27 26 16             0.000763657
  21315733.51109  -8249773.16109  -6405822.57008  21315734.19209  21315739.25008
  23373631.93109  -7933831.48409  -6143313.54207  23373631.50709  23373635.76807
  24791475.94508   5310305.31508   4177688.90805  24791477.32908  24791485.07905
  24209216.04107   -464619.86807   -336160.59407  24209209.63707  24209218.50207
  23535052.45109 -11034448.92809  -8210840.38907  23535053.16109  23535056.94107
  23338528.96909  14708121.23609  11461740.82006  23338533.34509  23338538.76906
  20805662.96009  -9134070.55809  -7089575.45708  20805664.06509  20805667.71308
  24192322.41309  16333648.66309  12728179.88706  24192323.28609  24192329.31006
 94  3 17 10 12 40.0000000  0  8  2  9  7 12 23 27 26 16             0.000743361
  21310027.91709  -8279754.62609  -6429184.74708  21310028.75509  21310033.93708
  23355470.46409  -8029267.21609  -6217679.02607  23355470.39009  23355475.34607
  24772941.63908   5212922.26308   4101806.05305  24772944.48308  24772952.77805
  24189292.98108   -569290.03908   -417721.62307  24189289.15308  24189297.88807
  23520907.48209 -11108781.66309  -8268761.99807  23520907.86709  23520912.40707
  23345271.89009  14743543.73409  11489342.72606  23345273.62809  23345279.46606
  20798821.61709  -9170025.26109  -7117592.11808  20798822.12709  20798825.62308
  24200363.91708  16375913.37908  12761113.29106  24200364.69108  24200374.80606
 94  3 17 10 13  0.0000000  0  8  2  9  7 12 23 27 26 16             0.000723072
  21304367.90209  -8309502.74909  -6452365.10108  21304368.00509  21304373.14008
  23337327.77309  -8124614.79209  -6291975.82107  23337326.53409  23337330.92207
  24754429.49308   5115612.86608   4025980.58505  24754428.53308  24754435.64105
  24169392.23708   -673871.60008   -499213.73907  24169391.72708  24169397.94907
  23506804.70009 -11182885.89709  -8326505.54907  23506806.51109  23506810.91707
  23352028.02409  14779050.61609  11517010.38206  23352030.50209  23352036.53706
  20792019.12209  -9205766.57409  -7145442.50008  20792020.89809  20792024.48608
  24208419.02809  16418241.33309  12794095.96106  24208420.17509  24208424.36806
 94  3 17 10 13 20.0000000  0  8  2  9  7 12 23 27 26 16             0.000702793
  21298751.80309  -8339013.08009  -6475360.16108  21298752.49009  21298757.51108
  23319199.29309  -8219876.82509  -6366205.95907  23319198.62509  23319203.54807
  24735924.05108   5018374.92308   3950210.79105  24735924.64308  24735931.18005
  24149504.50008   -778367.13608   -580638.80607  24149506.30108  24149513.98707
  23492748.07509 -11256763.74209  -8384072.70607  23492747.86609  23492752.31007
  23358801.08309  14814642.76909  11544744.49606  23358803.24209  23358809.61706
  20785257.67809  -9241300.01109  -7173130.90108  20785259.13509  20785262.69008
  24216484.95008  16460628.84908  12827125.18206  24216485.61608  24216494.48306
 94  3 17 10 13 40.0000000  0  8  2  9  7 12 23 27 26 16             0.000682516
  21293181.08109  -8368286.10009  -6498170.30308  21293181.89809  21293186.96308
  23301083.05909  -8315065.37209  -6440378.82807  23301084.71209  23301089.58107
  24717431.33508   4921200.53908   3874490.52505  24717432.49408  24717439.78605
  24129632.00008   -882784.52708   -662002.95307  24129636.55908  24129644.58407
  23478731.50909 -11330422.72909  -8441469.33007  23478730.85209  23478735.56307
  23365591.11309  14850309.88309  11572537.01506  23365590.64509  23365597.20906
  20778534.84909  -9276633.25509  -7200663.30908  20778535.37009  20778538.74308
  24224562.13009  16503064.03309  12860191.36306  24224561.51409  24224570.33406
 94  3 17 10 14  0.0000000  0  8  2  9  7 12 23 27 26 16             0.000662239
  21287655.50109  -8397323.16309  -6520796.58308  21287656.39709  21287661.43808
  23282982.35209  -8410187.86509  -6514500.23407  23282983.50809  23282987.95607
  24698955.28208   4824085.18308   3798816.26305  24698951.59608  24698959.37805
  24109776.20508   -987127.70008   -743309.22107  24109780.00208  24109788.97507
  23464755.02609 -11403863.34509  -8498695.78107  23464755.50609  23464760.44007
  23372391.01009  14886048.85209  11600385.54906  23372391.39109  23372397.55806
  20771847.24009  -9311767.78209  -7228040.87208  20771849.53009  20771852.97208
  24232640.34608  16545540.35908  12893289.72406  24232643.27708  24232649.81806
 94  3 17 10 14 20.0000000  0  8  2  9  7 12 23 27 26 16             0.000641960
  21282175.08309  -8426123.34609  -6543238.28208  21282175.90809  21282180.87808
  23264894.80309  -8505241.21009  -6588567.76807  23264895.37409  23264900.18307
  24680482.78708   4727027.42608   3723186.88105  24680482.49908  24680489.91605
  24089937.37008  -1091396.03208   -824557.19607  24089938.72208  24089947.07707
  23450819.19409 -11477087.02709  -8555753.19507  23450821.66509  23450826.57807
  23379205.56709  14921859.74109  11628290.11506  23379205.88409  23379212.06806
  20765199.79809  -9346702.00609  -7255262.35308  20765201.79509  20765205.33408
  24240736.26409  16588060.22609  12926421.97506  24240735.97309  24240744.96806
 94  3 17 10 14 40.0000000  0  8  2  9  7 12 23 27 26 16             0.000621692
  21276743.03509  -8454672.32109  -6565484.23708  21276743.38109  21276748.21608
  23246823.60809  -8600207.10809  -6662567.15107  23246823.80009  23246828.51007
  24662026.29808   4630048.53608   3647618.96505  24662028.10908  24662035.98605
  24070115.18508  -1195573.64408   -905734.52407  24070114.27608  24070122.12507
  23436930.66009 -11550080.58809  -8612631.30507  23436931.44909  23436936.32207
  23386037.37309  14957760.18009  11656264.45506  23386037.71109  23386044.14506
  20758594.17909  -9381421.47709  -7282316.49508  20758594.87109  20758598.45208
  24248839.24108  16630641.34408  12959601.92406  24248838.76908  24248846.30006
 94  3 17 10 15  0.0000000  0  8  2  9  7 12 23 27 26 16             0.000601433
  21271357.67909  -8482972.36309  -6587536.22008  21271358.00109  21271362.92708
  23228769.83109  -8695076.93309  -6736491.67407  23228770.53009  23228775.55207
  24643586.83408   4533153.02308   3572116.01006  24643589.73208  24643597.30206
  24050304.32608  -1299661.20708   -986841.61807  24050306.29208  24050314.99007
  23423081.32209 -11622856.29009  -8669339.65407  23423082.71909  23423087.84107
  23392886.22809  14993747.24109  11684306.29806  23392885.74409  23392892.29106
  20752026.75909  -9415928.29709  -7309204.93408  20752028.29909  20752032.03708
  24256950.69209  16673284.61809  12992830.37106  24256953.30909  24256959.20406
 94  3 17 10 15 20.0000000  0  8  2  9  7 12 23 27 26 16             0.000581172
  21266018.03109  -8511030.14409  -6609399.43108  21266018.81509  21266023.72608
  23210735.50309  -8789850.55809  -6810341.23107  23210736.04309  23210740.69407
  24625164.42608   4436333.17708   3496672.03005  24625165.24908  24625172.90205
  24030510.79308  -1403664.78908  -1067883.26307  24030514.50808  24030523.29407
  23409270.15909 -11695427.61509  -8725888.74307  23409272.96709  23409278.06407
  23399747.50509  15029810.22809  11712407.30506  23399748.39309  23399754.45706
  20745501.70809  -9450222.85009  -7335927.96808  20745502.30909  20745505.96908
  24265077.08108  16715983.15808  13026101.85706  24265078.27308  24265088.20206
 94  3 17 10 15 40.0000000  0  8  2  9  7 12 23 27 26 16             0.000560914
  21260725.45309  -8538842.78009  -6631071.62108  21260726.26009  21260731.16508
  23192719.28209  -8884525.19309  -6884113.67007  23192720.01209  23192724.13807
  24606754.72608   4339593.87308   3421290.80306  24606756.29808  24606763.96606
  24010740.37008  -1507578.79108  -1148855.13407  24010741.83808  24010748.96207
  23395502.35009 -11767787.68509  -8782273.21607  23395503.20209  23395508.10807
  23406625.95709  15065954.23609  11740571.44306  23406626.67909  23406633.04106
  20739017.53109  -9484293.80209  -7362476.76808  20739018.82809  20739022.41308
  24273213.32709  16758743.26809  13059421.21706  24273216.58409  24273222.66906
 94  3 17 10 16  0.0000000  0  8  2  9  7 12 23 27 26 16             0.000540648
  21255476.05509  -8566427.32109  -6652566.07208  21255476.95209  21255481.81208
  23174718.02709  -8979117.14409  -6957821.67107  23174719.66809  23174724.34607
  24588357.08908   4242918.63708   3345959.49306  24588359.47308  24588367.49906
  23990981.16909  -1611418.57609  -1229769.21807  23990982.05409  23990988.95607
  23381770.40809 -11839951.26909  -8838504.58907  23381770.64509  23381775.93307
  23413517.03709  15102164.92209  11768787.53506  23413517.24009  23413523.37806
  20732574.09209  -9518152.95109  -7388860.52608  20732575.49109  20732579.18508
  24281364.46308  16801550.13808  13092777.20106  24281362.55708  24281368.68806
 94  3 17 10 16 20.0000000  0  8  2  9  7 12 23 27 26 16             0.000520372
  21250269.87909  -8593785.74709  -6673884.33108  21250271.06009  21250275.95208
  23156733.73409  -9073623.30209  -7031462.81707  23156735.35009  23156740.22707
  24569975.46408   4146307.24108   3270677.92706  24569974.99408  24569982.99006
  23971233.71509  -1715182.13609  -1310623.93607  23971236.25109  23971242.72007
  23368076.81909 -11911918.15909  -8894582.68507  23368075.95209  23368081.07607
  23420419.32809  15138441.76809  11797055.18606  23420420.64109  23420426.31406
  20726171.67909  -9551794.81809  -7415074.97408  20726173.72409  20726177.49108
  24289517.68408  16844408.96908  13126173.51006  24289516.35408  24289527.19406
 94  3 17 10 16 40.0000000  0  8  2  9  7 12 23 27 26 16             0.000500085
  21245108.27109  -8620912.95109  -6695022.41708  21245108.95209  21245113.86308
  23138765.19509  -9168046.41109  -7105039.24607  23138766.86809  23138772.57707
  24551603.44808   4049761.08208   3195447.19606  24551603.26608  24551610.59206
  23951503.95808  -1818867.97908  -1391418.07307  23951504.54308  23951513.60507
  23354419.31409 -11983684.38109  -8950504.42007  23354419.21309  23354424.46607
  23427334.34909  15174781.58109  11825371.90306  23427335.37809  23427341.82006
  20719811.98609  -9585218.99709  -7441119.79108  20719813.49309  20719817.10108
  24297681.69709  16887319.91109  13159610.47506  24297685.16609  24297689.61106
 94  3 17 10 17  0.0000000  0  8  2  9  7 12 23 27 26 16             0.000479780
  21239989.69609  -8647811.82109  -6715982.58508  21239990.32209  21239995.25308
  23120810.65709  -9262397.60709  -7178559.63507  23120812.95009  23120818.10407
  24533239.13708   3953266.47208   3120256.62706  24533240.33808  24533248.18406
  23931788.35108  -1922484.75108  -1472158.31307  23931786.48908  23931796.13507
  23340800.27209 -12055253.98609  -9006272.94007  23340800.09309  23340805.05807
  23434260.02009  15211170.54409  11853726.91706  23434260.39109  23434266.48706
  20713492.21009  -9618434.98009  -7467002.38108  20713492.65109  20713496.28608
  24305856.91608  16930270.92208  13193078.76306  24305855.81108  24305865.61406
 94  3 17 10 17 20.0000000  0  8  2  9  7 12 23 27 26 16             0.000459460
  21234915.84409  -8674476.63109  -6736760.36708  21234916.22509  21234921.20008
  23102870.74709  -9356679.12209  -7252025.73907  23102871.88709  23102876.44907
  24514885.95808   3856823.89008   3045106.60906  24514888.48808  24514895.83106
  23912078.10008  -2026027.50208  -1552840.85307  23912082.21908  23912092.63607
  23327220.78209 -12126611.56709  -9061876.25307  23327221.05109  23327226.16707
  23441195.80509  15247610.67809  11882121.79506  23441194.52909  23441200.83606
  20707211.39709  -9651434.68709  -7492716.44608  20707213.05009  20707216.68808
  24314040.53609  16973262.96209  13226578.85606  24314038.85209  24314047.29006
 94  3 17 10 17 40.0000000  0  8  2  9  7 12 23 27 26 16             0.000439131
  21229887.37309  -8700903.40309  -6757352.66108  21229887.43609  21229892.23808
  23084944.11209  -9450890.87409  -7325437.47807  23084943.93209  23084948.65607
  24496546.84008   3760439.19008   2970001.68806  24496546.91308  24496553.73406
  23892395.14908  -2129490.38708  -1633461.14907  23892395.24308  23892404.31507
  23313683.80809 -12197742.31909  -9117302.81807  23313685.37209  23313690.49507
  23448137.38009  15284111.60409  11910564.04806  23448140.78409  23448146.34006
  20700973.38909  -9684214.98809  -7518259.54708  20700975.22609  20700978.91408
  24322225.07808  17016301.13008  13260115.03306  24322228.56608  24322233.65606
 94  3 17 10 18  0.0000000  0  8  2  9  7 12 23 27 26 16             0.000418793
  21224902.42809  -8727092.98409  -6777760.13908  21224903.58009  21224908.33908
  23067026.25109  -9545034.83909  -7398796.39707  23067028.92909  23067033.71807
  24478213.76108   3664112.44908   2894941.93306  24478215.55508  24478223.37606
  23872719.52209  -2232876.08909  -1714021.37207  23872722.03609  23872729.66407
  23300191.08909 -12268651.60809  -9172556.81407  23300192.05909  23300196.87707
  23455097.38909  15320673.79909  11939054.04306  23455098.10809  23455104.16206
  20694777.37309  -9716782.24509  -7543636.64308  20694777.83609  20694781.53008
  24330420.40609  17059379.23409  13293682.28206  24330425.28609  24330435.64306
 94  3 17 10 18 20.0000000  0  8  2  9  7 12 23 27 26 16             0.000398444
  21219962.63609  -8753050.55609  -6797986.83008  21219963.82209  21219968.76108
  23049123.85809  -9639108.98809  -7472100.90707  23049126.89409  23049131.71807
  24459893.76608   3567841.99908   2819926.05106  24459896.55408  24459903.81306
  23853059.11809  -2336187.84009  -1794524.01507  23853062.23609  23853069.29207
  23286738.44109 -12339344.76009  -9227642.38307  23286739.69609  23286744.43907
  23462063.75409  15357289.85509  11967585.99306  23462065.88209  23462072.10606
  20688618.38409  -9749142.90009  -7568852.74408  20688619.84209  20688623.57908
  24338629.33408  17102490.89008  13327275.62006  24338630.71408  24338638.85706
 94  3 17 10 18 40.0000000  0  8  2  9  7 12 23 27 26 16             0.000378093
  21215069.51909  -8778767.56409  -6818026.06708  21215069.93609  21215074.93808
  23031238.32809  -9733101.79909  -7545342.04107  23031241.28309  23031246.03307
  24441592.41708   3471642.84708   2744965.72306  24441589.72508  24441597.74206
  23833416.23008  -2439415.02708  -1874960.75507  23833418.07008  23833425.81107
  23273328.94509 -12409813.17009  -9282552.83307  23273330.02809  23273334.51407
  23469047.59809  15393969.98609  11996167.87406  23469045.83109  23469051.78506
  20682502.55609  -9781290.54809  -7593902.86908  20682502.38609  20682506.05608
  24346842.32408  17145643.71408  13360901.09005  24346841.48308  24346846.83105
 94  3 17 10 19  0.0000000  0  8  2  9  7 12 23 27 26 16             0.000357739
  21210221.15309  -8804248.77309  -6837881.56708  21210221.07209  21210226.07708
  23013367.82409  -9827011.88109  -7618518.71407  23013370.45409  23013375.48407
  24423296.40708   3375516.86408   2670062.41506  24423297.67108  24423305.69706
  23813789.89708  -2542558.39308  -1955332.14107  23813790.11108  23813799.07307
  23259962.97309 -12480060.33809  -9337290.88707  23259962.57309  23259966.90807
  23476037.54209  15430716.83609  12024801.73506  23476038.55309  23476045.05806
  20676423.56309  -9813223.63209  -7618785.80308  20676425.67109  20676429.35308
  24355060.11309  17188834.07709  13394555.85706  24355061.31009  24355069.44906
 94  3 17 10 19 20.0000000  0  8  2  9  7 12 23 27 26 16             0.000337379
  21205415.39809  -8829499.88909  -6857557.77308  21205415.93209  21205420.87908
  22995516.22209  -9920842.72009  -7691633.63307  22995515.19009  22995520.02407
  24405019.45108   3279465.90908   2595217.55705  24405020.44608  24405028.15905
  23794180.20608  -2645619.58708  -2035639.47507  23794178.06308  23794187.31207
  23246634.94809 -12550094.19409  -9391862.72907  23246635.35909  23246639.78007
  23483043.57109  15467533.38509  12053489.90906  23483044.98409  23483050.90406
  20670388.99009  -9844939.44009  -7643499.43008  20670390.38609  20670394.10508
  24363283.50508  17232063.24008  13428240.76806  24363286.20808  24363295.74706
 94  3 17 10 19 40.0000000  0  8  2  9  7 12 23 27 26 16             0.000317007
  21200651.91109  -8854531.27509  -6877062.76108  21200652.79809  21200657.63908
  22977671.46209 -10014602.32009  -7764693.05007  22977673.21009  22977678.08407
  24386755.14308   3183489.26108   2520430.62905  24386755.95908  24386763.45305
  23774578.62908  -2748606.40208  -2115888.84507  23774580.36408  23774589.53507
  23233345.90209 -12619927.01909  -9446277.92207  23233346.46409  23233351.23307
  23490064.57009  15504413.77309  12082227.82106  23490062.59509  23490068.41206
  20664394.49609  -9876443.28109  -7668047.88808  20664395.40209  20664398.99408
  24371517.88608  17275325.68108  13461951.60706  24371519.55008  24371524.87806
 94  3 17 10 20  0.0000000  0  8  2  9  7 12 23 27 26 16             0.000296618
  21195929.39809  -8879348.05409  -6896400.51808  21195930.40409  21195935.15208
  22959843.18009 -10108296.44009  -7837701.43307  22959843.62609  22959848.60707
  24368506.23608   3087587.47408   2445702.02505  24368506.55908  24368514.17805
  23754994.55008  -2851524.91108  -2196085.00107  23754996.25608  23755004.67907
  23220094.67409 -12689568.34409  -9500543.88307  23220094.30009  23220098.94507
  23497088.54909  15541348.73409  12111008.25906  23497091.23809  23497097.29406
  20658437.79509  -9907741.91509  -7692436.44308  20658439.45209  20658443.12308
  24379757.61308  17318609.05108  13495678.89606  24379756.81008  24379764.82106
 94  3 17 10 20 20.0000000  0  8  2  9  7 12 23 27 26 16             0.000276217
  21191248.14509  -8903950.38309  -6915571.17408  21191248.59109  21191253.51308
  22942027.72509 -10201918.37809  -7910653.57607  22942028.24109  22942033.20507
  24350274.76108   2991768.00508   2371037.58706  24350273.68908  24350280.48506
  23735423.89309  -2954370.63309  -2276224.45907  23735425.94009  23735433.61607
  23206877.88809 -12759010.75109  -9554654.84907  23206879.92809  23206884.27907
  23504129.04309  15578335.38209  12139828.98706  23504129.86209  23504136.08806
  20652520.80309  -9938835.17409  -7716664.96608  20652522.48509  20652526.22708
  24387994.64508  17361918.72408  13529426.52606  24387997.42508  24388007.09306
 94  3 17 10 20 40.0000000  0  8  2  9  7 12 23 27 26 16             0.000255806
  21186606.63509  -8928339.65209  -6934575.80808  21186607.56309  21186612.49508
  22924224.59409 -10295467.68609  -7983549.11207  22924226.25909  22924231.43307
  24332054.93108   2896035.57908   2296440.97006  24332055.33208  24332063.04106
  23715866.79808  -3057140.84608  -2356305.07507  23715868.74708  23715876.97607
  23193703.22909 -12828250.51309  -9608607.90707  23193703.99809  23193708.46907
  23511182.17709  15615378.62309  12168693.80606  23511178.85009  23511185.27206
  20646643.70809  -9969721.74009  -7740732.42708  20646645.16309  20646648.98808
  24396241.07008  17405253.30808  13563193.59306  24396243.67308  24396250.61406
 94  3 17 10 21  0.0000000  0  8  2  9  7 12 23 27 26 16             0.000235386
  21182006.59709  -8952515.79209  -6953414.36808  21182007.00509  21182012.05408
  22906436.93809 -10388944.29309  -8056388.00807  22906438.28509  22906443.47007
  24313853.88308   2800389.70708   2221911.79706  24313854.41808  24313862.42706
  23696321.06708  -3159835.47308  -2436326.78307  23696326.18108  23696334.09807
  23180567.94309 -12897285.50309  -9662401.40307  23180567.22609  23180571.48407
  23518238.00209  15652480.95309  12197604.67806  23518239.03109  23518245.48106
  20640806.14409 -10000400.63709  -7764638.07008  20640807.16209  20640811.03608
  24404494.44908  17448612.70508  13596980.11806  24404495.54008  24404503.81906
 94  3 17 10 21 20.0000000  0  8  2  9  7 12 23 27 26 16             0.000214960
  21177447.57809  -8976472.60609  -6972082.02808  21177448.20909  21177453.22708
  22888662.48109 -10482343.80009  -8129166.82207  22888664.71809  22888670.05207
  24295672.42308   2704829.74008   2147449.57206  24295670.39908  24295677.80606
  23676797.00908  -3262450.22908  -2516286.25707  23676798.25508  23676806.96307
  23167469.36109 -12966106.09709  -9716027.84107  23167470.95809  23167475.37707
  23525310.70309  15689644.01009  12226562.85506  23525310.93909  23525317.26906
  20635007.36609 -10030871.83209  -7788381.86808  20635008.62209  20635012.43908
  24412751.65808  17491998.99008  13630787.44706  24412751.13508  24412761.22706
 94  3 17 10 21 40.0000000  0  8  2  9  7 12 23 27 26 16             0.000194530
  21172929.43509  -9000218.97109  -6990585.69408  21172929.45009  21172934.49208
  22870905.42309 -10575672.30709  -8201890.30507  22870905.13209  22870910.06107
  24277501.84008   2609351.38708   2073050.95706  24277501.52208  24277508.93306
  23657282.74708  -3364989.88508  -2596187.20607  23657286.91108  23657294.26507
  23154415.99409 -13034710.33509  -9769485.67907  23154415.95909  23154420.16007
  23532394.64508  15726858.27708  12255560.94406  23532392.84108  23532398.99106
  20629246.15109 -10061148.58709  -7811974.14908  20629246.90909  20629250.67508
  24421011.55508  17535399.28608  13664605.71106  24421010.34608  24421018.38406
 94  3 17 10 22  0.0000000  0  8  2  9  7 12 23 27 26 16             0.000174101
  21168450.79509  -9023751.98109  -7008923.11408  21168451.25409  21168456.42808
  22853159.41909 -10668918.85409  -8274549.92907  22853160.64109  22853165.66507
  24259348.28708   2513957.08308   1998717.83406  24259347.96908  24259355.88906
  23637792.13809  -3467446.07909  -2676023.13207  23637790.05009  23637798.04007
  23141403.64109 -13103084.90209  -9822764.56707  23141404.31209  23141408.66407
  23539486.68209  15764127.74109  12284602.05406  23539484.81709  23539491.06406
  20623520.96809 -10091229.08409  -7835413.50308  20623522.77409  20623526.81008
  24429270.94708  17578819.03908  13698439.25806  24429273.15308  24429280.41906
 94  3 17 10 22 20.0000000  0  8  2  9  7 12 23 27 26 16             0.000153661
  21164008.27209  -9047091.30409  -7027109.60808  21164009.73709  21164014.99508
  22835428.37609 -10762097.31709  -8347156.50007  22835429.36309  22835434.28307
  24241206.96008   2418618.66008   1924428.27206  24241206.01308  24241213.45706
  23618305.60708  -3569836.87308  -2755808.08907  23618305.72308  23618313.57907
  23128431.94009 -13171246.54109  -9875877.54307  23128433.81709  23128438.20607
  23546583.13509  15801434.76509  12313672.42906  23546583.61409  23546590.41206
  20617831.88709 -10121130.04909  -7858712.96608  20617832.98009  20617837.02408
  24437529.92008  17622244.42208  13732277.07906  24437536.16508  24437545.96706
 94  3 17 10 22 40.0000000  0  8  2  9  7 12 23 27 26 16             0.000133212
  21159606.61409  -9070224.39809  -7045135.40408  21159607.69909  21159612.93608
  22817713.20709 -10855197.69909  -8419702.22707  22817712.79509  22817718.04707
  24223071.98608   2323335.43908   1850181.71306  24223074.39408  24223081.67506
  23598831.23709  -3672154.05509  -2835535.68607  23598835.22209  23598843.07707
  23115505.50209 -13239183.29009  -9928815.26907  23115505.88009  23115510.65407
  23553693.09609  15838788.30209  12342779.05006  23553692.22609  23553699.13006
  20612178.50409 -10150837.13309  -7881861.35008  20612179.99209  20612184.03708
  24445801.94608  17665676.92208  13766120.43606  24445802.37108  24445810.15906
 94  3 17 10 23  0.0000000  0  8  2  9  7 12 23 27 26 16             0.000112752
  21155246.14109  -9093147.09909  -7062997.25508  21155245.75709  21155250.91208
  22800010.95909 -10948224.74209  -8492190.80407  22800010.13209  22800015.55907
  24204950.53508   2228101.75408   1775973.75506  24204951.08508  24204958.83606
  23579375.68008  -3774397.68008  -2915205.95807  23579378.45208  23579386.95007
  23102621.58409 -13306892.35609  -9981575.58207  23102621.21509  23102625.64807
  23560807.44508  15876185.88708  12371919.99606  23560808.78508  23560815.16706
  20606563.02009 -10180348.02109  -7904856.85308  20606564.22909  20606568.32108
  24454073.25608  17709118.48108  13799970.91706  24454068.14608  24454076.14906
 94  3 17 10 23 20.0000000  0  8  2  9  7 12 23 27 26 16             0.000092284
  21150925.57909  -9115846.61309  -7080685.20008  21150926.15709  21150931.39308
  22782319.33009 -11041175.32609  -8564619.80507  22782322.51409  22782327.57807
  24186837.13608   2132920.96708   1701807.02106  24186839.26808  24186846.68006
  23559936.41608  -3876560.54108  -2994813.29807  23559937.23308  23559945.66007
  23089779.87209 -13374365.06409 -10034151.73107  23089781.57009  23089786.36107
  23567935.58308  15913628.92208  12401096.35706  23567934.23408  23567940.24606
  20600986.06209 -10209655.09809  -7927693.54508  20600987.28609  20600991.31608
  24462339.67808  17752578.59308  13833835.81506  24462337.35708  24462346.64806
 94  3 17 10 23 40.0000000  0  8  2  9  7 12 23 27 26 16             0.000071800
  21146646.62209  -9138330.15209  -7098204.85108  21146647.48409  21146652.85108
  22764646.37109 -11134058.59009  -8636996.35107  22764647.14109  22764652.56407
  24168735.14708   2037791.37308   1627680.17206  24168736.78808  24168744.45306
  23540507.05208  -3978650.66908  -3074363.97307  23540509.96208  23540518.22107
  23076985.95809 -13441613.47509 -10086553.09507  23076984.76109  23076989.41207
  23575062.92608  15951106.12308  12430299.35306  23575066.08308  23575072.57206
  20595446.63909 -10238767.02309  -7950378.17108  20595447.55809  20595451.56308
  24470606.43808  17796051.10808  13867710.41906  24470611.62508  24470619.99106
 94  3 17 10 24  0.0000000  0  8  2  9  7 12 23 27 26 16             0.000051295
  21142409.78209  -9160598.38009  -7115556.72708  21142409.96109  21142415.27808
  22746986.22009 -11226873.06809  -8709319.30007  22746985.10209  22746990.28907
  24150644.49108   1942709.95808   1553590.85906  24150643.64208  24150649.69606
  23521093.70208  -4080670.99908  -3153860.28807  23521096.83408  23521103.76107
  23064227.14209 -13508646.76509 -10138786.83007  23064228.83809  23064233.45007
  23582204.20708  15988615.96108  12459527.77806  23582204.02208  23582209.95506
  20589945.09509 -10267679.45109  -7972907.34008  20589945.70109  20589949.34208
  24478881.35208  17839536.78808  13901595.22105  24478884.61608  24478895.13805
 94  3 17 10 24 20.0000000  0  8  2  9  7 12 23 27 26 16             0.000030782
  21138217.85409  -9182625.43709  -7132720.67708  21138218.27209  21138223.73108
  22729340.35809 -11319596.25609  -8781571.11407  22729340.58409  22729345.93507
  24132563.33808   1847697.99608   1479555.66606  24132562.37808  24132569.99606
  23501700.87209  -4182602.40809  -3233287.33807  23501700.41009  23501707.37607
  23051515.19209 -13575452.77109 -10190843.47207  23051516.01409  23051521.02507
  23589352.87908  16026181.28308  12488799.42706  23589352.12208  23589358.50206
  20584484.37809 -10296369.53509  -7995263.25608  20584486.18509  20584489.79208
  24487169.15308  17883052.10008  13935503.15106  24487167.59908  24487174.31906
 94  3 17 10 24 40.0000000  0  8  2  9  7 12 23 27 26 16             0.000010264
  21134074.24909  -9204402.27109  -7149689.64908  21134074.51509  21134079.94608
  22711716.36009 -11412220.87009  -8853746.11607  22711715.08609  22711719.84207
  24114498.17108   1752771.34408   1405586.94006  24114498.72908  24114505.94106
  23482320.13708  -4284437.86008  -3312639.58407  23482321.32808  23482328.96107
  23038847.30509 -13642028.47309 -10242720.64607  23038846.88209  23038851.88607
  23596510.66008  16063808.32608  12518119.18606  23596512.72108  23596518.33806
  20579068.30509 -10324835.21609  -8017444.31108  20579069.37409  20579072.89808
  24495454.58108  17926598.32308  13969435.24406  24495453.02408  24495462.14806
 94  3 17 10 25  0.0000000  0  8  2  9  7 12 23 27 26 16            -0.000010255
  21129976.65409  -9225933.30509  -7166467.08708  21129977.33609  21129982.69308
  22694104.86909 -11504750.64409  -8925847.22707  22694107.18309  22694112.11607
  24096451.41908   1657942.24808   1331694.24106  24096453.43708  24096460.36106
  23462958.15408  -4386175.18608  -3391915.36307  23462960.78508  23462969.09407
  23026221.05309 -13708381.93109 -10294424.63907  23026220.32509  23026225.24907
  23603684.91809  16101502.43509  12547491.21006  23603685.46709  23603691.59006
  20573692.37009 -10353082.25709  -8039454.99908  20573694.26009  20573697.66608
  24503745.44908  17970185.75608  14003399.28906  24503748.02608  24503757.23706
 94  3 17 10 25 20.0000000  0  8  2  9  7 12 23 27 26 16             0.000969225
  21425718.06409  -7671802.60909  -5955456.16408  21425718.59609  21425723.74308
  22976308.92509 -10021757.13309  -7770267.85607  22976311.44409  22976316.22607
  24378219.69908   3138638.47808   2485483.59406  24378220.18408  24378226.98106
  23743410.55508  -2912390.40808  -2243511.57707  23743412.58108  23743420.80107
  23313426.34509 -12199100.11409  -9118360.88007  23313427.33209  23313432.04907
  23910661.71408  17714679.72908  13804512.46006  23910662.56508  23910669.08806
  20868150.93609  -8805694.36709  -6833698.20708  20868152.36009  20868155.82308
  24811843.00108  19589231.96008  15264993.61805  24811842.83608  24811849.35105
 94  3 17 10 25 40.0000000  0  8  2  9  7 12 23 27 26 16             0.000948705
  21421711.04209  -7692858.78009  -5971863.58008  21421711.71709  21421716.81308
  22958741.87609 -10114085.79009  -7842212.24107  22958741.74809  22958746.50707
  24360214.70208   3044017.38708   2411752.97406  24360213.87308  24360220.80006
  23724089.14208  -3013934.05608  -2322636.44207  23724089.15608  23724097.64007
  23300880.72809 -12265033.47509  -9169737.51907  23300880.63009  23300885.72707
  23917858.75609  17752501.14909  13833983.69606  23917860.46409  23917866.34506
  20862856.27709  -8833517.17909  -6855378.32808  20862857.83509  20862861.34408
  24820151.46408  19632891.44308  15299013.95705  24820151.16608  24820158.38405
 94  3 17 10 26  0.0000000  0  8  2  9  7 12 23 27 26 16             0.000928179
  21417747.39409  -7713690.54909  -5988096.13908  21417747.58109  21417752.80808
  22941189.25609 -10206316.43709  -7914080.26407  22941190.79209  22941195.41707
  24342227.50008   2949496.56408   2338100.46306  24342227.48708  24342234.65406
  23704784.12408  -3115386.38408  -2401690.14407  23704784.14508  23704791.86707
  23288373.11609 -12330762.23309  -9220954.73107  23288372.52309  23288377.53007
  23925064.80408  17790383.17008  13863502.13306  23925068.60408  23925075.26406
  20857601.08409  -8861129.86009  -6876894.70908  20857603.17409  20857606.75608
  24828456.95808  19676569.73908  15333048.88906  24828462.34008  24828472.57706
 94  3 17 10 26 20.0000000  0  8  2  9  7 12 23 27 26 16             0.000907649
  21413826.79609  -7734296.40509  -6004152.66008  21413826.54609  21413831.56708
  22923655.75809 -10298447.87209  -7985870.97707  22923658.99709  22923663.49807
  24324257.69608   2855078.56408   2264528.07406  24324260.18708  24324267.71606
  23685493.65508  -3216744.39508  -2480670.38807  23685496.33208  23685503.26207
  23275903.58609 -12396281.16809  -9272008.44207  23275904.92209  23275909.89307
  23932290.54908  17828325.41408  13893067.49706  23932289.63608  23932295.28406
  20852387.89509  -8888531.70509  -6898246.80208  20852388.65609  20852392.24408
  24836777.16308  19720266.63208  15367098.24106  24836777.64208  24836786.26406
 94  3 17 10 26 40.0000000  0  8  2  9  7 12 23 27 26 16             0.000887115
  21409946.47509  -7754681.87509  -6020037.45308  21409947.35309  21409952.33308
  22906143.47109 -10390488.27509  -8057590.76007  22906144.55809  22906149.01407
  24306310.02408   2760758.83808   2191032.26406  24306312.26908  24306319.13706
  23666226.01108  -3318013.21308  -2559581.11207  23666225.41108  23666232.80607
  23263475.06009 -12461593.80409  -9322901.40507  23263476.17109  23263481.31807
  23939517.07808  17866318.67608  13922672.61106  23939518.70408  23939525.12306
  20847211.44909  -8915734.29009  -6919443.62808  20847212.36909  20847215.98008
  24845100.24008  19763979.80808  15401160.41705  24845096.38608  24845104.00805
 94  3 17 10 27  0.0000000  0  8  2  9  7 12 23 27 26 16             0.000866560
  21406105.66709  -7774867.96209  -6035766.88208  21406106.11609  21406111.08108
  22888640.53909 -10482461.72709  -8129258.37207  22888642.05309  22888646.77607
  24288376.35308   2666516.66508   2117596.86706  24288378.02008  24288385.12706
  23646967.21909  -3419211.96309  -2638437.21207  23646967.54509  23646975.17107
  23251082.05709 -12526716.97909  -9373646.73307  23251083.70609  23251088.51707
  23946752.82308  17904343.58908  13952302.39306  23946755.04608  23946761.56106
  20842071.28809  -8942750.08409  -6940494.90108  20842071.46209  20842075.12408
  24853411.05608  19807695.34908  15435224.40205  24853412.86008  24853423.04805
 94  3 17 10 27 20.0000000  0  8  2  9  7 12 23 27 26 16             0.000845978
  21402301.35809  -7794857.08209  -6051342.83108  21402302.33209  21402307.34808
  22871149.87909 -10574376.17409  -8200879.99907  22871151.46109  22871155.97707
  24270456.58009   2572341.05909   2044213.33706  24270456.60009  24270463.88006
  23627720.60008  -3520346.10008  -2717242.97007  23627722.62408  23627730.44307
  23238726.57509 -12591648.84909  -9424242.99007  23238727.68909  23238732.78407
  23953995.38309  17942388.18809  13981947.50006  23953994.40409  23954000.98706
  20836964.01709  -8969577.94809  -6961399.73908  20836966.39109  20836969.89008
  24861729.33708  19851401.25308  15469280.83106  24861732.95908  24861741.13206
 94  3 17 10 27 40.0000000  0  8  2  9  7 12 23 27 26 16             0.000825368
  21398536.27909  -7814647.11309  -6066763.64908  21398536.45309  21398541.41308
  22853671.33709 -10666233.97909  -8272457.49207  22853671.28309  22853675.88807
  24252548.97409   2478232.73909   1970882.22706  24252549.01209  24252555.99706
  23608491.23709  -3621414.87809  -2795997.79507  23608490.06709  23608498.10307
  23226410.08709 -12656381.21509  -9474683.79207  23226409.70609  23226414.47507
  23961235.48209  17980452.84309  14011608.23706  23961238.05309  23961243.79206
  20831896.07809  -8996211.62409  -6982153.26108  20831898.10009  20831901.62608
  24870043.82608  19895092.68308  15503326.01206  24870047.01508  24870055.57106
 94  3 17 10 28  0.0000000  0  8  2  9  7 12 23 27 26 16             0.000804734
  21394809.31509  -7834227.88509  -6082021.41108  21394810.47109  21394815.29808
  22836205.26109 -10758024.58209  -8343982.61607  22836204.25009  22836208.69307
  24234655.88608   2384197.95008   1897608.40706  24234654.49608  24234661.55406
  23589272.29109  -3722407.57209  -2874693.33507  23589271.61009  23589279.22507
  23214131.70809 -12720902.07109  -9524959.78607  23214131.64609  23214136.70607
  23968487.67609  18018552.09309  14041295.95206  23968488.86509  23968494.29706
  20826868.92309  -9022635.01209  -7002742.91908  20826869.76509  20826873.47908
  24878356.84308  19938782.65708  15537370.01205  24878358.85808  24878367.53705
 94  3 17 10 28 20.0000000  0  8  2  9  7 12 23 27 26 16             0.000784082
  21391124.55509  -7853594.47509  -6097112.27308  21391125.21509  21391129.98408
  22818750.77309 -10849743.69609  -8415452.03807  22818750.71709  22818755.08207
  24216772.87508   2290244.99308   1824398.35306  24216776.28808  24216783.67506
  23570068.21109  -3823318.83409  -2953325.46207  23570069.14109  23570076.35207
  23201893.49309 -12785207.36109  -9575067.80107  23201894.57909  23201899.66907
  23975746.22109  18056689.35909  14071013.27606  23975745.71309  23975751.84306
  20821879.90109  -9048848.41609  -7023168.95208  20821881.69709  20821885.48708
  24886679.18908  19982483.63908  15571422.62005  24886676.94308  24886684.17205
 94  3 17 10 28 40.0000000  0  8  2  9  7 12 23 27 26 16             0.000763419
  21387480.63709  -7872743.24509  -6112033.40508  21387481.37909  21387486.09308
  22801311.57809 -10941387.17409  -8486862.52107  22801311.43009  22801316.11907
  24198912.30808   2196380.66708   1751257.36106  24198913.81608  24198921.30906
  23550881.52409  -3924143.91209  -3031890.41607  23550882.42309  23550889.65807
  23189699.70109 -12849288.94009  -9625001.48607  23189700.19909  23189705.28907
  23983009.38008  18094869.56208  14100764.05506  23983011.25108  23983017.73306
  20816933.05209  -9074851.37009  -7043430.99908  20816933.56109  20816937.26908
  24894994.99308  20026200.37608  15605487.61306  24894996.43208  24895004.56806
 94  3 17 10 29  0.0000000  0  8  2  9  7 12 23 27 26 16             0.000742740
  21383877.82909  -7891683.35209  -6126791.94408  21383877.19109  21383881.96208
  22783884.72109 -11032956.17909  -8558214.97507  22783886.71509  22783891.17307
  24181066.99908   2102602.06608   1678183.16706  24181068.30008  24181076.05806
  23531709.25309  -4024886.91809  -3110391.40007  23531711.06109  23531718.95907
  23177548.38009 -12913145.72309  -9674760.01007  23177548.69909  23177553.85507
  23990283.19509  18133088.46809  14130544.99606  23990283.95809  23990290.26006
  20812023.95009  -9100639.36509  -7063525.54508  20812026.14309  20812029.96908
  24903310.74208  20069921.14108  15639555.59406  24903314.74708  24903325.19606
 94  3 17 10 29 20.0000000  0  8  2  9  7 12 23 27 26 16             0.000722034
  21380309.64709  -7910429.17409  -6141399.09008  21380310.04909  21380314.73508
  22766472.34009 -11124462.93909  -8629518.92607  22766473.01309  22766478.05207
  24163237.89808   2008897.82008   1605166.91906  24163237.18408  24163244.36006
  23512550.88809  -4125560.32409  -3188838.14207  23512553.78909  23512561.29307
  23165437.06509 -12976786.54609  -9724350.26007  23165438.30109  23165443.46307
  23997558.17408  18171330.05608  14160343.59806  23997560.25408  23997566.66906
  20807155.82009  -9126226.44409  -7083463.53608  20807156.76909  20807160.83008
  24911630.54608  20113625.08408  15673610.46106  24911632.64308  24911639.83806
 94  3 17 10 29 40.0000000  0  8  2  9  7 12 23 27 26 16             0.000701317
  21376782.14509  -7928963.92909  -6155841.76508  21376782.99009  21376787.69308
  22749075.39909 -11215884.21209  -8700756.26307  22749076.68009  22749081.12507
  24145422.15408   1915285.10008   1532221.97506  24145423.09608  24145430.45806
  23493411.67408  -4226149.00708  -3267218.87207  23493412.38108  23493419.95107
  23153371.45909 -13040196.31809  -9773760.47507  23153371.90809  23153376.63207
  24004841.99708  18209611.38708  14190173.15806  24004844.58008  24004851.43006
  20802327.17109  -9151602.99009  -7103237.47008  20802328.13609  20802332.08808
  24919947.31008  20157321.20308  15707659.38405  24919946.93608  24919953.97805
 94  3 17 10 30  0.0000000  0  7  2  9  7 12 23 27 26                0.000680575
  21373295.60209  -7947286.33409  -6170118.97408  21373296.37209  21373301.06008
  22731695.67109 -11307214.19609  -8771922.46807  22731696.90109  22731701.58807
  24127624.86908   1821766.71208   1459350.53606  24127627.23808  24127634.10306
  23474287.66309  -4326653.11709  -3345533.69907  23474287.32809  23474294.58907
  23141348.02909 -13103375.34209  -9822990.88007  23141349.39309  23141354.16507
  24012133.49308  18247931.86508  14220033.21906  24012137.50608  24012144.24706
  20797535.73009  -9176773.33609  -7122850.73208  20797538.42509  20797542.31208
 94  3 17 10 30 20.0000000  0  7  2  9  7 12 23 27 26                0.000659846
  21369851.14409  -7965391.10909  -6184226.60408  21369851.20209  21369855.78208
  22714335.20009 -11398450.86909  -8843015.96407  22714335.38009  22714339.77807
  24109849.80809   1728352.13709   1386559.98406  24109851.06409  24109857.95206
  23455176.76509  -4427069.38409  -3423780.07807  23455178.87909  23455185.92007
  23129372.31509 -13166314.83509  -9872034.64807  23129372.51209  23129377.14707
  24019436.10008  18286290.89408  14249923.31406  24019437.30008  24019443.99806
  20792786.49509  -9201740.87309  -7142305.96308  20792787.18309  20792791.26308
 94  3 17 10 30 40.0000000  0  7  2  9  7 12 23 27 26                0.000639118
  21366448.19609  -7983269.28209  -6198157.65808  21366449.06709  21366453.54808
  22696992.27709 -11489586.92409  -8914031.06307  22696992.53109  22696997.22607
  24092094.22609   1635044.96309   1313853.11906  24092095.58909  24092102.59706
  23436084.98808  -4527391.07308  -3501952.78007  23436087.64108  23436094.81007
  23117442.91309 -13229004.69409  -9920883.88407  23117443.05409  23117448.04307
  24026748.21308  18324692.20308  14279846.36606  24026745.07308  24026751.09606
  20788074.55909  -9226494.62809  -7161594.60808  20788076.71109  20788080.72308
 94  3 17 10 31  0.0000000  0  7  2  9  7 12 23 27 26                0.000618380
  21363087.69609  -8000930.33709  -6211919.52908  21363088.13909  21363092.71608
  22679664.51709 -11580628.61309  -8984972.62007  22679667.84609  22679672.43007
  24074357.61509   1541836.83309   1241223.43806  24074358.58609  24074365.43206
  23417018.39008  -4627624.44108  -3580056.64907  23417013.98108  23417021.13107
  23105556.36109 -13291458.34109  -9969549.06107  23105558.16209  23105563.44207
  24034058.04909  18363127.45909  14309795.87806  24034058.82309  24034064.99706
  20783405.06909  -9251037.32109  -7180718.79208  20783406.32209  20783410.27708
 94  3 17 10 31 20.0000000  0  7  2  9  7 12 23 27 26                0.000597636
  21359769.20309  -8018369.44709  -6225508.45708  21359769.45309  21359774.14508
  22662360.30109 -11671576.73409  -9055841.27207  22662360.99509  22662365.48407
  24056640.29409   1448731.37109   1168673.74706  24056641.10209  24056648.08006
  23397959.11909  -4727764.30209  -3658087.64407  23397958.20409  23397965.40007
  23093717.54709 -13353674.65009 -10018029.30107  23093718.45809  23093723.77507
  24041379.25009  18401602.55109  14339776.44306  24041380.43209  24041386.49606
  20778774.60509  -9275369.73409  -7199679.12008  20778775.71609  20778779.83208
 94  3 17 10 31 40.0000000  0  7  2  9  7 12 23 27 26                0.000576893
  21356494.22309  -8035577.16909  -6238917.08408  21356494.97209  21356499.83808
  22645074.94909 -11762419.32609  -9126627.68707  22645074.24909  22645079.20607
  24038945.24809   1355737.50109   1096211.01806  24038945.12809  24038952.21506
  23378919.21209  -4827798.95409  -3736036.66807  23378922.08909  23378929.37707
  23081927.02709 -13415645.53809 -10066318.30207  23081926.26709  23081931.09607
  24048708.44009  18440127.48609  14369795.83906  24048711.31209  24048717.73206
  20774185.27409  -9299485.21209  -7218470.41008  20774187.05409  20774190.98708
 94  3 17 10 32  0.0000000  0  7  2  9  7 12 23 27 26                0.000556141
  21353259.74309  -8052573.85609  -6252161.26308  21353260.70909  21353265.39908
  22627803.73609 -11853174.17509  -9197345.73307  22627804.36409  22627808.82507
  24021267.42809   1262842.81609   1023825.56706  24021267.71009  24021275.12306
  23359900.83209  -4927742.49709  -3813914.69607  23359903.08809  23359910.99307
  23070175.75509 -13477386.05209 -10114427.79107  23070177.52409  23070182.18307
  24056044.98309  18478683.69409  14399839.59406  24056048.83509  24056054.83306
  20769635.94309  -9323398.84309  -7237104.41408  20769636.52209  20769640.24608
 94  3 17 10 32 20.0000000  0  7  2  9  7 12 23 27 26                0.000535374
  21350064.56309  -8069365.08509  -6265245.34508  21350065.29509  21350070.23408
  22610549.24409 -11943849.36709  -9268001.71207  22610549.55409  22610554.20807
  24003606.69009   1170042.40909    951513.59906  24003608.03809  24003615.48006
  23340899.39909  -5027597.67109  -3891723.84907  23340901.58009  23340908.84007
  23058471.11309 -13538899.56909 -10162360.40507  23058471.82409  23058476.47107
  24063389.78008  18517265.47908  14429903.29606  24063390.10908  24063396.87106
  20765123.24209  -9347110.04309  -7255580.68108  20765124.35809  20765128.19508
 94  3 17 10 32 40.0000000  0  7  2  9  7 12 23 27 26                0.000514595
  21346907.81509  -8085945.42509  -6278165.09908  21346910.00809  21346915.19008
  22593310.33009 -12034437.50609  -9338589.85207  22593310.98809  22593315.75507
  23985966.29009   1077337.81609    879276.28906  23985967.31209  23985973.81106
  23321917.44109  -5127357.15509  -3969458.46307  23321917.73109  23321925.21607
  23046809.42409 -13600183.08909 -10210113.79107  23046809.73509  23046814.69607
  24070738.69709  18555881.79909  14459993.89206  24070739.05009  24070745.25406
  20760651.02209  -9370609.48109  -7273891.94108  20760652.65609  20760656.47408
 94  3 17 10 33  0.0000000  0  7  2  9  7 12 23 27 26                0.000493811
  21343796.31909  -8102307.52209  -6290914.79508  21343796.44709  21343801.53608
  22576090.41609 -12124927.22509  -9409101.30407  22576091.50909  22576095.88107
  23968344.74409    984739.30809    807121.64006  23968346.70309  23968353.38006
  23302950.47009  -5227011.96809  -4047111.50607  23302953.91009  23302961.31507
  23035193.29609 -13661231.38309 -10257683.88507  23035192.66609  23035197.67907
  24078095.65308  18594542.17408  14490118.82506  24078095.65708  24078102.21506
  20756221.87409  -9393893.49109  -7292035.33008  20756221.79809  20756225.46408
 94  3 17 10 33 20.0000000  0  7  2  9  7 12 23 27 26                0.000473021
  21340722.68909  -8118455.78609  -6303497.86708  21340723.55609  21340728.52608
  22558888.52409 -12215325.88009  -9479541.79507  22558889.09409  22558893.67807
  23950744.30009    892243.48309    735047.00506  23950745.05609  23950751.43206
  23284007.27609  -5326568.87309  -4124688.27307  23284008.91209  23284015.85607
  23023620.75609 -13722044.43109 -10305070.67507  23023620.65109  23023625.52407
  24085460.45009  18633240.69009  14520273.47506  24085460.18209  24085466.59306
  20751828.93109  -9416974.03609  -7310020.17408  20751829.76809  20751833.31308
 94  3 17 10 33 40.0000000  0  7  2  9  7 12 23 27 26                0.000452227
  21337690.72609  -8134384.65909  -6315909.98608  21337692.58409  21337697.55908
  22541704.01709 -12305631.13409  -9549909.50607  22541704.37409  22541708.88807
  23933163.34209    799851.48009    663053.28206  23933163.75509  23933169.52006
  23265081.06609  -5426029.36209  -4202189.90607  23265082.34709  23265089.41807
  23012093.48709 -13782618.67909 -10352271.38007  23012093.67009  23012098.48107
  24092827.56308  18671975.12608  14550456.11206  24092830.96308  24092836.83306
  20747474.78309  -9439850.82709  -7327846.25008  20747476.49509  20747479.97108
 94  3 17 10 34  0.0000000  0  7  2  9  7 12 23 27 26                0.000431426
  21334703.49509  -8150093.58409  -6328150.71408  21334703.43809  21334708.33408
  22524538.04309 -12395841.15509  -9620203.01007  22524538.27509  22524542.64107
  23915600.46609    707561.68909    591139.20406  23915601.18409  23915607.50706
  23246171.43209  -5525396.89009  -4279619.08807  23246172.74909  23246180.52907
  23000610.60409 -13842956.86709 -10399288.14107  23000611.35009  23000616.59007
  24100205.11608  18710745.42308  14580666.70406  24100207.99408  24100214.50806
  20743159.94209  -9462526.94209  -7345515.95508  20743161.40709  20743164.98108
 94  3 17 10 34 20.0000000  0  7  2  9  7 12 23 27 26                0.000410616
  21331755.99109  -8165581.53109  -6340219.25208  21331756.03309  21331761.02408
  22507386.01009 -12485957.37809  -9690423.42707  22507389.45709  22507393.84807
  23898058.05909    615372.44609    519303.48206  23898057.84009  23898064.79606
  23227282.25509  -5624674.02209  -4356977.83407  23227281.35609  23227288.30307
  22989171.72709 -13903063.32409 -10446124.33507  22989173.51809  22989178.54007
  24107593.06009  18749555.68709  14610908.42806  24107594.23509  24107600.04306
  20738884.51109  -9484999.81709  -7363027.29208  20738885.02209  20738888.43508
 94  3 17 10 34 40.0000000  0  7  2  9  7 12 23 27 26                0.000389800
  21328848.61609  -8180852.98809  -6352119.09508  21328849.87609  21328854.71308
  22490259.30209 -12575982.15009  -9760572.57807  22490258.37909  22490262.69607
  23880533.47709    523284.96509    447547.06506  23880534.21709  23880541.12206
  23208404.10709  -5723861.81409  -4434266.98408  23208406.63709  23208413.87608
  22977778.21209 -13962941.48609 -10492782.64007  22977779.11109  22977784.06607
  24114986.71708  18788413.19608  14641186.96906  24114988.79408  24114993.94606
  20734644.59809  -9507274.54109  -7380384.22308  20734646.20909  20734649.60308
 94  3 17 10 35  0.0000000  0  7  2  9  7 12 23 27 26                0.000368987
  21325986.57509  -8195900.30409  -6363844.28208  21325986.74809  21325991.55508
  22473146.13309 -12665902.71409  -9830640.53007  22473146.91109  22473151.36507
  23863030.47209    431314.27209    375881.64506  23863032.42109  23863039.50906
  23189550.68609  -5822948.31009  -4511477.19208  23189550.80309  23189558.03208
  22966430.15509 -14022581.00509 -10539254.99107  22966430.20409  22966435.25807
  24122392.45909  18827329.86309  14671511.59906  24122394.41209  24122399.55306
  20730447.12909  -9529341.73609  -7397579.44408  20730446.94409  20730450.36208
 94  3 17 10 35 20.0000000  0  7  2  9  7 12 23 27 26                0.000348184
  21323167.73309  -8210713.03209  -6375386.67208  21323168.04509  21323172.80608
  22456057.88409 -12755708.91109  -9900619.36107  22456057.56309  22456061.67507
  23845555.72409    339474.94009    304318.59906  23845556.13009  23845562.61306
  23170715.05109  -5921921.28009  -4588598.94208  23170716.94309  23170723.98308
  22955128.68909 -14081969.18509 -10585531.48907  22955129.12109  22955134.13007
  24129813.05309  18866320.77309  14701894.09406  24129814.16009  24129819.48306
  20726288.43609  -9551185.03809  -7414600.20408  20726290.10909  20726293.61908
 94  3 17 10 35 40.0000000  0  7  2  9  7 12 23 27 26                0.000327383
  21320392.89509  -8225296.36209  -6386750.31508  21320392.91109  21320397.61808
  22438986.62809 -12845410.50109  -9970516.68107  22438987.34609  22438991.91407
  23828100.94009    247755.96709    232849.34106  23828102.32409  23828109.01306
  23151902.18009  -6020787.21509  -4665637.28208  23151903.06509  23151910.23308
  22943872.59009 -14141114.41709 -10631618.67707  22943874.06809  22943879.09207
  24137243.67508  18905378.28408  14732328.48805  24137246.05608  24137251.74105
  20722174.22509  -9572808.95709  -7431450.01208  20722175.47909  20722179.05308
 94  3 17 10 36  0.0000000  0  7  2  9  7 12 23 27 26                0.000306577
  21317657.30509  -8239668.62409  -6397949.48908  21317657.88509  21317662.58308
  22421935.73109 -12935016.04409 -10040339.15907  22421936.23909  22421940.34907
  23810669.20309    156148.34309    161466.84706  23810670.17909  23810676.56506
  23133104.50109  -6119554.99909  -4742599.14008  23133108.11209  23133115.93708
  22932661.98009 -14200030.48409 -10677527.30407  22932662.78809  22932667.80207
  24144687.72608  18944489.84108  14762804.98905  24144688.37508  24144694.63405
  20718098.81709  -9594225.41009  -7448138.16108  20718100.07809  20718103.69808
 94  3 17 10 36 20.0000000  0  7  2  9  7 12 23 27 26                0.000285758
  21314959.34309  -8253846.23309  -6408996.98608  21314959.79209  21314964.65208
  22404899.51409 -13024545.10009 -10110102.03707  22404899.37809  22404903.69807
  23793255.32609     64643.57809     90164.50406  23793257.02309  23793263.89006
  23114328.30508  -6218236.51208  -4819493.76808  23114329.84608  23114337.44508
  22921491.71709 -14258728.86509 -10723266.30407  22921492.88209  22921497.85107
  24152141.23109  18983641.15909  14793312.48905  24152139.21009  24152144.89405
  20714061.46309  -9615442.77809  -7464671.18208  20714062.44109  20714066.14808
 94  3 17 10 36 40.0000000  0  7  2  9  7 12 23 27 26                0.000264926
  21312298.94309  -8267825.04309  -6419889.57408  21312299.62809  21312304.35508
  22387876.28109 -13113995.80309 -10179803.85407  22387877.30109  22387881.91907
  23775863.35309    -26754.46709     18945.31606  23775864.86509  23775871.05306
  23095566.29509  -6316824.58809  -4896315.58408  23095569.21209  23095576.26508
  22910364.10309 -14317201.06209 -10768829.06007  22910365.96009  22910370.96407
  24159590.76108  19022831.28608  14823850.23205  24159596.52008  24159603.40405
  20710062.66909  -9636455.07609  -7481044.40608  20710064.10709  20710067.62808
 94  3 17 10 37  0.0000000  0  7  2  9  7 12 23 27 26                0.000244074
  21309676.62709  -8281604.81209  -6430627.06108  21309677.65409  21309682.37508
  22370870.25609 -13203366.48409 -10249443.31107  22370870.58109  22370875.22907
  23758489.89409   -118052.00009    -52195.53406  23758491.34909  23758497.79406
  23076822.24709  -6415322.49809  -4973067.17308  23076825.91909  23076833.02408
  22899281.62009 -14375448.25509 -10814216.48807  22899282.11709  22899287.08907
  24167058.35008  19062042.90608  14854404.69705  24167058.44008  24167065.38505
  20706102.95009  -9657262.82809  -7497258.24208  20706104.27309  20706107.95508
 94  3 17 10 37 20.0000000  0  7  2  9  7 12 23 27 26                0.000223201
  21307094.41709  -8295177.56609  -6441203.24108  21307094.84509  21307099.61808
  22353877.99109 -13292654.75309 -10319018.56007  22353879.60109  22353884.09007
  23741137.13909   -209245.99809   -123255.72006  23741137.55809  23741144.34106
  23058098.19909  -6513725.55509  -5049744.82408  23058099.80409  23058107.33108
  22888239.47909 -14433463.83209 -10859423.43507  22888241.69609  22888246.89507
  24174522.24908  19101270.96208  14884971.97205  24174523.82108  24174529.84105
  20702184.07209  -9677858.56009  -7513306.87208  20702185.19709  20702188.96408
 94  3 17 10 37 40.0000000  0  7  2  9  7 12 23 27 26                0.000202301
  21304548.04909  -8308554.24809  -6451626.63708  21304549.32109  21304554.10908
  22336902.12709 -13381872.59109 -10388538.92807  22336901.99409  22336906.64007
  23723799.83509   -300347.77009   -194244.03606  23723801.52009  23723807.81006
  23039389.65609  -6612045.56709  -5126357.77408  23039390.37409  23039397.54108
  22877244.31709 -14491256.63509 -10904456.79307  22877244.22709  22877249.09407
  24181988.36808  19140496.57108  14915537.35305  24181988.17208  24181993.43705
  20698302.86109  -9698257.28409  -7529201.98708  20698303.52109  20698307.22808
 94  3 17 10 38  0.0000000  0  7  2  9  7 12 23 27 26                0.000181372
  21302039.41209  -8321741.85009  -6461902.69708  21302039.71309  21302044.54008
  22319938.67509 -13471016.81909 -10458001.93807  22319938.58909  22319943.21007
  23706482.54209   -391353.04609   -265157.15906  23706483.86309  23706490.40506
  23020694.50109  -6710283.25909  -5202906.57008  23020696.59609  23020703.60908
  22866288.32009 -14548828.95009 -10949318.34007  22866288.74409  22866293.57007
  24189449.61808  19179715.70408  14946097.67405  24189451.48208  24189457.80305
  20694458.90709  -9718459.22309  -7544943.76108  20694459.13709  20694462.99308
 94  3 17 10 38 20.0000000  0  7  2  9  7 12 23 27 26                0.000160417
  21299566.91109  -8334733.81509  -6472026.31608  21299567.45709  21299572.32208
  22302989.92409 -13560081.62809 -10527403.06407  22302990.13509  22302995.05407
  23689184.37209   -482253.52309   -335988.62006  23689186.18909  23689191.75606
  23002019.21909  -6808433.17809  -5279386.98008  23002019.16309  23002026.10208
  22855374.50509 -14606174.40309 -10994003.11407  22855376.00509  22855380.83707
  24196914.22308  19218936.61108  14976659.36205  24196914.29608  24196920.95505
  20690653.78509  -9738453.79809  -7560523.95208  20690654.19609  20690658.00808
 94  3 17 10 38 40.0000000  0  7  2  9  7 12 23 27 26                0.000139435
  21297131.33409  -8347531.70309  -6481998.70608  21297132.15609  21297137.07608
  22286056.20609 -13649063.28409 -10596739.39407  22286057.26309  22286062.25907
  23671907.53309   -573052.75409   -406741.18806  23671907.72609  23671913.73706
  22983358.25509  -6906495.25109  -5355798.92908  22983358.39609  22983365.71308
  22844504.49009 -14663294.09109 -11038511.96507  22844506.44809  22844511.40307
  24204375.89008  19258157.58208  15007221.10506  24204377.80708  24204383.83106
  20686887.52509  -9758238.68609  -7575940.75508  20686889.29209  20686893.19608
 94  3 17 10 39  0.0000000  0  7  2  9  7 12 23 27 26                0.000118436
  21294735.03009  -8360127.02409  -6491813.25008  21294735.25509  21294740.35708
  22269141.48509 -13737946.49509 -10665999.01907  22269143.14109  22269148.26407
  23654649.34509   -663737.85509   -477404.81706  23654650.67609  23654656.94506
  22964715.62909  -7004460.72909  -5432135.61608  22964716.02109  22964722.95308
  22833682.92509 -14720177.52109 -11082836.72207  22833682.04909  22833687.16207
  24211845.83708  19297389.12008  15037791.08706  24211843.30508  24211849.75606
  20683162.21809  -9777807.77309  -7591189.39908  20683165.41409  20683169.33008
 94  3 17 10 39 20.0000000  0  7  2  9  7 12 23 27 26                0.000097430
  21292379.15309  -8372509.61909  -6501462.03708  21292378.96409  21292384.06808
  22252249.57409 -13826719.16509 -10735172.50807  22252250.70509  22252255.52307
  23637418.65209   -754290.46009   -547965.20806  23637419.29109  23637425.42806
  22946093.20909  -7102314.91709  -5508385.57708  22946094.98309  22946102.45408
  22822905.39209 -14776805.14709 -11126962.14807  22822906.14109  22822911.17707
  24219312.46108  19336654.79308  15068387.68406  24219316.20008  24219321.86106
  20679483.44309  -9797148.97109  -7606260.46908  20679484.95909  20679488.69308
 94  3 17 10 39 40.0000000  0  7  2  9  7 12 23 27 26                0.000076428
  21290063.02909  -8384674.81909  -6510941.42308  21290063.96409  21290069.09408
  22235378.61909 -13915374.29009 -10804254.40707  22235380.00309  22235385.16307
  23620215.17509   -844702.46409   -618416.03806  23620214.14109  23620220.49906
  22927494.77609  -7200053.40409  -5584545.38308  22927495.93009  22927503.14908
  22812180.47909 -14833171.17709 -11170883.73307  22812180.23509  22812185.01807
  24226795.10808  19375970.65108  15099023.38106  24226797.25808  24226803.93506
  20675847.71509  -9816261.41309  -7621153.28808  20675847.62709  20675851.62908
 94  3 17 10 40  0.0000000  0  7  2  9  7 12 23 27 26                0.000055434
  21287791.45109  -8396614.47709  -6520245.06108  21287792.07209  21287797.10508
  22218531.67209 -14003903.44209 -10873238.14507  22218533.54909  22218538.43207
  23603036.63109   -934965.63809   -688750.91406  23603037.40609  23603043.94606
  22908919.18609  -7297669.45309  -5660609.79208  22908920.27609  22908927.06008
  22801504.25809 -14889270.96409 -11214597.85607  22801504.95109  22801509.60207
  24234290.74609  19415348.34309  15129707.26006  24234291.16209  24234296.86806
  20672255.65909  -9835134.60309  -7635859.67408  20672256.33209  20672260.40708
 94  3 17 10 40 20.0000000  0  7  2  9  7 12 23 27 26                0.000034438
  21285561.73109  -8408335.72009  -6529378.50008  21285561.72709  21285566.62508
  22201707.52409 -14092315.04109 -10942130.28507  22201709.30409  22201714.17807
  23585885.18809  -1025090.98509   -758978.39106  23585886.96009  23585893.68906
  22890364.81909  -7395171.45709  -5736585.33708  22890366.14509  22890373.45308
  22790877.39809 -14945112.05209 -11258110.38907  22790878.37109  22790883.47907
  24241794.34708  19454779.60508  15160432.89806  24241794.30308  24241800.19906
  20668707.54309  -9853772.98209  -7650383.09008  20668709.83809  20668713.70508
 94  3 17 10 40 40.0000000  0  7  2  9  7 12 23 27 26                0.000013439
  21283372.31609  -8419839.28909  -6538342.32608  21283372.60209  21283377.56008
  22184905.40609 -14180614.03309 -11010934.68307  22184906.60209  22184911.49007
  23568761.35009  -1115084.64909   -829103.25706  23568761.61909  23568768.51606
  22871832.21009  -7492563.60109  -5812475.27108  22871833.09409  22871839.93608
  22780298.13709 -15000699.79609 -11301425.50707  22780300.53209  22780305.31507
  24249305.47708  19494258.66508  15191195.78306  24249306.90608  24249313.10006
  20665203.44209  -9872183.80209  -7664729.19008  20665206.23609  20665210.03908
 94  3 17 10 41  0.0000000  0  7  2  9  7 12 23 27 26               -0.000007562
  21281223.75109  -8431124.27209  -6547135.82208  21281225.05909  21281229.91208
  22168125.96609 -14268799.74509 -11079650.80907  22168125.43209  22168130.18607
  23551662.32709  -1204944.76409   -899124.06706  23551661.90109  23551668.76106
  22853318.00309  -7589847.03709  -5888280.49808  22853320.47509  22853327.85808
  22769770.11009 -15056035.16509 -11344543.97207  22769770.60009  22769775.43207
  24256827.47408  19533783.22708  15221994.10106  24256827.75508  24256834.76406
  20661742.67409  -9890378.12209  -7678906.58808  20661744.07909  20661747.85108
 94  3 17 10 41 20.0000000  0  7  2  9  7 12 23 27 26                0.000971440
  21578910.71509  -6866771.22709  -5328159.42708  21578911.35709  21578916.43308
  22451158.09709 -12781449.37809  -9920676.48707  22451158.62609  22451163.61607
  23834379.46809    280755.12109    258564.21406  23834380.98009  23834387.52506
  23134622.65009  -6111595.94409  -4736396.48308  23134622.42909  23134629.14408
  23059079.42709 -13535697.32409 -10159865.13307  23059081.01409  23059086.07207
  24564149.69908  21148771.10508  16480426.17305  24564149.88308  24564156.14805
  20958113.78809  -8332939.78109  -6465318.27308  20958114.70909  20958118.47208
 94  3 17 10 41 40.0000000  0  7  2  9  7 12 23 27 26                0.000950440
  21576846.55309  -6877621.46809  -5336614.16208  21576846.67209  21576851.70108
  22434417.46909 -12869413.73809  -9989220.12707  22434419.56409  22434424.36607
  23817331.93909    191165.61009    188754.26106  23817332.56009  23817339.57406
  23116151.80409  -6208661.21509  -4812031.71808  23116151.51509  23116158.40908
  23048643.97709 -13590540.34309 -10202599.94107  23048644.98509  23048649.67407
  24571691.03008  21188380.77208  16511290.80005  24571687.87608  24571695.21905
  20954730.90309  -8350713.37609  -6479167.83208  20954732.49909  20954736.14808
 94  3 17 10 42  0.0000000  0  8  2  9  7 12 23 27 21 26             0.000929489
  21574819.82509  -6888270.93809  -5344912.45208  21574820.38009  21574825.24808
  22417698.72909 -12957282.06509 -10057688.93607  22417698.80109  22417703.65807
  23800304.67809    101698.00009    119039.28606  23800307.86509  23800314.01106
  23097696.79809  -6305630.76209  -4887592.35608  23097698.93109  23097705.79808
  23038251.12409 -13645157.93109 -10245159.09307  23038251.65809  23038256.48407
  24579225.67508  21228010.38008  16542170.97105  24579228.96708  24579234.85705
  24954435.04709   4449576.19519   3850018.58316  24954436.35609  24954441.20106
  20951386.69809  -8368288.98409  -6492863.11608  20951388.02109  20951391.79108
 94  3 17 10 42 20.0000000  0  8  2  9  7 12 23 27 21 26             0.000908465
  21572827.44309  -6898734.83409  -5353066.13708  21572829.03409  21572834.11408
  22400993.50509 -13045060.44309 -10126087.65407  22400995.10309  22400999.82907
  23783304.40609     12341.98709     49411.26706  23783303.68509  23783310.71106
  23079260.86109  -6402509.94609  -4963082.58808  23079263.40609  23079270.30108
  23027898.74709 -13699554.64409 -10287546.14007  23027900.10209  23027904.84907
  24586771.22608  21267648.42908  16573057.72906  24586771.90108  24586777.26006
  24936865.44809   4357248.13709   3778074.63406  24936866.76409  24936871.66006
  20948077.83109  -8385679.23109  -6506413.96608  20948078.79709  20948082.51908
 94  3 17 10 42 40.0000000  0  8  2  9  7 12 23 27 21 26             0.000887429
  21570872.75909  -6909016.42909  -5361077.76908  21570872.60309  21570877.39808
  22384306.33409 -13132754.08909 -10194420.34707  22384307.57209  22384312.17107
  23766319.07009    -76902.56009    -20129.88606  23766320.61609  23766327.67606
  23060844.72609  -6499301.27209  -5038504.35808  23060844.54009  23060851.56308
  23017589.69409 -13753732.38009 -10329762.54507  23017590.49509  23017594.80507
  24594314.87808  21307291.34708  16603948.27506  24594315.63508  24594321.83606
  24919322.46508   4265056.86708   3706237.31606  24919322.99308  24919328.04806
  20944800.79509  -8402897.49809  -6519830.80308  20944802.03509  20944805.73408
 94  3 17 10 43  0.0000000  0  8  2  9  7 12 23 27 21 26             0.000866372
  21568946.53509  -6919134.86209  -5368962.26108  21568947.15709  21568951.80108
  22367631.02809 -13220376.02809 -10262697.16507  22367633.90309  22367638.50907
  23749354.00009   -166046.34109    -89592.52506  23749357.82309  23749364.41306
  23042438.58309  -6596018.44609  -5113868.34908  23042439.65109  23042446.17408
  23007320.88409 -13807699.33709 -10371814.70907  23007320.70309  23007325.56207
  24601857.28008  21346925.66108  16634832.11006  24601858.21108  24601864.25706
  24901802.53708   4172986.88508   3634494.53305  24901802.64808  24901807.54505
  20941552.36909  -8419962.07509  -6533127.87908  20941554.66009  20941558.62808
 94  3 17 10 43 20.0000000  0  8  2  9  7 12 23 27 21 26             0.000845296
  21567051.29909  -6929091.28309  -5376720.50908  21567052.42609  21567056.95808
  22350969.42009 -13307927.65309 -10330919.19607  22350973.02509  22350977.63007
  23732411.74409   -255092.31709   -158978.96306  23732412.69409  23732419.71706
  23024045.63709  -6692660.66409  -5189173.92908  23024049.10509  23024056.26808
  22997092.86309 -13861451.55809 -10413699.54907  22997091.87509  22997096.91407
  24609396.73508  21386551.76608  16665709.56006  24609398.56408  24609404.80406
  24884305.38808   4081038.88208   3562846.79705  24884305.54508  24884310.53405
  20938335.12409  -8436868.90209  -6546302.03708  20938337.38809  20938341.40008
 94  3 17 10 43 40.0000000  0  8  2  9  7 12 23 27 21 26             0.000824195
  21565187.64009  -6938879.34109  -5384347.56208  21565189.99109  21565194.62908
  22334326.66709 -13395406.17009 -10399084.25307  22334326.58909  22334331.18407
  23715485.94509   -344043.59009   -228291.60406  23715485.86009  23715492.49306
  23005670.96209  -6789227.54009  -5264420.80008  23005673.01709  23005680.07108
  22986903.02909 -13914983.64909 -10455412.86107  22986905.05109  22986910.39007
  24616938.44008  21426171.53208  16696582.07606  24616937.76908  24616944.79806
  24866831.19408   3989212.80408   3491294.05405  24866833.38408  24866836.48905
  20935150.33309  -8453610.80609  -6559347.68008  20935151.81609  20935155.67208
 94  3 17 10 44  0.0000000  0  8  2  9  7 12 23 27 21 26             0.000803072
  21563360.90609  -6948487.51509  -5391834.44808  21563361.54709  21563366.23608
  22317694.57409 -13482800.28209 -10467183.54507  22317695.97509  22317700.34007
  23698578.52709   -432892.46309   -297524.45606  23698578.91309  23698585.28606
  22987312.54209  -6885712.49209  -5339603.84808  22987312.46409  22987319.57408
  22976761.88209 -13968283.85509 -10496945.48107  22976762.51509  22976767.67207
  24624474.98408  21465791.21208  16727454.51906  24624477.18608  24624483.63406
  24849380.08408   3897514.36508   3419840.76405  24849381.44908  24849386.52505
  20931997.69809  -8470177.40709  -6572256.72308  20931999.32309  20932003.11308
 94  3 17 10 44 20.0000000  0  8  2  9  7 12 23 27 21 26             0.000781948
  21561572.78709  -6957883.50309  -5399155.98908  21561573.48609  21561578.29208
  22301084.72109 -13570081.20509 -10535194.63507  22301086.92609  22301091.42307
  23681696.45009   -521606.64409   -366652.35806  23681696.90509  23681703.42106
  22968972.42009  -6982083.19509  -5414697.85608  22968973.83309  22968980.52408
  22966671.09909 -14021314.75109 -10538268.25307  22966671.14609  22966676.13707
  24632023.29608  21505439.11108  16758348.95406  24632022.41008  24632028.83006
  24831962.34308   3805976.54908   3348512.62405  24831962.51708  24831968.07705
  20928884.19009  -8486539.69009  -6585006.55708  20928885.66009  20928889.33308
 94  3 17 10 44 40.0000000  0  8  2  9  7 12 23 27 21 26             0.000760847
  21559835.44509  -6967018.25009  -5406273.96908  21559835.31409  21559840.02008
  22284505.66709 -13657209.57009 -10603086.84507  22284506.79409  22284511.12007
  23664846.93309   -610139.69609   -435639.11906  23664849.67609  23664855.78606
  22950663.04009  -7078298.06409  -5489670.43908  22950664.81409  22950671.52408
  22956638.68509 -14074034.88509 -10579348.87207  22956638.56409  22956643.77007
  24639579.18408  21545159.86308  16789300.14706  24639580.73008  24639586.81106
  24814578.84308   3714639.45608   3277340.89705  24814582.12108  24814587.46205
  20925819.49609  -8502650.69109  -6597560.59008  20925819.90009  20925823.48008
 94  3 17 10 45  0.0000000  0  7  2  9  7 12 23 21 26                0.000739810
  21558151.20509  -6975868.80909  -5413170.50708  21558151.13509  21558155.94408
  22267959.98109 -13744158.78109 -10670839.46107  22267961.14609  22267965.25207
  23648042.06309   -698466.03409   -504464.81206  23648041.59409  23648047.81906
  22932388.67509  -7174332.74009  -5564502.60908  22932390.10909  22932396.71308
  22946669.12109 -14126420.42709 -10620168.77507  22946670.07709  22946675.27007
  24797244.79008   3623527.51208   3206344.59905  24797244.05508  24797249.96105
  20922807.17709  -8518477.63509  -6609893.28108  20922808.22809  20922811.77108
 94  3 17 10 45 20.0000000  0  7  2  9  7 12 23 21 26                0.000718779
  21556518.85509  -6984441.42409  -5419850.46508  21556519.81109  21556524.51508
  22251446.84909 -13830938.88309 -10738460.30207  22251447.39109  22251451.40307
  23631270.79009   -786594.56209   -573136.37006  23631271.33709  23631277.33006
  22914149.19009  -7270196.17709  -5639201.34408  22914147.80109  22914154.21208
  22936761.86409 -14178487.12109 -10660740.23107  22936762.30309  22936767.20007
  24779946.56708   3532633.28908   3135517.94405  24779947.96608  24779953.02505
  20919847.40809  -8534025.40709  -6622008.43108  20919849.45509  20919852.98508
 94  3 17 10 45 40.0000000  0  7  2  9  7 12 23 21 26                0.000697776
  21554941.30109  -6992735.44809  -5426313.34308  21554941.29109  21554946.08708
  22234964.88209 -13917552.22309 -10805951.19907  22234965.52509  22234969.70707
  23614538.39809   -874519.48309   -641649.26606  23614539.65309  23614545.77706
  22895935.85809  -7365889.32209  -5713767.38408  22895937.85009  22895944.46208
  22926913.13009 -14230241.34809 -10701068.20307  22926913.53509  22926918.62507
  24762690.42508   3441957.84208   3064861.76305  24762692.73908  24762697.85105
  20916942.77709  -8549292.74209  -6633905.06408  20916944.31509  20916947.87508
 94  3 17 10 46  0.0000000  0  7  2  9  7 12 23 21 26                0.000676798
  21553412.83909  -7000764.38509  -5432569.66308  21553413.40609  21553418.38908
  22218511.95109 -14004012.90109 -10873323.13507  22218512.43009  22218516.59007
  23597847.35509   -962241.24809   -710003.86306  23597846.62409  23597853.00806
  22877755.91609  -7461417.92109  -5788205.21208  22877759.40109  22877765.79508
  22917122.16509 -14281696.99909 -10741163.51407  22917122.13909  22917127.11007
  24745475.07108   3351500.69208   2994375.68905  24745478.45908  24745483.72305
  20914090.43809  -8564282.44409  -6645585.35908  20914091.95709  20914095.34108
 94  3 17 10 46 20.0000000  0  7  2  9  7 12 23 21 26                0.000655838
  21551931.11709  -7008545.76109  -5438633.08308  21551932.67609  21551937.70908
  22202085.36709 -14090334.82309 -10940586.95107  22202085.98609  22202090.02807
  23581187.11509  -1049771.04209   -778208.86906  23581190.24409  23581196.65106
  22859609.09309  -7556788.87509  -5862520.19408  22859610.96809  22859617.58508
  22907384.53609 -14332867.46809 -10781036.60907  22907384.57009  22907389.53907
  24728305.19709   3261261.11809   2924059.14506  24728306.78409  24728312.97506
  20911289.25309  -8579003.18109  -6657056.07008  20911290.62409  20911293.99208
 94  3 17 10 46 40.0000000  0  7  2  9  7 12 23 21 26                0.000634890
  21550496.97409  -7016091.07609  -5444512.55708  21550496.99909  21550501.94108
  22185685.19109 -14176521.99409 -11007745.76707  22185685.09509  22185689.38807
  23564566.42609  -1137121.98809   -846274.52106  23564568.02409  23564574.07506
  22841488.30609  -7652011.67309  -5936719.74008  22841490.65909  22841497.12308
  22897697.90609 -14383767.04309 -10820698.62007  22897698.93209  22897703.39207
  24711174.40909   3171232.09109   2853906.65506  24711174.89509  24711180.02606
  20908537.89809  -8593462.53209  -6668323.10408  20908539.05509  20908542.52808
 94  3 17 10 47  0.0000000  0  7  2  9  7 12 23 21 26                0.000613950
  21549103.32909  -7023410.51709  -5450216.02508  21549104.13709  21549108.99008
  22169307.97609 -14262577.34509 -11074801.86807  22169309.50909  22169313.68607
  23547979.85709  -1224300.99309   -914206.19906  23547978.69409  23547984.56506
  22823396.04809  -7747093.88309  -6010809.73108  22823397.09709  22823403.77008
  22888061.34409 -14434403.68909 -10860155.75507  22888062.95309  22888067.52007
  24694080.20209   3081409.22309   2783914.80906  24694082.41909  24694087.58006
  20905833.75209  -8607670.32909  -6679394.12208  20905835.37809  20905838.80608
 94  3 17 10 47 20.0000000  0  7  2  9  7 12 23 21 26                0.000593016
  21547753.28009  -7030505.00409  -5455744.20408  21547754.22209  21547759.07408
  22152956.93109 -14348506.56509 -11141759.68107  22152957.40509  22152961.63507
  23531419.22509  -1311313.37609   -982008.04507  23531420.58809  23531426.69407
  22805329.31409  -7842040.20509  -6084793.83808  22805329.33609  22805335.67908
  22878475.51609 -14484782.30209 -10899411.82307  22878476.22309  22878480.71007
  24677027.68609   2991791.20809   2714082.57806  24677028.22609  24677034.23506
  20903177.19509  -8621636.86609  -6690277.14408  20903177.58709  20903180.97608
 94  3 17 10 47 40.0000000  0  7  2  9  7 12 23 21 26                0.000572088
  21546446.89809  -7037370.87609  -5461094.24608  21546447.62309  21546452.55808
  22136629.79109 -14434306.99209 -11208617.13907  22136630.42409  22136634.57507
  23514891.99509  -1398161.57309  -1049681.95907  23514893.95109  23514899.96007
  22787285.85509  -7936847.02409  -6158669.24908  22787288.14109  22787294.75908
  22868939.02309 -14534898.47509 -10938463.39107  22868939.52009  22868943.95907
  24660016.37309   2902381.28409   2644412.51006  24660014.81509  24660019.33506
  20900565.12909  -8635361.41009  -6700971.59908  20900566.04909  20900569.46908
 94  3 17 10 48  0.0000000  0  7  2  9  7 12 23 21 26                0.000551157
  21545182.01809  -7044017.44909  -5466273.40608  21545182.65309  21545187.44008
  22120325.87509 -14519980.63509 -11275375.80407  22120326.60309  22120331.08907
  23498397.53709  -1484857.13309  -1117236.92207  23498396.54309  23498402.60607
  22769269.88309  -8031518.89909  -6232439.50008  22769272.61909  22769279.24808
  22859451.70309 -14584752.63409 -10977310.79707  22859452.74809  22859457.07407
  24643037.28809   2813173.35809   2574899.81106  24643039.18409  24643043.83406
  20897997.48509  -8648847.80909  -6711480.49008  20897999.72609  20898003.00308
 94  3 17 10 48 20.0000000  0  7  2  9  7 12 23 21 26                0.000530233
  21543961.56709  -7050437.00309  -5471275.66708  21543961.06509  21543965.76408
  22104050.72109 -14605508.23309 -11342020.66307  22104051.73609  22104055.98307
  23481926.66609  -1571393.37409  -1184667.73606  23481928.90609  23481934.97806
  22751282.63809  -8126045.54709  -6306096.59808  22751284.86409  22751291.53808
  22850017.03009 -14634328.87209 -11015941.64007  22850018.57109  22850023.06807
  24626100.84709   2724169.68309   2505546.28606  24626102.21709  24626107.43406
  20895477.06909  -8662094.58709  -6721802.66108  20895478.82009  20895482.15708
 94  3 17 10 48 40.0000000  0  7  2  9  7 12 23 21 26                0.000509324
  21542783.88409  -7056615.38109  -5476090.00208  21542785.33709  21542790.10508
  22087806.79009 -14690877.18509 -11408541.90507  22087806.45309  22087810.63007
  23465494.61109  -1657752.18209  -1251960.29407  23465495.13109  23465501.32407
  22733325.56609  -8220418.26609  -6379633.74608  22733326.41509  22733332.75908
  22840640.05209 -14683612.82409 -11054344.72307  22840640.00009  22840644.32907
  24609204.04309   2635372.11509   2436353.37706  24609204.62409  24609209.45406
  20893002.40109  -8675095.10409  -6731932.94208  20893004.69509  20893008.17608
 94  3 17 10 49  0.0000000  0  7  2  9  7 12 23 21 26                0.000488425
  21541652.47709  -7062565.18809  -5480726.23008  21541653.25709  21541658.16208
  22071588.24809 -14776105.30409 -11474953.40407  22071588.13809  22071592.36807
  23449092.96409  -1743938.74009  -1319118.63107  23449094.35409  23449100.77107
  22715395.64909  -8314651.93709  -6453062.54408  22715394.41709  22715400.52308
  22831313.86109 -14732615.28209 -11092528.46007  22831315.27809  22831319.51507
  24592342.38609   2546762.49709   2367306.94706  24592342.42409  24592347.59206
  20890573.00509  -8687865.02509  -6741883.53708  20890574.73009  20890578.48108
 94  3 17 10 49 20.0000000  0  7  2  9  7 12 23 21 26                0.000467526
  21540561.26809  -7068298.43609  -5485193.71408  21540562.21109  21540567.13708
  22055392.66009 -14861206.36609 -11541265.90407  22055393.75109  22055397.96107
  23432725.15609  -1829966.60509  -1386153.30807  23432723.83909  23432730.42907
  22697483.33909  -8408759.39009  -6526392.99308  22697486.09509  22697492.47608
  22822040.48209 -14781352.28509 -11130505.34707  22822041.02909  22822045.35807
  24575512.96709   2458330.38509   2298398.83906  24575514.37909  24575519.61706
  20888184.98009  -8700415.22309  -6751662.92408  20888186.52709  20888190.33308
 94  3 17 10 49 40.0000000  0  7  2  9  7 12 23 21 26                0.000446623
  21539511.05309  -7073818.23609  -5489494.87508  21539511.75009  21539516.82908
  22039223.14409 -14946178.53909 -11607477.96807  22039224.04609  22039228.30207
  23416382.83909  -1915835.39209  -1453064.02807  23416383.48409  23416389.68607
  22679600.74809  -8502738.38709  -6599623.34208  22679602.60609  22679609.05608
  22812816.75109 -14829823.39409 -11168275.03607  22812817.20909  22812821.87707
  24558719.75009   2370073.51909   2229627.27606  24558719.95609  24558724.80306
  20885839.41209  -8712740.43509  -6761266.99208  20885841.07909  20885844.96508
 94  3 17 10 50  0.0000000  0  7  2  9  7 12 23 21 26                0.000425725
  21538501.37109  -7079126.87609  -5493631.50008  21538501.59309  21538506.59708
  22023078.98709 -15031014.11409 -11673583.59407  22023080.38709  22023084.77707
  23400074.65409  -2001530.81409  -1519839.66907  23400076.04909  23400082.57107
  22661742.71909  -8596584.59709  -6672750.23108  22661744.20809  22661750.41508
  22803644.73009 -14878021.85809 -11205832.28607  22803645.11309  22803649.95007
  24541957.72109   2281993.33109   2160993.37706  24541958.43509  24541964.23706
  20883539.59409  -8724834.44209  -6770690.90408  20883539.81009  20883543.83908
 94  3 17 10 50 20.0000000  0  7  2  9  7 12 23 21 26                0.000404841
  21537531.71909  -7084219.71709  -5497599.96608  21537532.59209  21537537.63308
  22006962.81409 -15115709.00909 -11739579.60007  22006963.52609  22006967.90207
  23383803.61409  -2087044.12109  -1586473.39907  23383803.33309  23383809.75607
  22643911.57009  -8690294.04309  -6745770.54608  22643911.87009  22643918.20408
  22794524.27909 -14925946.02309 -11243175.79007  22794525.69609  22794530.13307
  24525231.68808   2194099.84508   2092504.94606  24525232.45408  24525238.63506
  20881280.50709  -8736699.07409  -6779936.08208  20881282.03709  20881285.97108
 94  3 17 10 50 40.0000000  0  7  2  9  7 12 23 21 26                0.000383968
  21536604.84809  -7089094.57109  -5501398.57508  21536604.99509  21536609.99808
  21990871.66409 -15200266.22209 -11805468.32007  21990872.80009  21990877.24007
  23367564.59109  -2172375.29709  -1652965.20807  23367565.73209  23367571.74807
  22626105.91309  -8783869.09309  -6818686.13308  22626104.88409  22626111.58908
  22785456.70509 -14973602.50809 -11280310.70907  22785456.85509  22785461.36707
  24508544.46909   2106398.82909   2024166.50306  24508544.21209  24508550.07706
  20879065.48809  -8748336.52309  -6789004.23508  20879067.45809  20879071.40508
 94  3 17 10 51  0.0000000  0  7  2  9  7 12 23 21 26                0.000363108
  21535718.29709  -7093749.44609  -5505025.76908  21535719.14009  21535724.20608
  21974807.89109 -15284682.11509 -11871246.92707  21974808.74809  21974813.19007
  23351360.98209  -2257528.54909  -1719318.37207  23351361.45009  23351367.78207
  22608322.06209  -8877305.43909  -6891493.64108  22608324.49609  22608330.89808
  22776438.66809 -15020990.34309 -11317236.29907  22776439.20909  22776443.68207
  24491890.16408   2018898.39408   1955984.35906  24491893.43008  24491898.46106
  20876894.53009  -8759745.37809  -6797894.26308  20876896.23309  20876900.24008
 94  3 17 10 51 20.0000000  0  7  2  9  7 12 23 21 26                0.000342250
  21534872.09609  -7098195.42209  -5508490.18908  21534873.12609  21534878.27108
  21958771.28209 -15368957.01609 -11936915.66607  21958771.97909  21958776.42807
  23335186.87409  -2342519.97509  -1785545.44306  23335188.01009  23335193.97906
  22590569.16109  -8970607.89409  -6964196.82208  22590569.89809  22590576.32908
  22767470.39809 -15068119.87509 -11353960.60907  22767470.86409  22767475.37507
  24475277.29008   1931595.78308   1887956.34106  24475280.07708  24475285.74206
  20874766.20209  -8770933.96509  -6806612.65108  20874766.93009  20874771.06708
 94  3 17 10 51 40.0000000  0  7  2  9  7 12 23 21 26                0.000321398
  21534065.04309  -7102437.39509  -5511795.64608  21534066.08509  21534070.91708
  21942759.98109 -15453093.57609 -12002476.60807  21942761.27409  21942765.69407
  23319044.44909  -2427346.37509  -1851643.92407  23319046.18409  23319051.98107
  22572839.04009  -9063775.02109  -7036794.54908  22572840.47009  22572846.70108
  22758551.66709 -15114986.08409 -11390479.73107  22758552.67509  22758557.10807
  24458703.86608   1844486.38908   1820078.90306  24458703.90208  24458708.67106
  20872678.49909  -8781905.94709  -6815162.26108  20872679.09409  20872683.22608
